{
  "meta": {
    "country": "Azerbaijan",
    "country_code": "AZ",
    "country_flag": "ðŸ‡¦ðŸ‡¿",
    "currency": "AZN"
  },
  "addresses": [
    {
      "name": "Tural Mammadov",
      "gender": "Male",
      "phone_number": "+994 50 123 4567",
      "street_address": "12 Neftchilar Avenue",
      "street_name": "Neftchilar Avenue",
      "building_number": "12",
      "city": "Baku",
      "state": "Absheron",
      "postal_code": "AZ1000",
      "coordinates": {
        "latitude": "40.3666",
        "longitude": "49.8352"
      },
      "timezone": {
        "offset": "+04:00",
        "description": "Asia/Baku"
      },
      "avatar_url": "https://api.dicebear.com/8.x/thumbs/svg?seed=TuralMammadov"
    },
    {
      "name": "Aynur Aliyeva",
      "gender": "Female",
      "phone_number": "+994 55 234 5678",
      "street_address": "45 Tbilisi Avenue",
      "street_name": "Tbilisi Avenue",
      "building_number": "45",
      "city": "Baku",
      "state": "Absheron",
      "postal_code": "AZ1012",
      "coordinates": {
        "latitude": "40.3953",
        "longitude": "49.8822"
      },
      "timezone": {
        "offset": "+04:00",
        "description": "Asia/Baku"
      },
      "avatar_url": "https://api.dicebear.com/8.x/thumbs/svg?seed=AynurAliyeva"
    },
    {
      "name": "Rashad Huseynov",
      "gender": "Male",
      "phone_number": "+994 70 345 6789",
      "street_address": "78 Nizami Street",
      "street_name": "Nizami Street",
      "building_number": "78",
      "city": "Ganja",
      "state": "Ganja-Gazakh",
      "postal_code": "AZ2000",
      "coordinates": {
        "latitude": "40.6828",
        "longitude": "46.3606"
      },
      "timezone": {
        "offset": "+04:00",
        "description": "Asia/Baku"
      },
      "avatar_url": "https://api.dicebear.com/8.x/thumbs/svg?seed=RashadHuseynov"
    },
    {
      "name": "Sabina Jafarova",
      "gender": "Female",
      "phone_number": "+994 77 456 7890",
      "street_address": "101 Heydar Aliyev Avenue",
      "street_name": "Heydar Aliyev Avenue",
      "building_number": "101",
      "city": "Sumqayit",
      "state": "Absheron",
      "postal_code": "AZ5000",
      "coordinates": {
        "latitude": "40.5897",
        "longitude": "49.6686"
      },
      "timezone": {
        "offset": "+04:00",
        "description": "Asia/Baku"
      },
      "avatar_url": "https://api.dicebear.com/8.x/thumbs/svg?seed=SabinaJafarova"
    },
    {
      "name": "Elchin Gasimov",
      "gender": "Male",
      "phone_number": "+994 51 567 8901",
      "street_address": "34 Khatai Avenue",
      "street_name": "Khatai Avenue",
      "building_number": "34",
      "city": "Nakhchivan",
      "state": "Nakhchivan Autonomous Republic",
      "postal_code": "AZ7000",
      "coordinates": {
        "latitude": "39.2092",
        "longitude": "45.4122"
      },
      "timezone": {
        "offset": "+04:00",
        "description": "Asia/Baku"
      },
      "avatar_url": "https://api.dicebear.com/8.x/thumbs/svg?seed=ElchinGasimov"
    },
    {
      "name": "Nigar Abbasova",
      "gender": "Female",
      "phone_number": "+994 55 678 9012",
      "street_address": "89 Zarifa Aliyeva Street",
      "street_name": "Zarifa Aliyeva Street",
      "building_number": "89",
      "city": "Baku",
      "state": "Absheron",
      "postal_code": "AZ1022",
      "coordinates": {
        "latitude": "40.3739",
        "longitude": "49.8530"
      },
      "timezone": {
        "offset": "+04:00",
        "description": "Asia/Baku"
      },
      "avatar_url": "https://api.dicebear.com/8.x/thumbs/svg?seed=NigarAbbasova"
    },
    {
      "name": "Kamran Mehdiyev",
      "gender": "Male",
      "phone_number": "+994 70 789 0123",
      "street_address": "67 Huseyn Javid Avenue",
      "street_name": "Huseyn Javid Avenue",
      "building_number": "67",
      "city": "Ganja",
      "state": "Ganja-Gazakh",
      "postal_code": "AZ2020",
      "coordinates": {
        "latitude": "40.6845",
        "longitude": "46.3613"
      },
      "timezone": {
        "offset": "+04:00",
        "description": "Asia/Baku"
      },
      "avatar_url": "https://api.dicebear.com/8.x/thumbs/svg?seed=KamranMehdiyev"
    },
    {
      "name": "Leyla Karimova",
      "gender": "Female",
      "phone_number": "+994 77 890 1234",
      "street_address": "23 Nakhchivani Street",
      "street_name": "Nakhchivani Street",
      "building_number": "23",
      "city": "Sumqayit",
      "state": "Absheron",
      "postal_code": "AZ5010",
      "coordinates": {
        "latitude": "40.5900",
        "longitude": "49.6700"
      },
      "timezone": {
        "offset": "+04:00",
        "description": "Asia/Baku"
      },
      "avatar_url": "https://api.dicebear.com/8.x/thumbs/svg?seed=LeylaKarimova"
    },
    {
      "name": "Ilham Rasulov",
      "gender": "Male",
      "phone_number": "+994 51 901 2345",
      "street_address": "56 Sahil Avenue",
      "street_name": "Sahil Avenue",
      "building_number": "56",
      "city": "Baku",
      "state": "Absheron",
      "postal_code": "AZ1005",
      "coordinates": {
        "latitude": "40.3725",
        "longitude": "49.8556"
      },
      "timezone": {
        "offset": "+04:00",
        "description": "Asia/Baku"
      },
      "avatar_url": "https://api.dicebear.com/8.x/thumbs/svg?seed=IlhamRasulov"
    },
    {
      "name": "Sevda Hajiyeva",
      "gender": "Female",
      "phone_number": "+994 50 987 6543",
      "street_address": "101 Samad Vurgun Street",
      "street_name": "Samad Vurgun Street",
      "building_number": "101",
      "city": "Baku",
      "state": "Absheron",
      "postal_code": "AZ1033",
      "coordinates": {
        "latitude": "40.3845",
        "longitude": "49.8705"
      },
      "timezone": {
        "offset": "+04:00",
        "description": "Asia/Baku"
      },
      "avatar_url": "https://api.dicebear.com/8.x/thumbs/svg?seed=SevdaHajiyeva"
    }
  ]
}
