{
  "meta": {
    "country": "Switzerland",
    "country_code": "CH",
    "currency": "CHF",
    "country_flag": "ðŸ‡¨ðŸ‡­"
  },
  "addresses": [
    {
      "name": "Luca Meier",
      "gender": "Male",
      "phone_number": "+41 79 123 4567",
      "street_address": "123 Bahnhofstrasse",
      "street_name": "Bahnhofstrasse",
      "building_number": "123",
      "city": "Zurich",
      "state": "Zurich",
      "postal_code": "8001",
      "coordinates": {
        "latitude": "47.3769",
        "longitude": "8.5417"
      },
      "timezone": {
        "offset": "+01:00",
        "description": "Europe/Zurich"
      },
      "avatar_url": "https://api.dicebear.com/8.x/thumbs/svg?seed=LucaMeier"
    },
    {
      "name": "Sophie Dupont",
      "gender": "Female",
      "phone_number": "+41 78 234 5678",
      "street_address": "456 Rue du RhÃ´ne",
      "street_name": "Rue du RhÃ´ne",
      "building_number": "456",
      "city": "Geneva",
      "state": "Geneva",
      "postal_code": "1204",
      "coordinates": {
        "latitude": "46.2044",
        "longitude": "6.1432"
      },
      "timezone": {
        "offset": "+01:00",
        "description": "Europe/Zurich"
      },
      "avatar_url": "https://api.dicebear.com/8.x/thumbs/svg?seed=SophieDupont"
    },
    {
      "name": "Noah Keller",
      "gender": "Male",
      "phone_number": "+41 76 345 6789",
      "street_address": "789 Bundesplatz",
      "street_name": "Bundesplatz",
      "building_number": "789",
      "city": "Bern",
      "state": "Bern",
      "postal_code": "3011",
      "coordinates": {
        "latitude": "46.9481",
        "longitude": "7.4474"
      },
      "timezone": {
        "offset": "+01:00",
        "description": "Europe/Zurich"
      },
      "avatar_url": "https://api.dicebear.com/8.x/thumbs/svg?seed=NoahKeller"
    },
    {
      "name": "Elena Rossi",
      "gender": "Female",
      "phone_number": "+41 77 456 7890",
      "street_address": "101 Via Nassa",
      "street_name": "Via Nassa",
      "building_number": "101",
      "city": "Lugano",
      "state": "Ticino",
      "postal_code": "6900",
      "coordinates": {
        "latitude": "46.0037",
        "longitude": "8.9511"
      },
      "timezone": {
        "offset": "+01:00",
        "description": "Europe/Zurich"
      },
      "avatar_url": "https://api.dicebear.com/8.x/thumbs/svg?seed=ElenaRossi"
    },
    {
      "name": "Tim MÃ¼ller",
      "gender": "Male",
      "phone_number": "+41 79 567 8901",
      "street_address": "34 Rue du Mont-Blanc",
      "street_name": "Rue du Mont-Blanc",
      "building_number": "34",
      "city": "Geneva",
      "state": "Geneva",
      "postal_code": "1201",
      "coordinates": {
        "latitude": "46.2106",
        "longitude": "6.1423"
      },
      "timezone": {
        "offset": "+01:00",
        "description": "Europe/Zurich"
      },
      "avatar_url": "https://api.dicebear.com/8.x/thumbs/svg?seed=TimMÃ¼ller"
    },
    {
      "name": "Anna Baumann",
      "gender": "Female",
      "phone_number": "+41 76 987 6543",
      "street_address": "65 Limmatquai",
      "street_name": "Limmatquai",
      "building_number": "65",
      "city": "Zurich",
      "state": "Zurich",
      "postal_code": "8001",
      "coordinates": {
        "latitude": "47.3736",
        "longitude": "8.5421"
      },
      "timezone": {
        "offset": "+01:00",
        "description": "Europe/Zurich"
      },
      "avatar_url": "https://api.dicebear.com/8.x/thumbs/svg?seed=AnnaBaumann"
    },
    {
      "name": "Jonas Weber",
      "gender": "Male",
      "phone_number": "+41 78 654 3210",
      "street_address": "22 Marktgasse",
      "street_name": "Marktgasse",
      "building_number": "22",
      "city": "Bern",
      "state": "Bern",
      "postal_code": "3011",
      "coordinates": {
        "latitude": "46.9482",
        "longitude": "7.4475"
      },
      "timezone": {
        "offset": "+01:00",
        "description": "Europe/Zurich"
      },
      "avatar_url": "https://api.dicebear.com/8.x/thumbs/svg?seed=JonasWeber"
    },
    {
      "name": "Claire Moreau",
      "gender": "Female",
      "phone_number": "+41 77 321 0987",
      "street_address": "18 Place du Bourg-de-Four",
      "street_name": "Place du Bourg-de-Four",
      "building_number": "18",
      "city": "Geneva",
      "state": "Geneva",
      "postal_code": "1204",
      "coordinates": {
        "latitude": "46.2000",
        "longitude": "6.1500"
      },
      "timezone": {
        "offset": "+01:00",
        "description": "Europe/Zurich"
      },
      "avatar_url": "https://api.dicebear.com/8.x/thumbs/svg?seed=ClaireMoreau"
    },
    {
      "name": "Leon Fischer",
      "gender": "Male",
      "phone_number": "+41 76 210 9876",
      "street_address": "75 Seefeldstrasse",
      "street_name": "Seefeldstrasse",
      "building_number": "75",
      "city": "Zurich",
      "state": "Zurich",
      "postal_code": "8008",
      "coordinates": {
        "latitude": "47.3545",
        "longitude": "8.5560"
      },
      "timezone": {
        "offset": "+01:00",
        "description": "Europe/Zurich"
      },
      "avatar_url": "https://api.dicebear.com/8.x/thumbs/svg?seed=LeonFischer"
    },
    {
      "name": "Nina Keller",
      "gender": "Female",
      "phone_number": "+41 79 876 5432",
      "street_address": "50 Quai du Mont-Blanc",
      "street_name": "Quai du Mont-Blanc",
      "building_number": "50",
      "city": "Geneva",
      "state": "Geneva",
      "postal_code": "1201",
      "coordinates": {
        "latitude": "46.2111",
        "longitude": "6.1462"
      },
      "timezone": {
        "offset": "+01:00",
        "description": "Europe/Zurich"
      },
      "avatar_url": "https://api.dicebear.com/8.x/thumbs/svg?seed=NinaKeller"
    }
  ]
}