{
  "meta": {
    "country": "Denmark",
    "country_code": "DK",
    "currency": "DKK",
    "country_flag": "üá©üá∞"
  },
  "addresses": [
    {
      "name": "Frederik Andersen",
      "gender": "Male",
      "phone_number": "+45 31 20 45 67",
      "street_address": "123 Str√∏get",
      "street_name": "Str√∏get",
      "building_number": "123",
      "city": "Copenhagen",
      "state": "Capital Region",
      "postal_code": "1200",
      "coordinates": {
        "latitude": "55.6786",
        "longitude": "12.5734"
      },
      "timezone": {
        "offset": "+01:00",
        "description": "Europe/Copenhagen"
      },
      "avatar_url": "https://api.dicebear.com/8.x/thumbs/svg?seed=FrederikAndersen"
    },
    {
      "name": "Emma Nielsen",
      "gender": "Female",
      "phone_number": "+45 42 33 56 78",
      "street_address": "456 Nyhavn",
      "street_name": "Nyhavn",
      "building_number": "456",
      "city": "Copenhagen",
      "state": "Capital Region",
      "postal_code": "1051",
      "coordinates": {
        "latitude": "55.6805",
        "longitude": "12.5933"
      },
      "timezone": {
        "offset": "+01:00",
        "description": "Europe/Copenhagen"
      },
      "avatar_url": "https://api.dicebear.com/8.x/thumbs/svg?seed=EmmaNielsen"
    },
    {
      "name": "Mads Kristensen",
      "gender": "Male",
      "phone_number": "+45 51 64 78 90",
      "street_address": "789 √Öboulevard",
      "street_name": "√Öboulevard",
      "building_number": "789",
      "city": "Aarhus",
      "state": "Central Denmark",
      "postal_code": "8000",
      "coordinates": {
        "latitude": "56.1629",
        "longitude": "10.2039"
      },
      "timezone": {
        "offset": "+01:00",
        "description": "Europe/Copenhagen"
      },
      "avatar_url": "https://api.dicebear.com/8.x/thumbs/svg?seed=MadsKristensen"
    },
    {
      "name": "Ida Rasmussen",
      "gender": "Female",
      "phone_number": "+45 22 88 99 00",
      "street_address": "101 Vestergade",
      "street_name": "Vestergade",
      "building_number": "101",
      "city": "Odense",
      "state": "Southern Denmark",
      "postal_code": "5000",
      "coordinates": {
        "latitude": "55.3959",
        "longitude": "10.3883"
      },
      "timezone": {
        "offset": "+01:00",
        "description": "Europe/Copenhagen"
      },
      "avatar_url": "https://api.dicebear.com/8.x/thumbs/svg?seed=IdaRasmussen"
    },
    {
      "name": "Anders M√∏ller",
      "gender": "Male",
      "phone_number": "+45 61 55 73 84",
      "street_address": "34 N√∏rregade",
      "street_name": "N√∏rregade",
      "building_number": "34",
      "city": "Aalborg",
      "state": "North Denmark",
      "postal_code": "9000",
      "coordinates": {
        "latitude": "57.0488",
        "longitude": "9.9217"
      },
      "timezone": {
        "offset": "+01:00",
        "description": "Europe/Copenhagen"
      },
      "avatar_url": "https://api.dicebear.com/8.x/thumbs/svg?seed=AndersMoller"
    },
    {
      "name": "Lars Thomsen",
      "gender": "Male",
      "phone_number": "+45 70 12 34 56",
      "street_address": "12 Gammel Kongevej",
      "street_name": "Gammel Kongevej",
      "building_number": "12",
      "city": "Frederiksberg",
      "state": "Capital Region",
      "postal_code": "1850",
      "coordinates": {
        "latitude": "55.6758",
        "longitude": "12.5307"
      },
      "timezone": {
        "offset": "+01:00",
        "description": "Europe/Copenhagen"
      },
      "avatar_url": "https://api.dicebear.com/8.x/thumbs/svg?seed=LarsThomsen"
    },
    {
      "name": "Sara Jensen",
      "gender": "Female",
      "phone_number": "+45 71 33 44 55",
      "street_address": "56 √òsterbrogade",
      "street_name": "√òsterbrogade",
      "building_number": "56",
      "city": "Copenhagen",
      "state": "Capital Region",
      "postal_code": "2100",
      "coordinates": {
        "latitude": "55.7058",
        "longitude": "12.5755"
      },
      "timezone": {
        "offset": "+01:00",
        "description": "Europe/Copenhagen"
      },
      "avatar_url": "https://api.dicebear.com/8.x/thumbs/svg?seed=SaraJensen"
    },
    {
      "name": "Nikolaj Hansen",
      "gender": "Male",
      "phone_number": "+45 72 98 11 22",
      "street_address": "78 Skibhusvej",
      "street_name": "Skibhusvej",
      "building_number": "78",
      "city": "Odense",
      "state": "Southern Denmark",
      "postal_code": "5000",
      "coordinates": {
        "latitude": "55.4103",
        "longitude": "10.4021"
      },
      "timezone": {
        "offset": "+01:00",
        "description": "Europe/Copenhagen"
      },
      "avatar_url": "https://api.dicebear.com/8.x/thumbs/svg?seed=NikolajHansen"
    },
    {
      "name": "Camilla S√∏rensen",
      "gender": "Female",
      "phone_number": "+45 60 87 65 43",
      "street_address": "90 Viborgvej",
      "street_name": "Viborgvej",
      "building_number": "90",
      "city": "Aarhus",
      "state": "Central Denmark",
      "postal_code": "8210",
      "coordinates": {
        "latitude": "56.1530",
        "longitude": "10.1896"
      },
      "timezone": {
        "offset": "+01:00",
        "description": "Europe/Copenhagen"
      },
      "avatar_url": "https://api.dicebear.com/8.x/thumbs/svg?seed=CamillaSorensen"
    },
    {
      "name": "Henrik Larsen",
      "gender": "Male",
      "phone_number": "+45 55 66 77 88",
      "street_address": "22 Hj√∏rringvej",
      "street_name": "Hj√∏rringvej",
      "building_number": "22",
      "city": "Hj√∏rring",
      "state": "North Denmark",
      "postal_code": "9800",
      "coordinates": {
        "latitude": "57.4644",
        "longitude": "9.9824"
      },
      "timezone": {
        "offset": "+01:00",
        "description": "Europe/Copenhagen"
      },
      "avatar_url": "https://api.dicebear.com/8.x/thumbs/svg?seed=HenrikLarsen"
    }
  ]
}