{
  "meta": {
    "country": "Nepal",
    "country_code": "NP",
    "currency": "NPR",
    "country_flag": "ðŸ‡³ðŸ‡µ"
  },
  "addresses": [
    {
      "name": "Suresh Shrestha",
      "gender": "Male",
      "phone_number": "+977 9801001234",
      "street_address": "123 Durbar Marg",
      "street_name": "Durbar Marg",
      "building_number": "123",
      "city": "Kathmandu",
      "state": "Bagmati Province",
      "postal_code": "44600",
      "coordinates": {
        "latitude": "27.7172",
        "longitude": "85.3240"
      },
      "timezone": {
        "offset": "+05:45",
        "description": "Nepal Standard Time"
      },
      "avatar_url": "https://api.dicebear.com/8.x/thumbs/svg?seed=SureshShrestha"
    },
    {
      "name": "Anita Gurung",
      "gender": "Female",
      "phone_number": "+977 9802005678",
      "street_address": "45 Lakeside Road",
      "street_name": "Lakeside Road",
      "building_number": "45",
      "city": "Pokhara",
      "state": "Gandaki Province",
      "postal_code": "33700",
      "coordinates": {
        "latitude": "28.2096",
        "longitude": "83.9856"
      },
      "timezone": {
        "offset": "+05:45",
        "description": "Nepal Standard Time"
      },
      "avatar_url": "https://api.dicebear.com/8.x/thumbs/svg?seed=AnitaGurung"
    },
    {
      "name": "Rajesh Yadav",
      "gender": "Male",
      "phone_number": "+977 9803009123",
      "street_address": "78 Mahendra Highway",
      "street_name": "Mahendra Highway",
      "building_number": "78",
      "city": "Biratnagar",
      "state": "Province No. 1",
      "postal_code": "56613",
      "coordinates": {
        "latitude": "26.4525",
        "longitude": "87.2718"
      },
      "timezone": {
        "offset": "+05:45",
        "description": "Nepal Standard Time"
      },
      "avatar_url": "https://api.dicebear.com/8.x/thumbs/svg?seed=RajeshYadav"
    },
    {
      "name": "Nisha Adhikari",
      "gender": "Female",
      "phone_number": "+977 9804008765",
      "street_address": "101 Saptagandaki Road",
      "street_name": "Saptagandaki Road",
      "building_number": "101",
      "city": "Chitwan",
      "state": "Bagmati Province",
      "postal_code": "44200",
      "coordinates": {
        "latitude": "27.5345",
        "longitude": "84.3542"
      },
      "timezone": {
        "offset": "+05:45",
        "description": "Nepal Standard Time"
      },
      "avatar_url": "https://api.dicebear.com/8.x/thumbs/svg?seed=NishaAdhikari"
    },
    {
      "name": "Dipesh Rai",
      "gender": "Male",
      "phone_number": "+977 9805003344",
      "street_address": "34 Bhanu Path",
      "street_name": "Bhanu Path",
      "building_number": "34",
      "city": "Dharan",
      "state": "Koshi Province",
      "postal_code": "56700",
      "coordinates": {
        "latitude": "26.8143",
        "longitude": "87.2801"
      },
      "timezone": {
        "offset": "+05:45",
        "description": "Nepal Standard Time"
      },
      "avatar_url": "https://api.dicebear.com/8.x/thumbs/svg?seed=DipeshRai"
    },
    {
      "name": "Sita Koirala",
      "gender": "Female",
      "phone_number": "+977 9806009876",
      "street_address": "56 New Road",
      "street_name": "New Road",
      "building_number": "56",
      "city": "Kathmandu",
      "state": "Bagmati Province",
      "postal_code": "44601",
      "coordinates": {
        "latitude": "27.7172",
        "longitude": "85.3240"
      },
      "timezone": {
        "offset": "+05:45",
        "description": "Nepal Standard Time"
      },
      "avatar_url": "https://api.dicebear.com/8.x/thumbs/svg?seed=SitaKoirala"
    },
    {
      "name": "Ramesh Thapa",
      "gender": "Male",
      "phone_number": "+977 9807001122",
      "street_address": "89 Buddha Street",
      "street_name": "Buddha Street",
      "building_number": "89",
      "city": "Lalitpur",
      "state": "Bagmati Province",
      "postal_code": "44700",
      "coordinates": {
        "latitude": "27.6640",
        "longitude": "85.3188"
      },
      "timezone": {
        "offset": "+05:45",
        "description": "Nepal Standard Time"
      },
      "avatar_url": "https://api.dicebear.com/8.x/thumbs/svg?seed=RameshThapa"
    },
    {
      "name": "Meena Khadka",
      "gender": "Female",
      "phone_number": "+977 9808002233",
      "street_address": "11 Seti Highway",
      "street_name": "Seti Highway",
      "building_number": "11",
      "city": "Dhangadhi",
      "state": "Sudurpashchim Province",
      "postal_code": "10900",
      "coordinates": {
        "latitude": "28.7011",
        "longitude": "80.5960"
      },
      "timezone": {
        "offset": "+05:45",
        "description": "Nepal Standard Time"
      },
      "avatar_url": "https://api.dicebear.com/8.x/thumbs/svg?seed=MeenaKhadka"
    },
    {
      "name": "Bikram Bhandari",
      "gender": "Male",
      "phone_number": "+977 9809003344",
      "street_address": "22 Gorkha Road",
      "street_name": "Gorkha Road",
      "building_number": "22",
      "city": "Gorkha",
      "state": "Gandaki Province",
      "postal_code": "34000",
      "coordinates": {
        "latitude": "28.1594",
        "longitude": "84.0307"
      },
      "timezone": {
        "offset": "+05:45",
        "description": "Nepal Standard Time"
      },
      "avatar_url": "https://api.dicebear.com/8.x/thumbs/svg?seed=BikramBhandari"
    },
    {
      "name": "Kritika Shahi",
      "gender": "Female",
      "phone_number": "+977 9810004455",
      "street_address": "77 Ramghat",
      "street_name": "Ramghat",
      "building_number": "77",
      "city": "Nepalgunj",
      "state": "Lumbini Province",
      "postal_code": "21900",
      "coordinates": {
        "latitude": "28.0541",
        "longitude": "81.6165"
      },
      "timezone": {
        "offset": "+05:45",
        "description": "Nepal Standard Time"
      },
      "avatar_url": "https://api.dicebear.com/8.x/thumbs/svg?seed=KritikaShahi"
    }
  ]
}