{
  "meta": {
    "country": "Russia",
    "country_code": "RU",
    "currency": "RUB",
    "country_flag": "ðŸ‡·ðŸ‡º"
  },
  "addresses": [
    {
      "name": "Ivan Petrov",
      "gender": "Male",
      "phone_number": "+7 495 123-45-67",
      "street_address": "Ulitsa Arbat 12",
      "street_name": "Ulitsa Arbat",
      "building_number": "12",
      "city": "Moscow",
      "state": "Moscow Oblast",
      "postal_code": "119019",
      "coordinates": {
        "latitude": "55.7522",
        "longitude": "37.6156"
      },
      "timezone": {
        "offset": "+03:00",
        "description": "Moscow Standard Time"
      },
      "avatar_url": "https://api.dicebear.com/8.x/thumbs/svg?seed=IvanPetrov"
    },
    {
      "name": "Anna Ivanova",
      "gender": "Female",
      "phone_number": "+7 812 234-56-78",
      "street_address": "Nevsky Prospekt 56",
      "street_name": "Nevsky Prospekt",
      "building_number": "56",
      "city": "Saint Petersburg",
      "state": "Leningrad Oblast",
      "postal_code": "191011",
      "coordinates": {
        "latitude": "59.9343",
        "longitude": "30.3351"
      },
      "timezone": {
        "offset": "+03:00",
        "description": "Moscow Standard Time"
      },
      "avatar_url": "https://api.dicebear.com/8.x/thumbs/svg?seed=AnnaIvanova"
    },
    {
      "name": "Dmitry Sokolov",
      "gender": "Male",
      "phone_number": "+7 383 345-67-89",
      "street_address": "Lenina Street 23A",
      "street_name": "Lenina Street",
      "building_number": "23A",
      "city": "Novosibirsk",
      "state": "Novosibirsk Oblast",
      "postal_code": "630099",
      "coordinates": {
        "latitude": "55.0084",
        "longitude": "82.9357"
      },
      "timezone": {
        "offset": "+07:00",
        "description": "Novosibirsk Time"
      },
      "avatar_url": "https://api.dicebear.com/8.x/thumbs/svg?seed=DmitrySokolov"
    },
    {
      "name": "Elena Smirnova",
      "gender": "Female",
      "phone_number": "+7 343 456-78-90",
      "street_address": "Prospekt Mira 78",
      "street_name": "Prospekt Mira",
      "building_number": "78",
      "city": "Yekaterinburg",
      "state": "Sverdlovsk Oblast",
      "postal_code": "620075",
      "coordinates": {
        "latitude": "56.8389",
        "longitude": "60.6057"
      },
      "timezone": {
        "offset": "+05:00",
        "description": "Yekaterinburg Time"
      },
      "avatar_url": "https://api.dicebear.com/8.x/thumbs/svg?seed=ElenaSmirnova"
    },
    {
      "name": "Sergey Volkov",
      "gender": "Male",
      "phone_number": "+7 843 567-89-01",
      "street_address": "Kirova Street 11B",
      "street_name": "Kirova Street",
      "building_number": "11B",
      "city": "Kazan",
      "state": "Tatarstan",
      "postal_code": "420111",
      "coordinates": {
        "latitude": "55.7903",
        "longitude": "49.1347"
      },
      "timezone": {
        "offset": "+03:00",
        "description": "Moscow Standard Time"
      },
      "avatar_url": "https://api.dicebear.com/8.x/thumbs/svg?seed=SergeyVolkov"
    },
    {
      "name": "Nina Morozova",
      "gender": "Female",
      "phone_number": "+7 861 678-90-12",
      "street_address": "123 Krasnaya Street",
      "street_name": "Krasnaya Street",
      "building_number": "123",
      "city": "Krasnodar",
      "state": "Krasnodar Krai",
      "postal_code": "350000",
      "coordinates": {
        "latitude": "45.0355",
        "longitude": "38.9753"
      },
      "timezone": {
        "offset": "+03:00",
        "description": "Moscow Standard Time"
      },
      "avatar_url": "https://api.dicebear.com/8.x/thumbs/svg?seed=NinaMorozova"
    },
    {
      "name": "Alexey Egorov",
      "gender": "Male",
      "phone_number": "+7 3952 789-01-23",
      "street_address": "45 Baikalskaya Street",
      "street_name": "Baikalskaya Street",
      "building_number": "45",
      "city": "Irkutsk",
      "state": "Irkutsk Oblast",
      "postal_code": "664000",
      "coordinates": {
        "latitude": "52.2879",
        "longitude": "104.3050"
      },
      "timezone": {
        "offset": "+08:00",
        "description": "Irkutsk Time"
      },
      "avatar_url": "https://api.dicebear.com/8.x/thumbs/svg?seed=AlexeyEgorov"
    },
    {
      "name": "Maria Kuznetsova",
      "gender": "Female",
      "phone_number": "+7 4012 890-12-34",
      "street_address": "78 Leninskaya Street",
      "street_name": "Leninskaya Street",
      "building_number": "78",
      "city": "Kaliningrad",
      "state": "Kaliningrad Oblast",
      "postal_code": "236000",
      "coordinates": {
        "latitude": "54.7104",
        "longitude": "20.4522"
      },
      "timezone": {
        "offset": "+02:00",
        "description": "Kaliningrad Time"
      },
      "avatar_url": "https://api.dicebear.com/8.x/thumbs/svg?seed=MariaKuznetsova"
    },
    {
      "name": "Vladimir Morozov",
      "gender": "Male",
      "phone_number": "+7 812 901-23-45",
      "street_address": "101 Pushkinskaya Street",
      "street_name": "Pushkinskaya Street",
      "building_number": "101",
      "city": "Saint Petersburg",
      "state": "Leningrad Oblast",
      "postal_code": "191123",
      "coordinates": {
        "latitude": "59.9343",
        "longitude": "30.3351"
      },
      "timezone": {
        "offset": "+03:00",
        "description": "Moscow Standard Time"
      },
      "avatar_url": "https://api.dicebear.com/8.x/thumbs/svg?seed=VladimirMorozov"
    },
    {
      "name": "Irina Vlasova",
      "gender": "Female",
      "phone_number": "+7 343 012-34-56",
      "street_address": "34 Sovetskaya Street",
      "street_name": "Sovetskaya Street",
      "building_number": "34",
      "city": "Yekaterinburg",
      "state": "Sverdlovsk Oblast",
      "postal_code": "620144",
      "coordinates": {
        "latitude": "56.8389",
        "longitude": "60.6057"
      },
      "timezone": {
        "offset": "+05:00",
        "description": "Yekaterinburg Time"
      },
      "avatar_url": "https://api.dicebear.com/8.x/thumbs/svg?seed=IrinaVlasova"
    }
  ]
}