{
  "meta": {
    "country": "Sudan",
    "country_code": "SD",
    "currency": "SDG",
    "country_flag": "ðŸ‡¸ðŸ‡©"
  },
  "addresses": [
    {
      "name": "Ahmed El Tayeb",
      "gender": "Male",
      "phone_number": "+249 91 123 4567",
      "street_address": "123 Nile Avenue",
      "street_name": "Nile Avenue",
      "building_number": "123",
      "city": "Khartoum",
      "state": "Khartoum State",
      "postal_code": "11111",
      "coordinates": {
        "latitude": "15.5007",
        "longitude": "32.5599"
      },
      "timezone": {
        "offset": "+02:00",
        "description": "Central Africa Time"
      },
      "avatar_url": "https://api.dicebear.com/8.x/thumbs/svg?seed=AhmedElTayeb"
    },
    {
      "name": "Fatima Hassan",
      "gender": "Female",
      "phone_number": "+249 92 234 5678",
      "street_address": "45 Omdurman Street",
      "street_name": "Omdurman Street",
      "building_number": "45",
      "city": "Omdurman",
      "state": "Khartoum State",
      "postal_code": "12222",
      "coordinates": {
        "latitude": "15.5913",
        "longitude": "32.4767"
      },
      "timezone": {
        "offset": "+02:00",
        "description": "Central Africa Time"
      },
      "avatar_url": "https://api.dicebear.com/8.x/thumbs/svg?seed=FatimaHassan"
    },
    {
      "name": "Mohamed Abdelrahman",
      "gender": "Male",
      "phone_number": "+249 93 345 6789",
      "street_address": "78 University Road",
      "street_name": "University Road",
      "building_number": "78",
      "city": "Port Sudan",
      "state": "Red Sea State",
      "postal_code": "21111",
      "coordinates": {
        "latitude": "19.6153",
        "longitude": "37.2169"
      },
      "timezone": {
        "offset": "+02:00",
        "description": "Central Africa Time"
      },
      "avatar_url": "https://api.dicebear.com/8.x/thumbs/svg?seed=MohamedAbdelrahman"
    },
    {
      "name": "Salma Idris",
      "gender": "Female",
      "phone_number": "+249 90 456 7890",
      "street_address": "101 Airport Road",
      "street_name": "Airport Road",
      "building_number": "101",
      "city": "El Obeid",
      "state": "North Kordofan",
      "postal_code": "31111",
      "coordinates": {
        "latitude": "13.1833",
        "longitude": "30.2167"
      },
      "timezone": {
        "offset": "+02:00",
        "description": "Central Africa Time"
      },
      "avatar_url": "https://api.dicebear.com/8.x/thumbs/svg?seed=SalmaIdris"
    },
    {
      "name": "Osman Musa",
      "gender": "Male",
      "phone_number": "+249 91 567 8901",
      "street_address": "34 Unity Avenue",
      "street_name": "Unity Avenue",
      "building_number": "34",
      "city": "Kassala",
      "state": "Kassala State",
      "postal_code": "41111",
      "coordinates": {
        "latitude": "15.4500",
        "longitude": "36.4000"
      },
      "timezone": {
        "offset": "+02:00",
        "description": "Central Africa Time"
      },
      "avatar_url": "https://api.dicebear.com/8.x/thumbs/svg?seed=OsmanMusa"
    },
    {
      "name": "Nadia Abdelmajid",
      "gender": "Female",
      "phone_number": "+249 92 678 9012",
      "street_address": "12 Africa Street",
      "street_name": "Africa Street",
      "building_number": "12",
      "city": "Khartoum North",
      "state": "Khartoum State",
      "postal_code": "11223",
      "coordinates": {
        "latitude": "15.6000",
        "longitude": "32.5500"
      },
      "timezone": {
        "offset": "+02:00",
        "description": "Central Africa Time"
      },
      "avatar_url": "https://api.dicebear.com/8.x/thumbs/svg?seed=NadiaAbdelmajid"
    },
    {
      "name": "Yasir Bashir",
      "gender": "Male",
      "phone_number": "+249 93 789 0123",
      "street_address": "55 Freedom Road",
      "street_name": "Freedom Road",
      "building_number": "55",
      "city": "Nyala",
      "state": "South Darfur",
      "postal_code": "51111",
      "coordinates": {
        "latitude": "12.0542",
        "longitude": "24.8790"
      },
      "timezone": {
        "offset": "+02:00",
        "description": "Central Africa Time"
      },
      "avatar_url": "https://api.dicebear.com/8.x/thumbs/svg?seed=YasirBashir"
    },
    {
      "name": "Hiba Abdelkarim",
      "gender": "Female",
      "phone_number": "+249 90 890 1234",
      "street_address": "67 Peace Avenue",
      "street_name": "Peace Avenue",
      "building_number": "67",
      "city": "Geneina",
      "state": "West Darfur",
      "postal_code": "52111",
      "coordinates": {
        "latitude": "13.4500",
        "longitude": "22.4500"
      },
      "timezone": {
        "offset": "+02:00",
        "description": "Central Africa Time"
      },
      "avatar_url": "https://api.dicebear.com/8.x/thumbs/svg?seed=HibaAbdelkarim"
    },
    {
      "name": "Tariq Elamin",
      "gender": "Male",
      "phone_number": "+249 91 321 4567",
      "street_address": "89 Martyrs Road",
      "street_name": "Martyrs Road",
      "building_number": "89",
      "city": "Dongola",
      "state": "Northern State",
      "postal_code": "61111",
      "coordinates": {
        "latitude": "19.1667",
        "longitude": "30.4667"
      },
      "timezone": {
        "offset": "+02:00",
        "description": "Central Africa Time"
      },
      "avatar_url": "https://api.dicebear.com/8.x/thumbs/svg?seed=TariqElamin"
    },
    {
      "name": "Rania Ahmed",
      "gender": "Female",
      "phone_number": "+249 92 432 5678",
      "street_address": "77 Al Nile Street",
      "street_name": "Al Nile Street",
      "building_number": "77",
      "city": "Khartoum",
      "state": "Khartoum State",
      "postal_code": "11333",
      "coordinates": {
        "latitude": "15.5007",
        "longitude": "32.5599"
      },
      "timezone": {
        "offset": "+02:00",
        "description": "Central Africa Time"
      },
      "avatar_url": "https://api.dicebear.com/8.x/thumbs/svg?seed=RaniaAhmed"
    }
  ]
}