{
  "meta": {
    "country": "Austria",
    "country_code": "AT",
    "country_flag": "üá¶üáπ",
    "currency": "EUR"
  },
  "addresses": [
    {
      "name": "Lukas Gruber",
      "gender": "Male",
      "phone_number": "+43 660 1234567",
      "street_address": "123 Mariahilfer Stra√üe",
      "street_name": "Mariahilfer Stra√üe",
      "building_number": "123",
      "city": "Vienna",
      "state": "Vienna",
      "postal_code": "1060",
      "coordinates": {
        "latitude": "48.1951",
        "longitude": "16.3382"
      },
      "timezone": {
        "offset": "+01:00",
        "description": "Europe/Vienna"
      },
      "avatar_url": "https://api.dicebear.com/8.x/thumbs/svg?seed=LukasGruber"
    },
    {
      "name": "Anna Hofer",
      "gender": "Female",
      "phone_number": "+43 676 2345678",
      "street_address": "45 Getreidegasse",
      "street_name": "Getreidegasse",
      "building_number": "45",
      "city": "Salzburg",
      "state": "Salzburg",
      "postal_code": "5020",
      "coordinates": {
        "latitude": "47.8005",
        "longitude": "13.0439"
      },
      "timezone": {
        "offset": "+01:00",
        "description": "Europe/Vienna"
      },
      "avatar_url": "https://api.dicebear.com/8.x/thumbs/svg?seed=AnnaHofer"
    },
    {
      "name": "Maximilian Steiner",
      "gender": "Male",
      "phone_number": "+43 664 3456789",
      "street_address": "78 Maria-Theresien-Stra√üe",
      "street_name": "Maria-Theresien-Stra√üe",
      "building_number": "78",
      "city": "Innsbruck",
      "state": "Tyrol",
      "postal_code": "6020",
      "coordinates": {
        "latitude": "47.2692",
        "longitude": "11.4004"
      },
      "timezone": {
        "offset": "+01:00",
        "description": "Europe/Vienna"
      },
      "avatar_url": "https://api.dicebear.com/8.x/thumbs/svg?seed=MaximilianSteiner"
    },
    {
      "name": "Katharina Leitner",
      "gender": "Female",
      "phone_number": "+43 681 4567890",
      "street_address": "101 Herrengasse",
      "street_name": "Herrengasse",
      "building_number": "101",
      "city": "Graz",
      "state": "Styria",
      "postal_code": "8010",
      "coordinates": {
        "latitude": "47.0707",
        "longitude": "15.4395"
      },
      "timezone": {
        "offset": "+01:00",
        "description": "Europe/Vienna"
      },
      "avatar_url": "https://api.dicebear.com/8.x/thumbs/svg?seed=KatharinaLeitner"
    },
    {
      "name": "Tobias Wagner",
      "gender": "Male",
      "phone_number": "+43 699 5678901",
      "street_address": "34 Landstra√üe",
      "street_name": "Landstra√üe",
      "building_number": "34",
      "city": "Linz",
      "state": "Upper Austria",
      "postal_code": "4020",
      "coordinates": {
        "latitude": "48.3064",
        "longitude": "14.2861"
      },
      "timezone": {
        "offset": "+01:00",
        "description": "Europe/Vienna"
      },
      "avatar_url": "https://api.dicebear.com/8.x/thumbs/svg?seed=TobiasWagner"
    },
    {
      "name": "Julia Baumgartner",
      "gender": "Female",
      "phone_number": "+43 660 6789123",
      "street_address": "88 K√§rntner Stra√üe",
      "street_name": "K√§rntner Stra√üe",
      "building_number": "88",
      "city": "Vienna",
      "state": "Vienna",
      "postal_code": "1010",
      "coordinates": {
        "latitude": "48.2049",
        "longitude": "16.3704"
      },
      "timezone": {
        "offset": "+01:00",
        "description": "Europe/Vienna"
      },
      "avatar_url": "https://api.dicebear.com/8.x/thumbs/svg?seed=JuliaBaumgartner"
    },
    {
      "name": "Florian Auer",
      "gender": "Male",
      "phone_number": "+43 676 7891234",
      "street_address": "57 Museumsplatz",
      "street_name": "Museumsplatz",
      "building_number": "57",
      "city": "Salzburg",
      "state": "Salzburg",
      "postal_code": "5020",
      "coordinates": {
        "latitude": "47.8030",
        "longitude": "13.0300"
      },
      "timezone": {
        "offset": "+01:00",
        "description": "Europe/Vienna"
      },
      "avatar_url": "https://api.dicebear.com/8.x/thumbs/svg?seed=FlorianAuer"
    },
    {
      "name": "Sophie Ebner",
      "gender": "Female",
      "phone_number": "+43 664 8912345",
      "street_address": "22 Sillgasse",
      "street_name": "Sillgasse",
      "building_number": "22",
      "city": "Innsbruck",
      "state": "Tyrol",
      "postal_code": "6020",
      "coordinates": {
        "latitude": "47.2672",
        "longitude": "11.3956"
      },
      "timezone": {
        "offset": "+01:00",
        "description": "Europe/Vienna"
      },
      "avatar_url": "https://api.dicebear.com/8.x/thumbs/svg?seed=SophieEbner"
    },
    {
      "name": "Johannes Berger",
      "gender": "Male",
      "phone_number": "+43 699 9123456",
      "street_address": "76 Sporgasse",
      "street_name": "Sporgasse",
      "building_number": "76",
      "city": "Graz",
      "state": "Styria",
      "postal_code": "8010",
      "coordinates": {
        "latitude": "47.0704",
        "longitude": "15.4383"
      },
      "timezone": {
        "offset": "+01:00",
        "description": "Europe/Vienna"
      },
      "avatar_url": "https://api.dicebear.com/8.x/thumbs/svg?seed=JohannesBerger"
    },
    {
      "name": "Elena Weiss",
      "gender": "Female",
      "phone_number": "+43 681 9234567",
      "street_address": "39 Hauptplatz",
      "street_name": "Hauptplatz",
      "building_number": "39",
      "city": "Linz",
      "state": "Upper Austria",
      "postal_code": "4020",
      "coordinates": {
        "latitude": "48.3075",
        "longitude": "14.2858"
      },
      "timezone": {
        "offset": "+01:00",
        "description": "Europe/Vienna"
      },
      "avatar_url": "https://api.dicebear.com/8.x/thumbs/svg?seed=ElenaWeiss"
    }
  ]
}