{
  "meta": {
    "country": "Bermuda",
    "country_code": "BM",
    "currency": "BMD",
    "country_flag": "ðŸ‡§ðŸ‡´"
  },
  "addresses": [
    {
      "name": "James Outerbridge",
      "gender": "Male",
      "phone_number": "+1 441 501 1234",
      "street_address": "12 Front Street",
      "street_name": "Front Street",
      "building_number": "12",
      "city": "Hamilton",
      "state": "Pembroke Parish",
      "postal_code": "HM11",
      "coordinates": {
        "latitude": "32.2948",
        "longitude": "-64.7814"
      },
      "timezone": {
        "offset": "-03:00",
        "description": "Atlantic/Bermuda"
      },
      "avatar_url": "https://api.dicebear.com/8.x/thumbs/svg?seed=JamesOuterbridge"
    },
    {
      "name": "Emily Simmons",
      "gender": "Female",
      "phone_number": "+1 441 502 5678",
      "street_address": "45 Reid Street",
      "street_name": "Reid Street",
      "building_number": "45",
      "city": "Hamilton",
      "state": "Pembroke Parish",
      "postal_code": "HM12",
      "coordinates": {
        "latitude": "32.2954",
        "longitude": "-64.7806"
      },
      "timezone": {
        "offset": "-03:00",
        "description": "Atlantic/Bermuda"
      },
      "avatar_url": "https://api.dicebear.com/8.x/thumbs/svg?seed=EmilySimmons"
    },
    {
      "name": "Andrew Dill",
      "gender": "Male",
      "phone_number": "+1 441 503 6789",
      "street_address": "78 Church Street",
      "street_name": "Church Street",
      "building_number": "78",
      "city": "Hamilton",
      "state": "Pembroke Parish",
      "postal_code": "HM13",
      "coordinates": {
        "latitude": "32.2962",
        "longitude": "-64.7832"
      },
      "timezone": {
        "offset": "-03:00",
        "description": "Atlantic/Bermuda"
      },
      "avatar_url": "https://api.dicebear.com/8.x/thumbs/svg?seed=AndrewDill"
    },
    {
      "name": "Sofia Richardson",
      "gender": "Female",
      "phone_number": "+1 441 504 7890",
      "street_address": "101 Middle Road",
      "street_name": "Middle Road",
      "building_number": "101",
      "city": "Southampton",
      "state": "Southampton Parish",
      "postal_code": "SN04",
      "coordinates": {
        "latitude": "32.2641",
        "longitude": "-64.8405"
      },
      "timezone": {
        "offset": "-03:00",
        "description": "Atlantic/Bermuda"
      },
      "avatar_url": "https://api.dicebear.com/8.x/thumbs/svg?seed=SofiaRichardson"
    },
    {
      "name": "Daniel Fox",
      "gender": "Male",
      "phone_number": "+1 441 505 3456",
      "street_address": "34 Somerset Road",
      "street_name": "Somerset Road",
      "building_number": "34",
      "city": "Sandys",
      "state": "Sandys Parish",
      "postal_code": "MA06",
      "coordinates": {
        "latitude": "32.2767",
        "longitude": "-64.8611"
      },
      "timezone": {
        "offset": "-03:00",
        "description": "Atlantic/Bermuda"
      },
      "avatar_url": "https://api.dicebear.com/8.x/thumbs/svg?seed=DanielFox"
    },
    {
      "name": "Chloe Tucker",
      "gender": "Female",
      "phone_number": "+1 441 506 1122",
      "street_address": "88 Harbour Road",
      "street_name": "Harbour Road",
      "building_number": "88",
      "city": "Paget",
      "state": "Paget Parish",
      "postal_code": "PG01",
      "coordinates": {
        "latitude": "32.2829",
        "longitude": "-64.7965"
      },
      "timezone": {
        "offset": "-03:00",
        "description": "Atlantic/Bermuda"
      },
      "avatar_url": "https://api.dicebear.com/8.x/thumbs/svg?seed=ChloeTucker"
    },
    {
      "name": "Liam Hayward",
      "gender": "Male",
      "phone_number": "+1 441 507 2233",
      "street_address": "60 North Shore Road",
      "street_name": "North Shore Road",
      "building_number": "60",
      "city": "Devonshire",
      "state": "Devonshire Parish",
      "postal_code": "DV07",
      "coordinates": {
        "latitude": "32.3123",
        "longitude": "-64.7562"
      },
      "timezone": {
        "offset": "-03:00",
        "description": "Atlantic/Bermuda"
      },
      "avatar_url": "https://api.dicebear.com/8.x/thumbs/svg?seed=LiamHayward"
    },
    {
      "name": "Ava Raynor",
      "gender": "Female",
      "phone_number": "+1 441 508 3344",
      "street_address": "23 Harrington Sound Road",
      "street_name": "Harrington Sound Road",
      "building_number": "23",
      "city": "Smith's",
      "state": "Smith's Parish",
      "postal_code": "FL05",
      "coordinates": {
        "latitude": "32.3185",
        "longitude": "-64.7289"
      },
      "timezone": {
        "offset": "-03:00",
        "description": "Atlantic/Bermuda"
      },
      "avatar_url": "https://api.dicebear.com/8.x/thumbs/svg?seed=AvaRaynor"
    },
    {
      "name": "Noah Darrell",
      "gender": "Male",
      "phone_number": "+1 441 509 4455",
      "street_address": "99 South Road",
      "street_name": "South Road",
      "building_number": "99",
      "city": "Warwick",
      "state": "Warwick Parish",
      "postal_code": "WK10",
      "coordinates": {
        "latitude": "32.2747",
        "longitude": "-64.8155"
      },
      "timezone": {
        "offset": "-03:00",
        "description": "Atlantic/Bermuda"
      },
      "avatar_url": "https://api.dicebear.com/8.x/thumbs/svg?seed=NoahDarrell"
    },
    {
      "name": "Isabella Smith",
      "gender": "Female",
      "phone_number": "+1 441 510 5566",
      "street_address": "14 Flatts Village Road",
      "street_name": "Flatts Village Road",
      "building_number": "14",
      "city": "Hamilton Parish",
      "state": "Hamilton Parish",
      "postal_code": "CR02",
      "coordinates": {
        "latitude": "32.3211",
        "longitude": "-64.7392"
      },
      "timezone": {
        "offset": "-03:00",
        "description": "Atlantic/Bermuda"
      },
      "avatar_url": "https://api.dicebear.com/8.x/thumbs/svg?seed=IsabellaSmith"
    }
  ]
}