{
  "meta": {
    "country": "France",
    "country_code": "FR",
    "currency": "EUR",
    "country_flag": "ðŸ‡«ðŸ‡·"
  },
  "addresses": [
    {
      "name": "Louis Dubois",
      "gender": "Male",
      "phone_number": "+33 6 12 34 56 78",
      "street_address": "12 Rue de Rivoli",
      "street_name": "Rue de Rivoli",
      "building_number": "12",
      "city": "Paris",
      "state": "ÃŽle-de-France",
      "postal_code": "75004",
      "coordinates": {
        "latitude": "48.8556",
        "longitude": "2.3600"
      },
      "timezone": {
        "offset": "+01:00",
        "description": "Europe/Paris"
      },
      "avatar_url": "https://api.dicebear.com/8.x/thumbs/svg?seed=LouisDubois"
    },
    {
      "name": "Camille Lefevre",
      "gender": "Female",
      "phone_number": "+33 7 23 45 67 89",
      "street_address": "45 Avenue des Champs-Ã‰lysÃ©es",
      "street_name": "Avenue des Champs-Ã‰lysÃ©es",
      "building_number": "45",
      "city": "Paris",
      "state": "ÃŽle-de-France",
      "postal_code": "75008",
      "coordinates": {
        "latitude": "48.8698",
        "longitude": "2.3070"
      },
      "timezone": {
        "offset": "+01:00",
        "description": "Europe/Paris"
      },
      "avatar_url": "https://api.dicebear.com/8.x/thumbs/svg?seed=CamilleLefevre"
    },
    {
      "name": "Julien Martin",
      "gender": "Male",
      "phone_number": "+33 6 98 76 54 32",
      "street_address": "789 Boulevard de la Croisette",
      "street_name": "Boulevard de la Croisette",
      "building_number": "789",
      "city": "Cannes",
      "state": "Provence-Alpes-CÃ´te d'Azur",
      "postal_code": "06400",
      "coordinates": {
        "latitude": "43.5513",
        "longitude": "7.0174"
      },
      "timezone": {
        "offset": "+01:00",
        "description": "Europe/Paris"
      },
      "avatar_url": "https://api.dicebear.com/8.x/thumbs/svg?seed=JulienMartin"
    },
    {
      "name": "Ã‰lise Bernard",
      "gender": "Female",
      "phone_number": "+33 7 65 43 21 00",
      "street_address": "34 Rue de la RÃ©publique",
      "street_name": "Rue de la RÃ©publique",
      "building_number": "34",
      "city": "Lyon",
      "state": "Auvergne-RhÃ´ne-Alpes",
      "postal_code": "69002",
      "coordinates": {
        "latitude": "45.7555",
        "longitude": "4.8322"
      },
      "timezone": {
        "offset": "+01:00",
        "description": "Europe/Paris"
      },
      "avatar_url": "https://api.dicebear.com/8.x/thumbs/svg?seed=Ã‰liseBernard"
    },
    {
      "name": "Thomas Moreau",
      "gender": "Male",
      "phone_number": "+33 6 55 44 33 22",
      "street_address": "12 Promenade des Anglais",
      "street_name": "Promenade des Anglais",
      "building_number": "12",
      "city": "Nice",
      "state": "Provence-Alpes-CÃ´te d'Azur",
      "postal_code": "06000",
      "coordinates": {
        "latitude": "43.6950",
        "longitude": "7.2653"
      },
      "timezone": {
        "offset": "+01:00",
        "description": "Europe/Paris"
      },
      "avatar_url": "https://api.dicebear.com/8.x/thumbs/svg?seed=ThomasMoreau"
    },
    {
      "name": "Claire Rousseau",
      "gender": "Female",
      "phone_number": "+33 7 12 23 34 45",
      "street_address": "78 Rue Sainte-Catherine",
      "street_name": "Rue Sainte-Catherine",
      "building_number": "78",
      "city": "Bordeaux",
      "state": "Nouvelle-Aquitaine",
      "postal_code": "33000",
      "coordinates": {
        "latitude": "44.8378",
        "longitude": "-0.5792"
      },
      "timezone": {
        "offset": "+01:00",
        "description": "Europe/Paris"
      },
      "avatar_url": "https://api.dicebear.com/8.x/thumbs/svg?seed=ClaireRousseau"
    },
    {
      "name": "Nicolas Garnier",
      "gender": "Male",
      "phone_number": "+33 6 34 56 78 90",
      "street_address": "101 Boulevard Haussmann",
      "street_name": "Boulevard Haussmann",
      "building_number": "101",
      "city": "Paris",
      "state": "ÃŽle-de-France",
      "postal_code": "75009",
      "coordinates": {
        "latitude": "48.8752",
        "longitude": "2.3275"
      },
      "timezone": {
        "offset": "+01:00",
        "description": "Europe/Paris"
      },
      "avatar_url": "https://api.dicebear.com/8.x/thumbs/svg?seed=NicolasGarnier"
    },
    {
      "name": "AurÃ©lie Petit",
      "gender": "Female",
      "phone_number": "+33 7 54 32 10 98",
      "street_address": "56 Rue de Metz",
      "street_name": "Rue de Metz",
      "building_number": "56",
      "city": "Toulouse",
      "state": "Occitanie",
      "postal_code": "31000",
      "coordinates": {
        "latitude": "43.6047",
        "longitude": "1.4442"
      },
      "timezone": {
        "offset": "+01:00",
        "description": "Europe/Paris"
      },
      "avatar_url": "https://api.dicebear.com/8.x/thumbs/svg?seed=AurÃ©liePetit"
    },
    {
      "name": "Hugo Blanc",
      "gender": "Male",
      "phone_number": "+33 6 78 90 12 34",
      "street_address": "34 Rue Nationale",
      "street_name": "Rue Nationale",
      "building_number": "34",
      "city": "Lille",
      "state": "Hauts-de-France",
      "postal_code": "59000",
      "coordinates": {
        "latitude": "50.6292",
        "longitude": "3.0573"
      },
      "timezone": {
        "offset": "+01:00",
        "description": "Europe/Paris"
      },
      "avatar_url": "https://api.dicebear.com/8.x/thumbs/svg?seed=HugoBlanc"
    },
    {
      "name": "Manon Dumas",
      "gender": "Female",
      "phone_number": "+33 7 89 65 43 21",
      "street_address": "90 Rue de Strasbourg",
      "street_name": "Rue de Strasbourg",
      "building_number": "90",
      "city": "Strasbourg",
      "state": "Grand Est",
      "postal_code": "67000",
      "coordinates": {
        "latitude": "48.5734",
        "longitude": "7.7521"
      },
      "timezone": {
        "offset": "+01:00",
        "description": "Europe/Paris"
      },
      "avatar_url": "https://api.dicebear.com/8.x/thumbs/svg?seed=ManonDumas"
    }
  ]
}