{
  "meta": {
    "country": "Indonesia",
    "country_code": "ID",
    "currency": "IDR",
    "country_flag": "ðŸ‡®ðŸ‡©"
  },
  "addresses": [
    {
      "name": "Rizky Pratama",
      "gender": "Male",
      "phone_number": "+62 812 3456 7890",
      "street_address": "123 Jalan Thamrin",
      "street_name": "Jalan Thamrin",
      "building_number": "123",
      "city": "Jakarta",
      "state": "DKI Jakarta",
      "postal_code": "10310",
      "coordinates": {
        "latitude": "-6.1939",
        "longitude": "106.8227"
      },
      "timezone": {
        "offset": "+07:00",
        "description": "Asia/Jakarta"
      },
      "avatar_url": "https://api.dicebear.com/8.x/thumbs/svg?seed=RizkyPratama"
    },
    {
      "name": "Siti Aisyah",
      "gender": "Female",
      "phone_number": "+62 813 4567 8901",
      "street_address": "45 Jalan Malioboro",
      "street_name": "Jalan Malioboro",
      "building_number": "45",
      "city": "Yogyakarta",
      "state": "Special Region of Yogyakarta",
      "postal_code": "55213",
      "coordinates": {
        "latitude": "-7.7956",
        "longitude": "110.3695"
      },
      "timezone": {
        "offset": "+07:00",
        "description": "Asia/Jakarta"
      },
      "avatar_url": "https://api.dicebear.com/8.x/thumbs/svg?seed=SitiAisyah"
    },
    {
      "name": "Budi Santoso",
      "gender": "Male",
      "phone_number": "+62 814 5678 9012",
      "street_address": "78 Jalan Asia Afrika",
      "street_name": "Jalan Asia Afrika",
      "building_number": "78",
      "city": "Bandung",
      "state": "West Java",
      "postal_code": "40111",
      "coordinates": {
        "latitude": "-6.9175",
        "longitude": "107.6191"
      },
      "timezone": {
        "offset": "+07:00",
        "description": "Asia/Jakarta"
      },
      "avatar_url": "https://api.dicebear.com/8.x/thumbs/svg?seed=BudiSantoso"
    },
    {
      "name": "Dewi Kartika",
      "gender": "Female",
      "phone_number": "+62 815 6789 0123",
      "street_address": "101 Jalan Pemuda",
      "street_name": "Jalan Pemuda",
      "building_number": "101",
      "city": "Surabaya",
      "state": "East Java",
      "postal_code": "60271",
      "coordinates": {
        "latitude": "-7.2575",
        "longitude": "112.7521"
      },
      "timezone": {
        "offset": "+07:00",
        "description": "Asia/Jakarta"
      },
      "avatar_url": "https://api.dicebear.com/8.x/thumbs/svg?seed=DewiKartika"
    },
    {
      "name": "Agus Wirawan",
      "gender": "Male",
      "phone_number": "+62 816 7890 1234",
      "street_address": "34 Jalan Raya Uluwatu",
      "street_name": "Jalan Raya Uluwatu",
      "building_number": "34",
      "city": "Denpasar",
      "state": "Bali",
      "postal_code": "80361",
      "coordinates": {
        "latitude": "-8.6567",
        "longitude": "115.2165"
      },
      "timezone": {
        "offset": "+08:00",
        "description": "Asia/Makassar"
      },
      "avatar_url": "https://api.dicebear.com/8.x/thumbs/svg?seed=AgusWirawan"
    },
    {
      "name": "Intan Ramadhani",
      "gender": "Female",
      "phone_number": "+62 817 8901 2345",
      "street_address": "89 Jalan Diponegoro",
      "street_name": "Jalan Diponegoro",
      "building_number": "89",
      "city": "Semarang",
      "state": "Central Java",
      "postal_code": "50241",
      "coordinates": {
        "latitude": "-6.9937",
        "longitude": "110.4208"
      },
      "timezone": {
        "offset": "+07:00",
        "description": "Asia/Jakarta"
      },
      "avatar_url": "https://api.dicebear.com/8.x/thumbs/svg?seed=IntanRamadhani"
    },
    {
      "name": "Fahmi Hidayat",
      "gender": "Male",
      "phone_number": "+62 818 9012 3456",
      "street_address": "66 Jalan Hasanuddin",
      "street_name": "Jalan Hasanuddin",
      "building_number": "66",
      "city": "Makassar",
      "state": "South Sulawesi",
      "postal_code": "90111",
      "coordinates": {
        "latitude": "-5.1477",
        "longitude": "119.4327"
      },
      "timezone": {
        "offset": "+08:00",
        "description": "Asia/Makassar"
      },
      "avatar_url": "https://api.dicebear.com/8.x/thumbs/svg?seed=FahmiHidayat"
    },
    {
      "name": "Nurul Fitriani",
      "gender": "Female",
      "phone_number": "+62 819 0123 4567",
      "street_address": "77 Jalan Sudirman",
      "street_name": "Jalan Sudirman",
      "building_number": "77",
      "city": "Pekanbaru",
      "state": "Riau",
      "postal_code": "28111",
      "coordinates": {
        "latitude": "0.5337",
        "longitude": "101.4478"
      },
      "timezone": {
        "offset": "+07:00",
        "description": "Asia/Jakarta"
      },
      "avatar_url": "https://api.dicebear.com/8.x/thumbs/svg?seed=NurulFitriani"
    },
    {
      "name": "Andi Saputra",
      "gender": "Male",
      "phone_number": "+62 820 1234 5678",
      "street_address": "92 Jalan Gatot Subroto",
      "street_name": "Jalan Gatot Subroto",
      "building_number": "92",
      "city": "Medan",
      "state": "North Sumatra",
      "postal_code": "20152",
      "coordinates": {
        "latitude": "3.5912",
        "longitude": "98.6722"
      },
      "timezone": {
        "offset": "+07:00",
        "description": "Asia/Jakarta"
      },
      "avatar_url": "https://api.dicebear.com/8.x/thumbs/svg?seed=AndiSaputra"
    },
    {
      "name": "Putri Ayu",
      "gender": "Female",
      "phone_number": "+62 821 2345 6789",
      "street_address": "58 Jalan Teuku Umar",
      "street_name": "Jalan Teuku Umar",
      "building_number": "58",
      "city": "Banda Aceh",
      "state": "Aceh",
      "postal_code": "23111",
      "coordinates": {
        "latitude": "5.5560",
        "longitude": "95.3237"
      },
      "timezone": {
        "offset": "+07:00",
        "description": "Asia/Jakarta"
      },
      "avatar_url": "https://api.dicebear.com/8.x/thumbs/svg?seed=PutriAyu"
    }
  ]
}