{
  "meta": {
    "country": "Mexico",
    "country_code": "MX",
    "currency": "MXN",
    "country_flag": "🇲🇽"
  },
  "addresses": [
    {
      "name": "Carlos Hernández",
      "gender": "Male",
      "phone_number": "+52 55 1234 5678",
      "street_address": "Avenida Paseo de la Reforma 123",
      "street_name": "Avenida Paseo de la Reforma",
      "building_number": "123",
      "city": "Mexico City",
      "state": "Mexico City",
      "postal_code": "06000",
      "coordinates": {
        "latitude": "19.4326",
        "longitude": "-99.1332"
      },
      "timezone": {
        "offset": "-06:00",
        "description": "Central Standard Time"
      },
      "avatar_url": "https://api.dicebear.com/8.x/thumbs/svg?seed=CarlosHernandez"
    },
    {
      "name": "María López",
      "gender": "Female",
      "phone_number": "+52 55 8765 4321",
      "street_address": "Calle Madero 456",
      "street_name": "Calle Madero",
      "building_number": "456",
      "city": "Mexico City",
      "state": "Mexico City",
      "postal_code": "06000",
      "coordinates": {
        "latitude": "19.4326",
        "longitude": "-99.1332"
      },
      "timezone": {
        "offset": "-06:00",
        "description": "Central Standard Time"
      },
      "avatar_url": "https://api.dicebear.com/8.x/thumbs/svg?seed=MariaLopez"
    },
    {
      "name": "Jorge Ramírez",
      "gender": "Male",
      "phone_number": "+52 55 2345 6789",
      "street_address": "Avenida Constituyentes 789",
      "street_name": "Avenida Constituyentes",
      "building_number": "789",
      "city": "Mexico City",
      "state": "Mexico City",
      "postal_code": "11850",
      "coordinates": {
        "latitude": "19.4326",
        "longitude": "-99.1332"
      },
      "timezone": {
        "offset": "-06:00",
        "description": "Central Standard Time"
      },
      "avatar_url": "https://api.dicebear.com/8.x/thumbs/svg?seed=JorgeRamirez"
    },
    {
      "name": "Ana Martínez",
      "gender": "Female",
      "phone_number": "+52 33 4567 8910",
      "street_address": "Calle Morelos 101",
      "street_name": "Calle Morelos",
      "building_number": "101",
      "city": "Guadalajara",
      "state": "Jalisco",
      "postal_code": "44100",
      "coordinates": {
        "latitude": "20.6597",
        "longitude": "-103.3496"
      },
      "timezone": {
        "offset": "-06:00",
        "description": "Central Standard Time"
      },
      "avatar_url": "https://api.dicebear.com/8.x/thumbs/svg?seed=AnaMartinez"
    },
    {
      "name": "Luis Torres",
      "gender": "Male",
      "phone_number": "+52 81 5678 1234",
      "street_address": "Avenida Revolución 234",
      "street_name": "Avenida Revolución",
      "building_number": "234",
      "city": "Monterrey",
      "state": "Nuevo León",
      "postal_code": "64000",
      "coordinates": {
        "latitude": "25.6866",
        "longitude": "-100.3161"
      },
      "timezone": {
        "offset": "-06:00",
        "description": "Central Standard Time"
      },
      "avatar_url": "https://api.dicebear.com/8.x/thumbs/svg?seed=LuisTorres"
    },
    {
      "name": "Paola Sánchez",
      "gender": "Female",
      "phone_number": "+52 55 7654 3210",
      "street_address": "Calle de Bolívar 345",
      "street_name": "Calle de Bolívar",
      "building_number": "345",
      "city": "Mexico City",
      "state": "Mexico City",
      "postal_code": "06010",
      "coordinates": {
        "latitude": "19.4326",
        "longitude": "-99.1332"
      },
      "timezone": {
        "offset": "-06:00",
        "description": "Central Standard Time"
      },
      "avatar_url": "https://api.dicebear.com/8.x/thumbs/svg?seed=PaolaSanchez"
    },
    {
      "name": "Raúl Gutiérrez",
      "gender": "Male",
      "phone_number": "+52 33 6789 0123",
      "street_address": "Avenida Vallarta 567",
      "street_name": "Avenida Vallarta",
      "building_number": "567",
      "city": "Guadalajara",
      "state": "Jalisco",
      "postal_code": "44160",
      "coordinates": {
        "latitude": "20.6597",
        "longitude": "-103.3496"
      },
      "timezone": {
        "offset": "-06:00",
        "description": "Central Standard Time"
      },
      "avatar_url": "https://api.dicebear.com/8.x/thumbs/svg?seed=RaulGutierrez"
    },
    {
      "name": "Verónica Castro",
      "gender": "Female",
      "phone_number": "+52 81 2345 9876",
      "street_address": "Calle Padre Mier 789",
      "street_name": "Calle Padre Mier",
      "building_number": "789",
      "city": "Monterrey",
      "state": "Nuevo León",
      "postal_code": "64010",
      "coordinates": {
        "latitude": "25.6866",
        "longitude": "-100.3161"
      },
      "timezone": {
        "offset": "-06:00",
        "description": "Central Standard Time"
      },
      "avatar_url": "https://api.dicebear.com/8.x/thumbs/svg?seed=VeronicaCastro"
    },
    {
      "name": "Eduardo Molina",
      "gender": "Male",
      "phone_number": "+52 55 6789 4567",
      "street_address": "Calzada de Tlalpan 901",
      "street_name": "Calzada de Tlalpan",
      "building_number": "901",
      "city": "Mexico City",
      "state": "Mexico City",
      "postal_code": "03500",
      "coordinates": {
        "latitude": "19.4326",
        "longitude": "-99.1332"
      },
      "timezone": {
        "offset": "-06:00",
        "description": "Central Standard Time"
      },
      "avatar_url": "https://api.dicebear.com/8.x/thumbs/svg?seed=EduardoMolina"
    },
    {
      "name": "Claudia Fernández",
      "gender": "Female",
      "phone_number": "+52 33 1234 7890",
      "street_address": "Calle López Cotilla 654",
      "street_name": "Calle López Cotilla",
      "building_number": "654",
      "city": "Guadalajara",
      "state": "Jalisco",
      "postal_code": "44110",
      "coordinates": {
        "latitude": "20.6597",
        "longitude": "-103.3496"
      },
      "timezone": {
        "offset": "-06:00",
        "description": "Central Standard Time"
      },
      "avatar_url": "https://api.dicebear.com/8.x/thumbs/svg?seed=ClaudiaFernandez"
    }
  ]
}