{
  "meta": {
    "country": "Palestine",
    "country_code": "PS",
    "currency": "ILS",
    "country_flag": "ðŸ‡µðŸ‡¸"
  },
  "addresses": [
    {
      "name": "Omar Barghouti",
      "gender": "Male",
      "phone_number": "+970 599 123 456",
      "street_address": "123 Al-Irsal Street",
      "street_name": "Al-Irsal Street",
      "building_number": "123",
      "city": "Ramallah",
      "state": "West Bank",
      "postal_code": "00970",
      "coordinates": {
        "latitude": "31.9029",
        "longitude": "35.1953"
      },
      "timezone": {
        "offset": "+02:00",
        "description": "Eastern European Time"
      },
      "avatar_url": "https://api.dicebear.com/8.x/thumbs/svg?seed=OmarBarghouti"
    },
    {
      "name": "Lina Ashour",
      "gender": "Female",
      "phone_number": "+970 599 234 567",
      "street_address": "45 Al-Manara Square",
      "street_name": "Al-Manara Square",
      "building_number": "45",
      "city": "Ramallah",
      "state": "West Bank",
      "postal_code": "00970",
      "coordinates": {
        "latitude": "31.9029",
        "longitude": "35.1953"
      },
      "timezone": {
        "offset": "+02:00",
        "description": "Eastern European Time"
      },
      "avatar_url": "https://api.dicebear.com/8.x/thumbs/svg?seed=LinaAshour"
    },
    {
      "name": "Khaled Mansour",
      "gender": "Male",
      "phone_number": "+970 599 345 678",
      "street_address": "78 Salah al-Din Street",
      "street_name": "Salah al-Din Street",
      "building_number": "78",
      "city": "East Jerusalem",
      "state": "Jerusalem",
      "postal_code": "00972",
      "coordinates": {
        "latitude": "31.7834",
        "longitude": "35.2339"
      },
      "timezone": {
        "offset": "+02:00",
        "description": "Israel Standard Time"
      },
      "avatar_url": "https://api.dicebear.com/8.x/thumbs/svg?seed=KhaledMansour"
    },
    {
      "name": "Maha Nassar",
      "gender": "Female",
      "phone_number": "+970 599 456 789",
      "street_address": "101 Al-Wahda Street",
      "street_name": "Al-Wahda Street",
      "building_number": "101",
      "city": "Gaza City",
      "state": "Gaza Strip",
      "postal_code": "P602",
      "coordinates": {
        "latitude": "31.5018",
        "longitude": "34.4666"
      },
      "timezone": {
        "offset": "+02:00",
        "description": "Eastern European Time"
      },
      "avatar_url": "https://api.dicebear.com/8.x/thumbs/svg?seed=MahaNassar"
    },
    {
      "name": "Yousef Darwish",
      "gender": "Male",
      "phone_number": "+970 599 567 890",
      "street_address": "34 University Street",
      "street_name": "University Street",
      "building_number": "34",
      "city": "Nablus",
      "state": "West Bank",
      "postal_code": "00970",
      "coordinates": {
        "latitude": "32.2211",
        "longitude": "35.2544"
      },
      "timezone": {
        "offset": "+02:00",
        "description": "Eastern European Time"
      },
      "avatar_url": "https://api.dicebear.com/8.x/thumbs/svg?seed=YousefDarwish"
    },
    {
      "name": "Rania Tamimi",
      "gender": "Female",
      "phone_number": "+970 599 678 901",
      "street_address": "67 Martyrs Street",
      "street_name": "Martyrs Street",
      "building_number": "67",
      "city": "Hebron",
      "state": "West Bank",
      "postal_code": "00970",
      "coordinates": {
        "latitude": "31.5326",
        "longitude": "35.0998"
      },
      "timezone": {
        "offset": "+02:00",
        "description": "Eastern European Time"
      },
      "avatar_url": "https://api.dicebear.com/8.x/thumbs/svg?seed=RaniaTamimi"
    },
    {
      "name": "Ahmad Qassis",
      "gender": "Male",
      "phone_number": "+970 599 789 012",
      "street_address": "90 Old City Street",
      "street_name": "Old City Street",
      "building_number": "90",
      "city": "Bethlehem",
      "state": "West Bank",
      "postal_code": "00970",
      "coordinates": {
        "latitude": "31.7054",
        "longitude": "35.2024"
      },
      "timezone": {
        "offset": "+02:00",
        "description": "Eastern European Time"
      },
      "avatar_url": "https://api.dicebear.com/8.x/thumbs/svg?seed=AhmadQassis"
    },
    {
      "name": "Hiba Said",
      "gender": "Female",
      "phone_number": "+970 599 890 123",
      "street_address": "11 Palestine Street",
      "street_name": "Palestine Street",
      "building_number": "11",
      "city": "Jenin",
      "state": "West Bank",
      "postal_code": "00970",
      "coordinates": {
        "latitude": "32.4640",
        "longitude": "35.2934"
      },
      "timezone": {
        "offset": "+02:00",
        "description": "Eastern European Time"
      },
      "avatar_url": "https://api.dicebear.com/8.x/thumbs/svg?seed=HibaSaid"
    },
    {
      "name": "Sami Zayed",
      "gender": "Male",
      "phone_number": "+970 599 901 234",
      "street_address": "77 Al-Tahrir Street",
      "street_name": "Al-Tahrir Street",
      "building_number": "77",
      "city": "Tulkarem",
      "state": "West Bank",
      "postal_code": "00970",
      "coordinates": {
        "latitude": "32.3100",
        "longitude": "35.0286"
      },
      "timezone": {
        "offset": "+02:00",
        "description": "Eastern European Time"
      },
      "avatar_url": "https://api.dicebear.com/8.x/thumbs/svg?seed=SamiZayed"
    },
    {
      "name": "Nisreen Abed",
      "gender": "Female",
      "phone_number": "+970 599 012 345",
      "street_address": "22 Beit Hanoun Road",
      "street_name": "Beit Hanoun Road",
      "building_number": "22",
      "city": "Gaza City",
      "state": "Gaza Strip",
      "postal_code": "P602",
      "coordinates": {
        "latitude": "31.5366",
        "longitude": "34.5137"
      },
      "timezone": {
        "offset": "+02:00",
        "description": "Eastern European Time"
      },
      "avatar_url": "https://api.dicebear.com/8.x/thumbs/svg?seed=NisreenAbed"
    }
  ]
}