{
  "meta": {
    "country": "Saudi Arabia",
    "country_code": "SA",
    "currency": "SAR",
    "country_flag": "ðŸ‡¸ðŸ‡¦"
  },
  "addresses": [
    {
      "name": "Faisal Al Saud",
      "gender": "Male",
      "phone_number": "+966 50 123 4567",
      "street_address": "123 King Fahd Road",
      "street_name": "King Fahd Road",
      "building_number": "123",
      "city": "Riyadh",
      "state": "Riyadh",
      "postal_code": "12345",
      "coordinates": {
        "latitude": "24.7136",
        "longitude": "46.6753"
      },
      "timezone": {
        "offset": "+03:00",
        "description": "Arabia Standard Time"
      },
      "avatar_url": "https://api.dicebear.com/8.x/thumbs/svg?seed=FaisalAlSaud"
    },
    {
      "name": "Amina Al Harbi",
      "gender": "Female",
      "phone_number": "+966 53 234 5678",
      "street_address": "456 Corniche Road",
      "street_name": "Corniche Road",
      "building_number": "456",
      "city": "Jeddah",
      "state": "Makkah",
      "postal_code": "23456",
      "coordinates": {
        "latitude": "21.4858",
        "longitude": "39.1925"
      },
      "timezone": {
        "offset": "+03:00",
        "description": "Arabia Standard Time"
      },
      "avatar_url": "https://api.dicebear.com/8.x/thumbs/svg?seed=AminaAlHarbi"
    },
    {
      "name": "Khalid Al Rashid",
      "gender": "Male",
      "phone_number": "+966 54 345 6789",
      "street_address": "789 Prince Mohammed Bin Abdulaziz Road",
      "street_name": "Prince Mohammed Bin Abdulaziz Road",
      "building_number": "789",
      "city": "Medina",
      "state": "Al Madinah",
      "postal_code": "34567",
      "coordinates": {
        "latitude": "24.5247",
        "longitude": "39.5692"
      },
      "timezone": {
        "offset": "+03:00",
        "description": "Arabia Standard Time"
      },
      "avatar_url": "https://api.dicebear.com/8.x/thumbs/svg?seed=KhalidAlRashid"
    },
    {
      "name": "Latifa Al Otaibi",
      "gender": "Female",
      "phone_number": "+966 55 456 7890",
      "street_address": "101 King Abdullah Road",
      "street_name": "King Abdullah Road",
      "building_number": "101",
      "city": "Riyadh",
      "state": "Riyadh",
      "postal_code": "45678",
      "coordinates": {
        "latitude": "24.7136",
        "longitude": "46.6753"
      },
      "timezone": {
        "offset": "+03:00",
        "description": "Arabia Standard Time"
      },
      "avatar_url": "https://api.dicebear.com/8.x/thumbs/svg?seed=LatifaAlOtaibi"
    },
    {
      "name": "Mohammed Al Ghamdi",
      "gender": "Male",
      "phone_number": "+966 56 567 8901",
      "street_address": "34 Tahlia Street",
      "street_name": "Tahlia Street",
      "building_number": "34",
      "city": "Jeddah",
      "state": "Makkah",
      "postal_code": "56789",
      "coordinates": {
        "latitude": "21.4858",
        "longitude": "39.1925"
      },
      "timezone": {
        "offset": "+03:00",
        "description": "Arabia Standard Time"
      },
      "avatar_url": "https://api.dicebear.com/8.x/thumbs/svg?seed=MohammedAlGhamdi"
    },
    {
      "name": "Noura Al Zahrani",
      "gender": "Female",
      "phone_number": "+966 57 678 9012",
      "street_address": "12 King Saud Road",
      "street_name": "King Saud Road",
      "building_number": "12",
      "city": "Dammam",
      "state": "Eastern Province",
      "postal_code": "32241",
      "coordinates": {
        "latitude": "26.4207",
        "longitude": "50.0888"
      },
      "timezone": {
        "offset": "+03:00",
        "description": "Arabia Standard Time"
      },
      "avatar_url": "https://api.dicebear.com/8.x/thumbs/svg?seed=NouraAlZahrani"
    },
    {
      "name": "Abdullah Al Qahtani",
      "gender": "Male",
      "phone_number": "+966 58 789 0123",
      "street_address": "88 Khurais Road",
      "street_name": "Khurais Road",
      "building_number": "88",
      "city": "Riyadh",
      "state": "Riyadh",
      "postal_code": "11392",
      "coordinates": {
        "latitude": "24.7136",
        "longitude": "46.6753"
      },
      "timezone": {
        "offset": "+03:00",
        "description": "Arabia Standard Time"
      },
      "avatar_url": "https://api.dicebear.com/8.x/thumbs/svg?seed=AbdullahAlQahtani"
    },
    {
      "name": "Reem Al Juhani",
      "gender": "Female",
      "phone_number": "+966 59 890 1234",
      "street_address": "65 Palestine Street",
      "street_name": "Palestine Street",
      "building_number": "65",
      "city": "Jeddah",
      "state": "Makkah",
      "postal_code": "23343",
      "coordinates": {
        "latitude": "21.4858",
        "longitude": "39.1925"
      },
      "timezone": {
        "offset": "+03:00",
        "description": "Arabia Standard Time"
      },
      "avatar_url": "https://api.dicebear.com/8.x/thumbs/svg?seed=ReemAlJuhani"
    },
    {
      "name": "Turki Al Dossary",
      "gender": "Male",
      "phone_number": "+966 50 321 6547",
      "street_address": "23 Olaya Street",
      "street_name": "Olaya Street",
      "building_number": "23",
      "city": "Riyadh",
      "state": "Riyadh",
      "postal_code": "11461",
      "coordinates": {
        "latitude": "24.7136",
        "longitude": "46.6753"
      },
      "timezone": {
        "offset": "+03:00",
        "description": "Arabia Standard Time"
      },
      "avatar_url": "https://api.dicebear.com/8.x/thumbs/svg?seed=TurkiAlDossary"
    },
    {
      "name": "Maha Al Subaie",
      "gender": "Female",
      "phone_number": "+966 53 432 1678",
      "street_address": "77 King Abdulaziz Road",
      "street_name": "King Abdulaziz Road",
      "building_number": "77",
      "city": "Mecca",
      "state": "Makkah",
      "postal_code": "24231",
      "coordinates": {
        "latitude": "21.3891",
        "longitude": "39.8579"
      },
      "timezone": {
        "offset": "+03:00",
        "description": "Arabia Standard Time"
      },
      "avatar_url": "https://api.dicebear.com/8.x/thumbs/svg?seed=MahaAlSubaie"
    }
  ]
}