{
  "meta": {
    "country": "San Marino",
    "country_code": "SM",
    "currency": "EUR",
    "country_flag": "ðŸ‡¸ðŸ‡²"
  },
  "addresses": [
    {
      "name": "Giovanni Berti",
      "gender": "Male",
      "phone_number": "+378 66 123 456",
      "street_address": "12 Via del Voltone",
      "street_name": "Via del Voltone",
      "building_number": "12",
      "city": "San Marino",
      "state": "San Marino",
      "postal_code": "47890",
      "coordinates": {
        "latitude": "43.9333",
        "longitude": "12.4500"
      },
      "timezone": {
        "offset": "+01:00",
        "description": "Central European Time"
      },
      "avatar_url": "https://api.dicebear.com/8.x/thumbs/svg?seed=GiovanniBerti"
    },
    {
      "name": "Elena Gasperoni",
      "gender": "Female",
      "phone_number": "+378 66 234 567",
      "street_address": "8 Contrada dei Magazzeni",
      "street_name": "Contrada dei Magazzeni",
      "building_number": "8",
      "city": "Borgo Maggiore",
      "state": "San Marino",
      "postal_code": "47893",
      "coordinates": {
        "latitude": "43.9331",
        "longitude": "12.4660"
      },
      "timezone": {
        "offset": "+01:00",
        "description": "Central European Time"
      },
      "avatar_url": "https://api.dicebear.com/8.x/thumbs/svg?seed=ElenaGasperoni"
    },
    {
      "name": "Marco Terenzi",
      "gender": "Male",
      "phone_number": "+378 66 345 678",
      "street_address": "25 Via dei Giardini",
      "street_name": "Via dei Giardini",
      "building_number": "25",
      "city": "Serravalle",
      "state": "San Marino",
      "postal_code": "47899",
      "coordinates": {
        "latitude": "43.9380",
        "longitude": "12.4700"
      },
      "timezone": {
        "offset": "+01:00",
        "description": "Central European Time"
      },
      "avatar_url": "https://api.dicebear.com/8.x/thumbs/svg?seed=MarcoTerenzi"
    },
    {
      "name": "Alessia Valentini",
      "gender": "Female",
      "phone_number": "+378 66 456 789",
      "street_address": "5 Via Napoleone",
      "street_name": "Via Napoleone",
      "building_number": "5",
      "city": "Domagnano",
      "state": "San Marino",
      "postal_code": "47895",
      "coordinates": {
        "latitude": "43.9335",
        "longitude": "12.4600"
      },
      "timezone": {
        "offset": "+01:00",
        "description": "Central European Time"
      },
      "avatar_url": "https://api.dicebear.com/8.x/thumbs/svg?seed=AlessiaValentini"
    },
    {
      "name": "Luca Celli",
      "gender": "Male",
      "phone_number": "+378 66 567 890",
      "street_address": "17 Via dei Castelli",
      "street_name": "Via dei Castelli",
      "building_number": "17",
      "city": "Acquaviva",
      "state": "San Marino",
      "postal_code": "47892",
      "coordinates": {
        "latitude": "43.9340",
        "longitude": "12.4550"
      },
      "timezone": {
        "offset": "+01:00",
        "description": "Central European Time"
      },
      "avatar_url": "https://api.dicebear.com/8.x/thumbs/svg?seed=LucaCelli"
    },
    {
      "name": "Chiara Belluzzi",
      "gender": "Female",
      "phone_number": "+378 66 678 901",
      "street_address": "3 Contrada delle Mura",
      "street_name": "Contrada delle Mura",
      "building_number": "3",
      "city": "Fiorentino",
      "state": "San Marino",
      "postal_code": "47897",
      "coordinates": {
        "latitude": "43.9350",
        "longitude": "12.4750"
      },
      "timezone": {
        "offset": "+01:00",
        "description": "Central European Time"
      },
      "avatar_url": "https://api.dicebear.com/8.x/thumbs/svg?seed=ChiaraBelluzzi"
    },
    {
      "name": "Andrea Guidi",
      "gender": "Male",
      "phone_number": "+378 66 789 012",
      "street_address": "44 Via della LibertÃ ",
      "street_name": "Via della LibertÃ ",
      "building_number": "44",
      "city": "Montegiardino",
      "state": "San Marino",
      "postal_code": "47898",
      "coordinates": {
        "latitude": "43.9360",
        "longitude": "12.4800"
      },
      "timezone": {
        "offset": "+01:00",
        "description": "Central European Time"
      },
      "avatar_url": "https://api.dicebear.com/8.x/thumbs/svg?seed=AndreaGuidi"
    },
    {
      "name": "Giulia Tognacci",
      "gender": "Female",
      "phone_number": "+378 66 890 123",
      "street_address": "19 Via Titano",
      "street_name": "Via Titano",
      "building_number": "19",
      "city": "Chiesanuova",
      "state": "San Marino",
      "postal_code": "47894",
      "coordinates": {
        "latitude": "43.9370",
        "longitude": "12.4650"
      },
      "timezone": {
        "offset": "+01:00",
        "description": "Central European Time"
      },
      "avatar_url": "https://api.dicebear.com/8.x/thumbs/svg?seed=GiuliaTognacci"
    },
    {
      "name": "Matteo Ugolini",
      "gender": "Male",
      "phone_number": "+378 66 901 234",
      "street_address": "6 Via dei Faggi",
      "street_name": "Via dei Faggi",
      "building_number": "6",
      "city": "Faetano",
      "state": "San Marino",
      "postal_code": "47896",
      "coordinates": {
        "latitude": "43.9337",
        "longitude": "12.4705"
      },
      "timezone": {
        "offset": "+01:00",
        "description": "Central European Time"
      },
      "avatar_url": "https://api.dicebear.com/8.x/thumbs/svg?seed=MatteoUgolini"
    },
    {
      "name": "Sara Pasini",
      "gender": "Female",
      "phone_number": "+378 66 012 345",
      "street_address": "20 Via Piana",
      "street_name": "Via Piana",
      "building_number": "20",
      "city": "San Marino",
      "state": "San Marino",
      "postal_code": "47890",
      "coordinates": {
        "latitude": "43.9333",
        "longitude": "12.4510"
      },
      "timezone": {
        "offset": "+01:00",
        "description": "Central European Time"
      },
      "avatar_url": "https://api.dicebear.com/8.x/thumbs/svg?seed=SaraPasini"
    }
  ]
}