{
  "meta": {
    "country": "Yemen",
    "country_code": "YE",
    "currency": "YER",
    "country_flag": "ðŸ‡¾ðŸ‡ª"
  },
  "addresses": [
    {
      "name": "Ahmed Al-Sabri",
      "gender": "Male",
      "phone_number": "+967 711 123 456",
      "street_address": "123 Al-Zubairi Street",
      "street_name": "Al-Zubairi Street",
      "building_number": "123",
      "city": "Sana'a",
      "state": "Sana'a Governorate",
      "postal_code": "10001",
      "coordinates": {
        "latitude": "15.3694",
        "longitude": "44.1910"
      },
      "timezone": {
        "offset": "+03:00",
        "description": "Arabia Standard Time"
      },
      "avatar_url": "https://api.dicebear.com/8.x/thumbs/svg?seed=AhmedAlSabri"
    },
    {
      "name": "Fatima Al-Mutawakel",
      "gender": "Female",
      "phone_number": "+967 712 456 789",
      "street_address": "45 Al-Mina Street",
      "street_name": "Al-Mina Street",
      "building_number": "45",
      "city": "Aden",
      "state": "Aden Governorate",
      "postal_code": "20001",
      "coordinates": {
        "latitude": "12.7855",
        "longitude": "45.0187"
      },
      "timezone": {
        "offset": "+03:00",
        "description": "Arabia Standard Time"
      },
      "avatar_url": "https://api.dicebear.com/8.x/thumbs/svg?seed=FatimaAlMutawakel"
    },
    {
      "name": "Mohammed Al-Hakimi",
      "gender": "Male",
      "phone_number": "+967 713 234 567",
      "street_address": "78 Al-Qahira Street",
      "street_name": "Al-Qahira Street",
      "building_number": "78",
      "city": "Taiz",
      "state": "Taiz Governorate",
      "postal_code": "30001",
      "coordinates": {
        "latitude": "13.5764",
        "longitude": "44.0370"
      },
      "timezone": {
        "offset": "+03:00",
        "description": "Arabia Standard Time"
      },
      "avatar_url": "https://api.dicebear.com/8.x/thumbs/svg?seed=MohammedAlHakimi"
    },
    {
      "name": "Nadia Al-Shami",
      "gender": "Female",
      "phone_number": "+967 714 987 654",
      "street_address": "101 Al-Kuwait Street",
      "street_name": "Al-Kuwait Street",
      "building_number": "101",
      "city": "Ibb",
      "state": "Ibb Governorate",
      "postal_code": "40001",
      "coordinates": {
        "latitude": "13.9743",
        "longitude": "44.1706"
      },
      "timezone": {
        "offset": "+03:00",
        "description": "Arabia Standard Time"
      },
      "avatar_url": "https://api.dicebear.com/8.x/thumbs/svg?seed=NadiaAlShami"
    },
    {
      "name": "Yahya Al-Amri",
      "gender": "Male",
      "phone_number": "+967 715 321 654",
      "street_address": "34 Al-Mahwit Street",
      "street_name": "Al-Mahwit Street",
      "building_number": "34",
      "city": "Al Hudaydah",
      "state": "Al Hudaydah Governorate",
      "postal_code": "50001",
      "coordinates": {
        "latitude": "14.7978",
        "longitude": "42.9530"
      },
      "timezone": {
        "offset": "+03:00",
        "description": "Arabia Standard Time"
      },
      "avatar_url": "https://api.dicebear.com/8.x/thumbs/svg?seed=YahyaAlAmri"
    },
    {
      "name": "Ahlam Al-Awlaqi",
      "gender": "Female",
      "phone_number": "+967 716 432 198",
      "street_address": "67 Al-Siteen Street",
      "street_name": "Al-Siteen Street",
      "building_number": "67",
      "city": "Dhamar",
      "state": "Dhamar Governorate",
      "postal_code": "60001",
      "coordinates": {
        "latitude": "14.5423",
        "longitude": "44.0412"
      },
      "timezone": {
        "offset": "+03:00",
        "description": "Arabia Standard Time"
      },
      "avatar_url": "https://api.dicebear.com/8.x/thumbs/svg?seed=AhlamAlAwlaqi"
    },
    {
      "name": "Saeed Al-Hadrami",
      "gender": "Male",
      "phone_number": "+967 717 678 432",
      "street_address": "88 Al-Mokha Road",
      "street_name": "Al-Mokha Road",
      "building_number": "88",
      "city": "Mukalla",
      "state": "Hadhramaut",
      "postal_code": "70001",
      "coordinates": {
        "latitude": "14.5400",
        "longitude": "49.1261"
      },
      "timezone": {
        "offset": "+03:00",
        "description": "Arabia Standard Time"
      },
      "avatar_url": "https://api.dicebear.com/8.x/thumbs/svg?seed=SaeedAlHadrami"
    },
    {
      "name": "Rania Al-Himyari",
      "gender": "Female",
      "phone_number": "+967 718 145 236",
      "street_address": "12 Al-Rawda Street",
      "street_name": "Al-Rawda Street",
      "building_number": "12",
      "city": "Saada",
      "state": "Saada Governorate",
      "postal_code": "80001",
      "coordinates": {
        "latitude": "16.9401",
        "longitude": "43.8213"
      },
      "timezone": {
        "offset": "+03:00",
        "description": "Arabia Standard Time"
      },
      "avatar_url": "https://api.dicebear.com/8.x/thumbs/svg?seed=RaniaAlHimyari"
    },
    {
      "name": "Bassam Al-Jabri",
      "gender": "Male",
      "phone_number": "+967 719 998 877",
      "street_address": "90 Al-Matar Street",
      "street_name": "Al-Matar Street",
      "building_number": "90",
      "city": "Hajjah",
      "state": "Hajjah Governorate",
      "postal_code": "90001",
      "coordinates": {
        "latitude": "15.6852",
        "longitude": "43.6012"
      },
      "timezone": {
        "offset": "+03:00",
        "description": "Arabia Standard Time"
      },
      "avatar_url": "https://api.dicebear.com/8.x/thumbs/svg?seed=BassamAlJabri"
    },
    {
      "name": "Samira Al-Barakani",
      "gender": "Female",
      "phone_number": "+967 710 554 332",
      "street_address": "15 Al-Tahrir Square",
      "street_name": "Al-Tahrir Square",
      "building_number": "15",
      "city": "Al Mahrah",
      "state": "Al Mahrah Governorate",
      "postal_code": "91001",
      "coordinates": {
        "latitude": "16.1707",
        "longitude": "52.6332"
      },
      "timezone": {
        "offset": "+03:00",
        "description": "Arabia Standard Time"
      },
      "avatar_url": "https://api.dicebear.com/8.x/thumbs/svg?seed=SamiraAlBarakani"
    }
  ]
}