{
  "meta": {
    "country": "China",
    "country_code": "CN",
    "currency": "CNY",
    "country_flag": "ðŸ‡¨ðŸ‡³"
  },
  "addresses": [
    {
      "name": "Li Wei",
      "gender": "Male",
      "phone_number": "+86 138 0000 0001",
      "street_address": "123 Nanjing West Road",
      "street_name": "Nanjing West Road",
      "building_number": "123",
      "city": "Shanghai",
      "state": "Shanghai Municipality",
      "postal_code": "200041",
      "coordinates": {
        "latitude": "31.2304",
        "longitude": "121.4737"
      },
      "timezone": {
        "offset": "+08:00",
        "description": "Asia/Shanghai"
      },
      "avatar_url": "https://api.dicebear.com/8.x/thumbs/svg?seed=LiWei"
    },
    {
      "name": "Zhang Mei",
      "gender": "Female",
      "phone_number": "+86 139 1111 1112",
      "street_address": "45 Chang'an Avenue",
      "street_name": "Chang'an Avenue",
      "building_number": "45",
      "city": "Beijing",
      "state": "Beijing Municipality",
      "postal_code": "100031",
      "coordinates": {
        "latitude": "39.9042",
        "longitude": "116.4074"
      },
      "timezone": {
        "offset": "+08:00",
        "description": "Asia/Shanghai"
      },
      "avatar_url": "https://api.dicebear.com/8.x/thumbs/svg?seed=ZhangMei"
    },
    {
      "name": "Wang Qiang",
      "gender": "Male",
      "phone_number": "+86 137 2222 2223",
      "street_address": "78 Renmin Road",
      "street_name": "Renmin Road",
      "building_number": "78",
      "city": "Guangzhou",
      "state": "Guangdong Province",
      "postal_code": "510000",
      "coordinates": {
        "latitude": "23.1291",
        "longitude": "113.2644"
      },
      "timezone": {
        "offset": "+08:00",
        "description": "Asia/Shanghai"
      },
      "avatar_url": "https://api.dicebear.com/8.x/thumbs/svg?seed=WangQiang"
    },
    {
      "name": "Liu Fang",
      "gender": "Female",
      "phone_number": "+86 136 3333 3334",
      "street_address": "101 Zhongshan Road",
      "street_name": "Zhongshan Road",
      "building_number": "101",
      "city": "Chengdu",
      "state": "Sichuan Province",
      "postal_code": "610000",
      "coordinates": {
        "latitude": "30.5728",
        "longitude": "104.0668"
      },
      "timezone": {
        "offset": "+08:00",
        "description": "Asia/Shanghai"
      },
      "avatar_url": "https://api.dicebear.com/8.x/thumbs/svg?seed=LiuFang"
    },
    {
      "name": "Chen Hao",
      "gender": "Male",
      "phone_number": "+86 135 4444 4445",
      "street_address": "34 Jiefang Road",
      "street_name": "Jiefang Road",
      "building_number": "34",
      "city": "Shenzhen",
      "state": "Guangdong Province",
      "postal_code": "518000",
      "coordinates": {
        "latitude": "22.5431",
        "longitude": "114.0579"
      },
      "timezone": {
        "offset": "+08:00",
        "description": "Asia/Shanghai"
      },
      "avatar_url": "https://api.dicebear.com/8.x/thumbs/svg?seed=ChenHao"
    },
    {
      "name": "Yang Li",
      "gender": "Female",
      "phone_number": "+86 134 5555 5556",
      "street_address": "56 Heping Street",
      "street_name": "Heping Street",
      "building_number": "56",
      "city": "Tianjin",
      "state": "Tianjin Municipality",
      "postal_code": "300000",
      "coordinates": {
        "latitude": "39.3434",
        "longitude": "117.3616"
      },
      "timezone": {
        "offset": "+08:00",
        "description": "Asia/Shanghai"
      },
      "avatar_url": "https://api.dicebear.com/8.x/thumbs/svg?seed=YangLi"
    },
    {
      "name": "Xu Jie",
      "gender": "Male",
      "phone_number": "+86 133 6666 6667",
      "street_address": "78 Zhongguancun Street",
      "street_name": "Zhongguancun Street",
      "building_number": "78",
      "city": "Beijing",
      "state": "Beijing Municipality",
      "postal_code": "100080",
      "coordinates": {
        "latitude": "39.9839",
        "longitude": "116.3250"
      },
      "timezone": {
        "offset": "+08:00",
        "description": "Asia/Shanghai"
      },
      "avatar_url": "https://api.dicebear.com/8.x/thumbs/svg?seed=XuJie"
    },
    {
      "name": "Sun Yue",
      "gender": "Female",
      "phone_number": "+86 132 7777 7778",
      "street_address": "89 Minzhu Road",
      "street_name": "Minzhu Road",
      "building_number": "89",
      "city": "Nanjing",
      "state": "Jiangsu Province",
      "postal_code": "210000",
      "coordinates": {
        "latitude": "32.0603",
        "longitude": "118.7969"
      },
      "timezone": {
        "offset": "+08:00",
        "description": "Asia/Shanghai"
      },
      "avatar_url": "https://api.dicebear.com/8.x/thumbs/svg?seed=SunYue"
    },
    {
      "name": "Gao Lei",
      "gender": "Male",
      "phone_number": "+86 131 8888 8889",
      "street_address": "67 Huan Cheng South Road",
      "street_name": "Huan Cheng South Road",
      "building_number": "67",
      "city": "Hangzhou",
      "state": "Zhejiang Province",
      "postal_code": "310000",
      "coordinates": {
        "latitude": "30.2741",
        "longitude": "120.1551"
      },
      "timezone": {
        "offset": "+08:00",
        "description": "Asia/Shanghai"
      },
      "avatar_url": "https://api.dicebear.com/8.x/thumbs/svg?seed=GaoLei"
    },
    {
      "name": "Deng Xinyi",
      "gender": "Female",
      "phone_number": "+86 130 9999 9990",
      "street_address": "101 Baiyun Avenue",
      "street_name": "Baiyun Avenue",
      "building_number": "101",
      "city": "Guangzhou",
      "state": "Guangdong Province",
      "postal_code": "510410",
      "coordinates": {
        "latitude": "23.1836",
        "longitude": "113.2680"
      },
      "timezone": {
        "offset": "+08:00",
        "description": "Asia/Shanghai"
      },
      "avatar_url": "https://api.dicebear.com/8.x/thumbs/svg?seed=DengXinyi"
    }
  ]
}