{
  "meta": {
    "country": "Colombia",
    "country_code": "CO",
    "currency": "COP",
    "country_flag": "游뻟릖"
  },
  "addresses": [
    {
      "name": "Juan Rodr칤guez",
      "gender": "Male",
      "phone_number": "+57 301 123 4567",
      "street_address": "123 Carrera 7",
      "street_name": "Carrera 7",
      "building_number": "123",
      "city": "Bogot치",
      "state": "Bogot치",
      "postal_code": "110111",
      "coordinates": {
        "latitude": "4.7110",
        "longitude": "-74.0721"
      },
      "timezone": {
        "offset": "-05:00",
        "description": "America/Bogota"
      },
      "avatar_url": "https://api.dicebear.com/8.x/thumbs/svg?seed=JuanRodriguez"
    },
    {
      "name": "Mar칤a G칩mez",
      "gender": "Female",
      "phone_number": "+57 312 234 5678",
      "street_address": "456 Calle 10",
      "street_name": "Calle 10",
      "building_number": "456",
      "city": "Medell칤n",
      "state": "Antioquia",
      "postal_code": "050021",
      "coordinates": {
        "latitude": "6.2442",
        "longitude": "-75.5812"
      },
      "timezone": {
        "offset": "-05:00",
        "description": "America/Bogota"
      },
      "avatar_url": "https://api.dicebear.com/8.x/thumbs/svg?seed=MariaGomez"
    },
    {
      "name": "Andr칠s Mart칤nez",
      "gender": "Male",
      "phone_number": "+57 300 345 6789",
      "street_address": "789 Avenida 4",
      "street_name": "Avenida 4",
      "building_number": "789",
      "city": "Cali",
      "state": "Valle del Cauca",
      "postal_code": "760001",
      "coordinates": {
        "latitude": "3.4516",
        "longitude": "-76.5320"
      },
      "timezone": {
        "offset": "-05:00",
        "description": "America/Bogota"
      },
      "avatar_url": "https://api.dicebear.com/8.x/thumbs/svg?seed=AndresMartinez"
    },
    {
      "name": "Laura Torres",
      "gender": "Female",
      "phone_number": "+57 321 456 7890",
      "street_address": "101 Carrera 15",
      "street_name": "Carrera 15",
      "building_number": "101",
      "city": "Barranquilla",
      "state": "Atl치ntico",
      "postal_code": "080001",
      "coordinates": {
        "latitude": "10.9639",
        "longitude": "-74.7964"
      },
      "timezone": {
        "offset": "-05:00",
        "description": "America/Bogota"
      },
      "avatar_url": "https://api.dicebear.com/8.x/thumbs/svg?seed=LauraTorres"
    },
    {
      "name": "Felipe R칤os",
      "gender": "Male",
      "phone_number": "+57 318 567 8901",
      "street_address": "34 Calle 5",
      "street_name": "Calle 5",
      "building_number": "34",
      "city": "Cartagena",
      "state": "Bol칤var",
      "postal_code": "130001",
      "coordinates": {
        "latitude": "10.3910",
        "longitude": "-75.4794"
      },
      "timezone": {
        "offset": "-05:00",
        "description": "America/Bogota"
      },
      "avatar_url": "https://api.dicebear.com/8.x/thumbs/svg?seed=FelipeRios"
    },
    {
      "name": "Diana Paredes",
      "gender": "Female",
      "phone_number": "+57 322 678 9012",
      "street_address": "67 Calle 26",
      "street_name": "Calle 26",
      "building_number": "67",
      "city": "Bogot치",
      "state": "Bogot치",
      "postal_code": "111321",
      "coordinates": {
        "latitude": "4.6486",
        "longitude": "-74.0995"
      },
      "timezone": {
        "offset": "-05:00",
        "description": "America/Bogota"
      },
      "avatar_url": "https://api.dicebear.com/8.x/thumbs/svg?seed=DianaParedes"
    },
    {
      "name": "Camilo Salazar",
      "gender": "Male",
      "phone_number": "+57 314 789 0123",
      "street_address": "89 Carrera 70",
      "street_name": "Carrera 70",
      "building_number": "89",
      "city": "Medell칤n",
      "state": "Antioquia",
      "postal_code": "050034",
      "coordinates": {
        "latitude": "6.2655",
        "longitude": "-75.5881"
      },
      "timezone": {
        "offset": "-05:00",
        "description": "America/Bogota"
      },
      "avatar_url": "https://api.dicebear.com/8.x/thumbs/svg?seed=CamiloSalazar"
    },
    {
      "name": "Valentina Restrepo",
      "gender": "Female",
      "phone_number": "+57 305 890 1234",
      "street_address": "22 Calle 45",
      "street_name": "Calle 45",
      "building_number": "22",
      "city": "Cali",
      "state": "Valle del Cauca",
      "postal_code": "760045",
      "coordinates": {
        "latitude": "3.4600",
        "longitude": "-76.5322"
      },
      "timezone": {
        "offset": "-05:00",
        "description": "America/Bogota"
      },
      "avatar_url": "https://api.dicebear.com/8.x/thumbs/svg?seed=ValentinaRestrepo"
    },
    {
      "name": "Esteban Herrera",
      "gender": "Male",
      "phone_number": "+57 316 901 2345",
      "street_address": "77 Carrera 50",
      "street_name": "Carrera 50",
      "building_number": "77",
      "city": "Bucaramanga",
      "state": "Santander",
      "postal_code": "680001",
      "coordinates": {
        "latitude": "7.1193",
        "longitude": "-73.1227"
      },
      "timezone": {
        "offset": "-05:00",
        "description": "America/Bogota"
      },
      "avatar_url": "https://api.dicebear.com/8.x/thumbs/svg?seed=EstebanHerrera"
    },
    {
      "name": "Natalia Ruiz",
      "gender": "Female",
      "phone_number": "+57 319 012 3456",
      "street_address": "55 Calle 9",
      "street_name": "Calle 9",
      "building_number": "55",
      "city": "Pereira",
      "state": "Risaralda",
      "postal_code": "660001",
      "coordinates": {
        "latitude": "4.8143",
        "longitude": "-75.6946"
      },
      "timezone": {
        "offset": "-05:00",
        "description": "America/Bogota"
      },
      "avatar_url": "https://api.dicebear.com/8.x/thumbs/svg?seed=NataliaRuiz"
    }
  ]
}