{
  "meta": {
    "country": "Czechia",
    "country_code": "CZ",
    "currency": "CZK",
    "country_flag": "游뻟릖"
  },
  "addresses": [
    {
      "name": "Jan Nov치k",
      "gender": "Male",
      "phone_number": "+420 601 123 456",
      "street_address": "123 V치clavsk칠 n치m캩st칤",
      "street_name": "V치clavsk칠 n치m캩st칤",
      "building_number": "123",
      "city": "Prague",
      "state": "Prague",
      "postal_code": "110 00",
      "coordinates": {
        "latitude": "50.0836",
        "longitude": "14.4349"
      },
      "timezone": {
        "offset": "+01:00",
        "description": "Europe/Prague"
      },
      "avatar_url": "https://api.dicebear.com/8.x/thumbs/svg?seed=JanNovak"
    },
    {
      "name": "Lucie Svobodov치",
      "gender": "Female",
      "phone_number": "+420 602 234 567",
      "street_address": "45 캛esk치 ulice",
      "street_name": "캛esk치 ulice",
      "building_number": "45",
      "city": "Brno",
      "state": "South Moravian Region",
      "postal_code": "602 00",
      "coordinates": {
        "latitude": "49.1951",
        "longitude": "16.6068"
      },
      "timezone": {
        "offset": "+01:00",
        "description": "Europe/Prague"
      },
      "avatar_url": "https://api.dicebear.com/8.x/thumbs/svg?seed=LucieSvobodova"
    },
    {
      "name": "Petr Dvo콏치k",
      "gender": "Male",
      "phone_number": "+420 603 345 678",
      "street_address": "78 Hlavn칤 t콏칤da",
      "street_name": "Hlavn칤 t콏칤da",
      "building_number": "78",
      "city": "Ostrava",
      "state": "Moravian-Silesian Region",
      "postal_code": "702 00",
      "coordinates": {
        "latitude": "49.8346",
        "longitude": "18.2926"
      },
      "timezone": {
        "offset": "+01:00",
        "description": "Europe/Prague"
      },
      "avatar_url": "https://api.dicebear.com/8.x/thumbs/svg?seed=PetrDvorak"
    },
    {
      "name": "Eva Novotn치",
      "gender": "Female",
      "phone_number": "+420 604 456 789",
      "street_address": "101 Masarykovo n치m캩st칤",
      "street_name": "Masarykovo n치m캩st칤",
      "building_number": "101",
      "city": "Olomouc",
      "state": "Olomouc Region",
      "postal_code": "779 00",
      "coordinates": {
        "latitude": "49.5938",
        "longitude": "17.2509"
      },
      "timezone": {
        "offset": "+01:00",
        "description": "Europe/Prague"
      },
      "avatar_url": "https://api.dicebear.com/8.x/thumbs/svg?seed=EvaNovotna"
    },
    {
      "name": "Tom치코 캛ern칳",
      "gender": "Male",
      "phone_number": "+420 605 567 890",
      "street_address": "34 Plze켿sk치",
      "street_name": "Plze켿sk치",
      "building_number": "34",
      "city": "Plze켿",
      "state": "Plze켿 Region",
      "postal_code": "301 00",
      "coordinates": {
        "latitude": "49.7475",
        "longitude": "13.3776"
      },
      "timezone": {
        "offset": "+01:00",
        "description": "Europe/Prague"
      },
      "avatar_url": "https://api.dicebear.com/8.x/thumbs/svg?seed=TomasCerny"
    },
    {
      "name": "Jana Kr치lov치",
      "gender": "Female",
      "phone_number": "+420 606 678 901",
      "street_address": "56 K콏i쮂셞ova",
      "street_name": "K콏i쮂셞ova",
      "building_number": "56",
      "city": "Prague",
      "state": "Prague",
      "postal_code": "186 00",
      "coordinates": {
        "latitude": "50.0925",
        "longitude": "14.4500"
      },
      "timezone": {
        "offset": "+01:00",
        "description": "Europe/Prague"
      },
      "avatar_url": "https://api.dicebear.com/8.x/thumbs/svg?seed=JanaKralova"
    },
    {
      "name": "Michal Hor치k",
      "gender": "Male",
      "phone_number": "+420 607 789 012",
      "street_address": "89 Lidick치",
      "street_name": "Lidick치",
      "building_number": "89",
      "city": "Brno",
      "state": "South Moravian Region",
      "postal_code": "602 00",
      "coordinates": {
        "latitude": "49.1978",
        "longitude": "16.5993"
      },
      "timezone": {
        "offset": "+01:00",
        "description": "Europe/Prague"
      },
      "avatar_url": "https://api.dicebear.com/8.x/thumbs/svg?seed=MichalHorak"
    },
    {
      "name": "Tereza Ku캜erov치",
      "gender": "Female",
      "phone_number": "+420 608 890 123",
      "street_address": "67 Porubsk치",
      "street_name": "Porubsk치",
      "building_number": "67",
      "city": "Ostrava",
      "state": "Moravian-Silesian Region",
      "postal_code": "708 00",
      "coordinates": {
        "latitude": "49.8375",
        "longitude": "18.1636"
      },
      "timezone": {
        "offset": "+01:00",
        "description": "Europe/Prague"
      },
      "avatar_url": "https://api.dicebear.com/8.x/thumbs/svg?seed=TerezaKucerova"
    },
    {
      "name": "V치clav Proch치zka",
      "gender": "Male",
      "phone_number": "+420 609 901 234",
      "street_address": "90 T콏칤da Svobody",
      "street_name": "T콏칤da Svobody",
      "building_number": "90",
      "city": "Olomouc",
      "state": "Olomouc Region",
      "postal_code": "772 00",
      "coordinates": {
        "latitude": "49.5953",
        "longitude": "17.2515"
      },
      "timezone": {
        "offset": "+01:00",
        "description": "Europe/Prague"
      },
      "avatar_url": "https://api.dicebear.com/8.x/thumbs/svg?seed=VaclavProchazka"
    },
    {
      "name": "Barbora Bene코ov치",
      "gender": "Female",
      "phone_number": "+420 610 012 345",
      "street_address": "12 Americk치",
      "street_name": "Americk치",
      "building_number": "12",
      "city": "Plze켿",
      "state": "Plze켿 Region",
      "postal_code": "301 00",
      "coordinates": {
        "latitude": "49.7485",
        "longitude": "13.3770"
      },
      "timezone": {
        "offset": "+01:00",
        "description": "Europe/Prague"
      },
      "avatar_url": "https://api.dicebear.com/8.x/thumbs/svg?seed=BarboraBenesova"
    }
  ]
}