{
  "meta": {
    "country": "Finland",
    "country_code": "FI",
    "currency": "EUR",
    "country_flag": "ðŸ‡«ðŸ‡®"
  },
  "addresses": [
    {
      "name": "Mikael Laine",
      "gender": "Male",
      "phone_number": "+358 40 123 4567",
      "street_address": "123 Aleksanterinkatu",
      "street_name": "Aleksanterinkatu",
      "building_number": "123",
      "city": "Helsinki",
      "state": "Uusimaa",
      "postal_code": "00100",
      "coordinates": {
        "latitude": "60.1695",
        "longitude": "24.9354"
      },
      "timezone": {
        "offset": "+02:00",
        "description": "Europe/Helsinki"
      },
      "avatar_url": "https://api.dicebear.com/8.x/thumbs/svg?seed=MikaelLaine"
    },
    {
      "name": "Emilia Korhonen",
      "gender": "Female",
      "phone_number": "+358 44 765 4321",
      "street_address": "456 Mannerheimintie",
      "street_name": "Mannerheimintie",
      "building_number": "456",
      "city": "Helsinki",
      "state": "Uusimaa",
      "postal_code": "00100",
      "coordinates": {
        "latitude": "60.1695",
        "longitude": "24.9354"
      },
      "timezone": {
        "offset": "+02:00",
        "description": "Europe/Helsinki"
      },
      "avatar_url": "https://api.dicebear.com/8.x/thumbs/svg?seed=EmiliaKorhonen"
    },
    {
      "name": "Aleksi Virtanen",
      "gender": "Male",
      "phone_number": "+358 50 234 5678",
      "street_address": "789 Kauppatori",
      "street_name": "Kauppatori",
      "building_number": "789",
      "city": "Helsinki",
      "state": "Uusimaa",
      "postal_code": "00170",
      "coordinates": {
        "latitude": "60.1675",
        "longitude": "24.9562"
      },
      "timezone": {
        "offset": "+02:00",
        "description": "Europe/Helsinki"
      },
      "avatar_url": "https://api.dicebear.com/8.x/thumbs/svg?seed=AleksiVirtanen"
    },
    {
      "name": "Sofia Nieminen",
      "gender": "Female",
      "phone_number": "+358 41 345 6789",
      "street_address": "101 HÃ¤meenkatu",
      "street_name": "HÃ¤meenkatu",
      "building_number": "101",
      "city": "Tampere",
      "state": "Pirkanmaa",
      "postal_code": "33100",
      "coordinates": {
        "latitude": "61.4981",
        "longitude": "23.7608"
      },
      "timezone": {
        "offset": "+02:00",
        "description": "Europe/Helsinki"
      },
      "avatar_url": "https://api.dicebear.com/8.x/thumbs/svg?seed=SofiaNieminen"
    },
    {
      "name": "Eero Salmi",
      "gender": "Male",
      "phone_number": "+358 45 987 6543",
      "street_address": "34 Linnankatu",
      "street_name": "Linnankatu",
      "building_number": "34",
      "city": "Turku",
      "state": "Southwest Finland",
      "postal_code": "20100",
      "coordinates": {
        "latitude": "60.4518",
        "longitude": "22.2666"
      },
      "timezone": {
        "offset": "+02:00",
        "description": "Europe/Helsinki"
      },
      "avatar_url": "https://api.dicebear.com/8.x/thumbs/svg?seed=EeroSalmi"
    },
    {
      "name": "Laura Rantanen",
      "gender": "Female",
      "phone_number": "+358 46 789 1234",
      "street_address": "56 Satamakatu",
      "street_name": "Satamakatu",
      "building_number": "56",
      "city": "Oulu",
      "state": "Northern Ostrobothnia",
      "postal_code": "90100",
      "coordinates": {
        "latitude": "65.0124",
        "longitude": "25.4682"
      },
      "timezone": {
        "offset": "+02:00",
        "description": "Europe/Helsinki"
      },
      "avatar_url": "https://api.dicebear.com/8.x/thumbs/svg?seed=LauraRantanen"
    },
    {
      "name": "Tuomas Jokela",
      "gender": "Male",
      "phone_number": "+358 40 321 6789",
      "street_address": "89 Rautatienkatu",
      "street_name": "Rautatienkatu",
      "building_number": "89",
      "city": "Lahti",
      "state": "PÃ¤ijÃ¤nne Tavastia",
      "postal_code": "15100",
      "coordinates": {
        "latitude": "60.9827",
        "longitude": "25.6615"
      },
      "timezone": {
        "offset": "+02:00",
        "description": "Europe/Helsinki"
      },
      "avatar_url": "https://api.dicebear.com/8.x/thumbs/svg?seed=TuomasJokela"
    },
    {
      "name": "Anni VÃ¤isÃ¤nen",
      "gender": "Female",
      "phone_number": "+358 44 210 5432",
      "street_address": "78 Kauppakatu",
      "street_name": "Kauppakatu",
      "building_number": "78",
      "city": "Kuopio",
      "state": "Northern Savonia",
      "postal_code": "70100",
      "coordinates": {
        "latitude": "62.8924",
        "longitude": "27.6782"
      },
      "timezone": {
        "offset": "+02:00",
        "description": "Europe/Helsinki"
      },
      "avatar_url": "https://api.dicebear.com/8.x/thumbs/svg?seed=AnniVÃ¤isÃ¤nen"
    },
    {
      "name": "Joonas Lehtinen",
      "gender": "Male",
      "phone_number": "+358 45 654 9870",
      "street_address": "32 Puijonkatu",
      "street_name": "Puijonkatu",
      "building_number": "32",
      "city": "Joensuu",
      "state": "North Karelia",
      "postal_code": "80100",
      "coordinates": {
        "latitude": "62.6010",
        "longitude": "29.7634"
      },
      "timezone": {
        "offset": "+02:00",
        "description": "Europe/Helsinki"
      },
      "avatar_url": "https://api.dicebear.com/8.x/thumbs/svg?seed=JoonasLehtinen"
    },
    {
      "name": "Veera Aaltonen",
      "gender": "Female",
      "phone_number": "+358 50 998 1122",
      "street_address": "90 Kirkkokatu",
      "street_name": "Kirkkokatu",
      "building_number": "90",
      "city": "Rovaniemi",
      "state": "Lapland",
      "postal_code": "96100",
      "coordinates": {
        "latitude": "66.5039",
        "longitude": "25.7294"
      },
      "timezone": {
        "offset": "+02:00",
        "description": "Europe/Helsinki"
      },
      "avatar_url": "https://api.dicebear.com/8.x/thumbs/svg?seed=VeeraAaltonen"
    }
  ]
}