{
  "meta": {
    "country": "Israel",
    "country_code": "IL",
    "currency": "ILS",
    "country_flag": "ðŸ‡®ðŸ‡±"
  },
  "addresses": [
    {
      "name": "David Cohen",
      "gender": "Male",
      "phone_number": "+972 50 123 4567",
      "street_address": "123 Rothschild Boulevard",
      "street_name": "Rothschild Boulevard",
      "building_number": "123",
      "city": "Tel Aviv",
      "state": "Tel Aviv District",
      "postal_code": "6688104",
      "coordinates": {
        "latitude": "32.0674",
        "longitude": "34.7721"
      },
      "timezone": {
        "offset": "+03:00",
        "description": "Asia/Jerusalem"
      },
      "avatar_url": "https://api.dicebear.com/8.x/thumbs/svg?seed=DavidCohen"
    },
    {
      "name": "Noa Levi",
      "gender": "Female",
      "phone_number": "+972 52 234 5678",
      "street_address": "45 Jaffa Road",
      "street_name": "Jaffa Road",
      "building_number": "45",
      "city": "Jerusalem",
      "state": "Jerusalem District",
      "postal_code": "9434125",
      "coordinates": {
        "latitude": "31.771959",
        "longitude": "35.217018"
      },
      "timezone": {
        "offset": "+03:00",
        "description": "Asia/Jerusalem"
      },
      "avatar_url": "https://api.dicebear.com/8.x/thumbs/svg?seed=NoaLevi"
    },
    {
      "name": "Amit Shapiro",
      "gender": "Male",
      "phone_number": "+972 54 345 6789",
      "street_address": "78 Ben Yehuda Street",
      "street_name": "Ben Yehuda Street",
      "building_number": "78",
      "city": "Haifa",
      "state": "Haifa District",
      "postal_code": "3307224",
      "coordinates": {
        "latitude": "32.7940",
        "longitude": "34.9896"
      },
      "timezone": {
        "offset": "+03:00",
        "description": "Asia/Jerusalem"
      },
      "avatar_url": "https://api.dicebear.com/8.x/thumbs/svg?seed=AmitShapiro"
    },
    {
      "name": "Maya Katz",
      "gender": "Female",
      "phone_number": "+972 53 456 7890",
      "street_address": "101 Herzl Street",
      "street_name": "Herzl Street",
      "building_number": "101",
      "city": "Beer Sheva",
      "state": "Southern District",
      "postal_code": "8421201",
      "coordinates": {
        "latitude": "31.2518",
        "longitude": "34.7913"
      },
      "timezone": {
        "offset": "+03:00",
        "description": "Asia/Jerusalem"
      },
      "avatar_url": "https://api.dicebear.com/8.x/thumbs/svg?seed=MayaKatz"
    },
    {
      "name": "Elior Ben-David",
      "gender": "Male",
      "phone_number": "+972 55 567 8901",
      "street_address": "34 Emek Refaim Street",
      "street_name": "Emek Refaim Street",
      "building_number": "34",
      "city": "Jerusalem",
      "state": "Jerusalem District",
      "postal_code": "9310502",
      "coordinates": {
        "latitude": "31.7683",
        "longitude": "35.2137"
      },
      "timezone": {
        "offset": "+03:00",
        "description": "Asia/Jerusalem"
      },
      "avatar_url": "https://api.dicebear.com/8.x/thumbs/svg?seed=EliorBenDavid"
    },
    {
      "name": "Lior Avraham",
      "gender": "Male",
      "phone_number": "+972 58 678 9012",
      "street_address": "12 Dizengoff Street",
      "street_name": "Dizengoff Street",
      "building_number": "12",
      "city": "Tel Aviv",
      "state": "Tel Aviv District",
      "postal_code": "6433201",
      "coordinates": {
        "latitude": "32.0673",
        "longitude": "34.7748"
      },
      "timezone": {
        "offset": "+03:00",
        "description": "Asia/Jerusalem"
      },
      "avatar_url": "https://api.dicebear.com/8.x/thumbs/svg?seed=LiorAvraham"
    },
    {
      "name": "Shira Alon",
      "gender": "Female",
      "phone_number": "+972 56 789 0123",
      "street_address": "22 King George Street",
      "street_name": "King George Street",
      "building_number": "22",
      "city": "Jerusalem",
      "state": "Jerusalem District",
      "postal_code": "9426202",
      "coordinates": {
        "latitude": "31.7692",
        "longitude": "35.2163"
      },
      "timezone": {
        "offset": "+03:00",
        "description": "Asia/Jerusalem"
      },
      "avatar_url": "https://api.dicebear.com/8.x/thumbs/svg?seed=ShiraAlon"
    },
    {
      "name": "Yonatan Mizrahi",
      "gender": "Male",
      "phone_number": "+972 57 890 1234",
      "street_address": "90 Carmel Boulevard",
      "street_name": "Carmel Boulevard",
      "building_number": "90",
      "city": "Haifa",
      "state": "Haifa District",
      "postal_code": "3435400",
      "coordinates": {
        "latitude": "32.7942",
        "longitude": "34.9897"
      },
      "timezone": {
        "offset": "+03:00",
        "description": "Asia/Jerusalem"
      },
      "avatar_url": "https://api.dicebear.com/8.x/thumbs/svg?seed=YonatanMizrahi"
    },
    {
      "name": "Tamar Azulay",
      "gender": "Female",
      "phone_number": "+972 50 012 3456",
      "street_address": "8 Allenby Street",
      "street_name": "Allenby Street",
      "building_number": "8",
      "city": "Tel Aviv",
      "state": "Tel Aviv District",
      "postal_code": "6330216",
      "coordinates": {
        "latitude": "32.0680",
        "longitude": "34.7665"
      },
      "timezone": {
        "offset": "+03:00",
        "description": "Asia/Jerusalem"
      },
      "avatar_url": "https://api.dicebear.com/8.x/thumbs/svg?seed=TamarAzulay"
    },
    {
      "name": "Itai Rosen",
      "gender": "Male",
      "phone_number": "+972 52 321 6549",
      "street_address": "66 Balfour Street",
      "street_name": "Balfour Street",
      "building_number": "66",
      "city": "Petah Tikva",
      "state": "Central District",
      "postal_code": "4920300",
      "coordinates": {
        "latitude": "32.0871",
        "longitude": "34.9079"
      },
      "timezone": {
        "offset": "+03:00",
        "description": "Asia/Jerusalem"
      },
      "avatar_url": "https://api.dicebear.com/8.x/thumbs/svg?seed=ItaiRosen"
    }
  ]
}