{
  "meta": {
    "country": "Japan",
    "country_code": "JP",
    "currency": "JPY",
    "country_flag": "ðŸ‡¯ðŸ‡µ"
  },
  "addresses": [
    {
      "name": "Haruki Yamamoto",
      "gender": "Male",
      "phone_number": "+81 80-1234-5678",
      "street_address": "1-2-3 Shibuya",
      "street_name": "Shibuya",
      "building_number": "1-2-3",
      "city": "Tokyo",
      "state": "Tokyo",
      "postal_code": "150-0002",
      "coordinates": {
        "latitude": "35.6595",
        "longitude": "139.7004"
      },
      "timezone": {
        "offset": "+09:00",
        "description": "Asia/Tokyo"
      },
      "avatar_url": "https://api.dicebear.com/8.x/thumbs/svg?seed=HarukiYamamoto"
    },
    {
      "name": "Aiko Tanaka",
      "gender": "Female",
      "phone_number": "+81 90-2345-6789",
      "street_address": "4-5-6 Shinjuku",
      "street_name": "Shinjuku",
      "building_number": "4-5-6",
      "city": "Tokyo",
      "state": "Tokyo",
      "postal_code": "160-0022",
      "coordinates": {
        "latitude": "35.6938",
        "longitude": "139.7034"
      },
      "timezone": {
        "offset": "+09:00",
        "description": "Asia/Tokyo"
      },
      "avatar_url": "https://api.dicebear.com/8.x/thumbs/svg?seed=AikoTanaka"
    },
    {
      "name": "Ren Sato",
      "gender": "Male",
      "phone_number": "+81 80-3456-7890",
      "street_address": "7-8-9 Umeda",
      "street_name": "Umeda",
      "building_number": "7-8-9",
      "city": "Osaka",
      "state": "Osaka",
      "postal_code": "530-0001",
      "coordinates": {
        "latitude": "34.7025",
        "longitude": "135.4959"
      },
      "timezone": {
        "offset": "+09:00",
        "description": "Asia/Tokyo"
      },
      "avatar_url": "https://api.dicebear.com/8.x/thumbs/svg?seed=RenSato"
    },
    {
      "name": "Mio Fujimoto",
      "gender": "Female",
      "phone_number": "+81 70-4567-8901",
      "street_address": "10-11-12 Sakae",
      "street_name": "Sakae",
      "building_number": "10-11-12",
      "city": "Nagoya",
      "state": "Aichi",
      "postal_code": "460-0008",
      "coordinates": {
        "latitude": "35.1709",
        "longitude": "136.8815"
      },
      "timezone": {
        "offset": "+09:00",
        "description": "Asia/Tokyo"
      },
      "avatar_url": "https://api.dicebear.com/8.x/thumbs/svg?seed=MioFujimoto"
    },
    {
      "name": "Takumi Nakamura",
      "gender": "Male",
      "phone_number": "+81 80-5678-9012",
      "street_address": "13-14-15 Hakataekimae",
      "street_name": "Hakataekimae",
      "building_number": "13-14-15",
      "city": "Fukuoka",
      "state": "Fukuoka",
      "postal_code": "812-0011",
      "coordinates": {
        "latitude": "33.5902",
        "longitude": "130.4017"
      },
      "timezone": {
        "offset": "+09:00",
        "description": "Asia/Tokyo"
      },
      "avatar_url": "https://api.dicebear.com/8.x/thumbs/svg?seed=TakumiNakamura"
    },
    {
      "name": "Yui Kobayashi",
      "gender": "Female",
      "phone_number": "+81 90-6789-0123",
      "street_address": "5-6-7 Daikanyama",
      "street_name": "Daikanyama",
      "building_number": "5-6-7",
      "city": "Tokyo",
      "state": "Tokyo",
      "postal_code": "150-0034",
      "coordinates": {
        "latitude": "35.6411",
        "longitude": "139.7036"
      },
      "timezone": {
        "offset": "+09:00",
        "description": "Asia/Tokyo"
      },
      "avatar_url": "https://api.dicebear.com/8.x/thumbs/svg?seed=YuiKobayashi"
    },
    {
      "name": "Kenta Mori",
      "gender": "Male",
      "phone_number": "+81 70-7890-1234",
      "street_address": "8-9-10 Namba",
      "street_name": "Namba",
      "building_number": "8-9-10",
      "city": "Osaka",
      "state": "Osaka",
      "postal_code": "542-0076",
      "coordinates": {
        "latitude": "34.6654",
        "longitude": "135.5013"
      },
      "timezone": {
        "offset": "+09:00",
        "description": "Asia/Tokyo"
      },
      "avatar_url": "https://api.dicebear.com/8.x/thumbs/svg?seed=KentaMori"
    },
    {
      "name": "Sakura Ishikawa",
      "gender": "Female",
      "phone_number": "+81 80-8901-2345",
      "street_address": "11-12-13 Motomachi",
      "street_name": "Motomachi",
      "building_number": "11-12-13",
      "city": "Kobe",
      "state": "Hyogo",
      "postal_code": "650-0022",
      "coordinates": {
        "latitude": "34.6901",
        "longitude": "135.1955"
      },
      "timezone": {
        "offset": "+09:00",
        "description": "Asia/Tokyo"
      },
      "avatar_url": "https://api.dicebear.com/8.x/thumbs/svg?seed=SakuraIshikawa"
    },
    {
      "name": "Daichi Arai",
      "gender": "Male",
      "phone_number": "+81 90-9012-3456",
      "street_address": "14-15-16 Nishiki",
      "street_name": "Nishiki",
      "building_number": "14-15-16",
      "city": "Nagoya",
      "state": "Aichi",
      "postal_code": "460-0003",
      "coordinates": {
        "latitude": "35.1739",
        "longitude": "136.8856"
      },
      "timezone": {
        "offset": "+09:00",
        "description": "Asia/Tokyo"
      },
      "avatar_url": "https://api.dicebear.com/8.x/thumbs/svg?seed=DaichiArai"
    },
    {
      "name": "Hana Okabe",
      "gender": "Female",
      "phone_number": "+81 70-0123-4567",
      "street_address": "17-18-19 Tenjin",
      "street_name": "Tenjin",
      "building_number": "17-18-19",
      "city": "Fukuoka",
      "state": "Fukuoka",
      "postal_code": "810-0001",
      "coordinates": {
        "latitude": "33.5895",
        "longitude": "130.4010"
      },
      "timezone": {
        "offset": "+09:00",
        "description": "Asia/Tokyo"
      },
      "avatar_url": "https://api.dicebear.com/8.x/thumbs/svg?seed=HanaOkabe"
    }
  ]
}