{
  "meta": {
    "country": "Niger",
    "country_code": "NE",
    "currency": "XOF",
    "country_flag": "üá≥üá™"
  },
  "addresses": [
    {
      "name": "Abdoulaye Issoufou",
      "gender": "Male",
      "phone_number": "+227 90 123 456",
      "street_address": "123 Rue de la Libert√©",
      "street_name": "Rue de la Libert√©",
      "building_number": "123",
      "city": "Niamey",
      "state": "Niamey Urban Community",
      "postal_code": "8001",
      "coordinates": {
        "latitude": "13.5120",
        "longitude": "2.1120"
      },
      "timezone": {
        "offset": "+01:00",
        "description": "West Africa Time"
      },
      "avatar_url": "https://api.dicebear.com/8.x/thumbs/svg?seed=AbdoulayeIssoufou"
    },
    {
      "name": "Fatouma Mahamadou",
      "gender": "Female",
      "phone_number": "+227 93 234 567",
      "street_address": "45 Boulevard Mali B√©ro",
      "street_name": "Boulevard Mali B√©ro",
      "building_number": "45",
      "city": "Niamey",
      "state": "Niamey Urban Community",
      "postal_code": "8002",
      "coordinates": {
        "latitude": "13.5120",
        "longitude": "2.1120"
      },
      "timezone": {
        "offset": "+01:00",
        "description": "West Africa Time"
      },
      "avatar_url": "https://api.dicebear.com/8.x/thumbs/svg?seed=FatoumaMahamadou"
    },
    {
      "name": "Salifou Amadou",
      "gender": "Male",
      "phone_number": "+227 96 345 678",
      "street_address": "78 Avenue du G√©n√©ral de Gaulle",
      "street_name": "Avenue du G√©n√©ral de Gaulle",
      "building_number": "78",
      "city": "Maradi",
      "state": "Maradi Region",
      "postal_code": "6101",
      "coordinates": {
        "latitude": "13.4950",
        "longitude": "7.1050"
      },
      "timezone": {
        "offset": "+01:00",
        "description": "West Africa Time"
      },
      "avatar_url": "https://api.dicebear.com/8.x/thumbs/svg?seed=SalifouAmadou"
    },
    {
      "name": "Ramatou Harouna",
      "gender": "Female",
      "phone_number": "+227 97 456 789",
      "street_address": "101 Rue de Zinder",
      "street_name": "Rue de Zinder",
      "building_number": "101",
      "city": "Zinder",
      "state": "Zinder Region",
      "postal_code": "7000",
      "coordinates": {
        "latitude": "13.8100",
        "longitude": "8.9860"
      },
      "timezone": {
        "offset": "+01:00",
        "description": "West Africa Time"
      },
      "avatar_url": "https://api.dicebear.com/8.x/thumbs/svg?seed=RamatouHarouna"
    },
    {
      "name": "Mahamane Ibrahim",
      "gender": "Male",
      "phone_number": "+227 98 567 890",
      "street_address": "34 Rue de Tahoua",
      "street_name": "Rue de Tahoua",
      "building_number": "34",
      "city": "Tahoua",
      "state": "Tahoua Region",
      "postal_code": "5000",
      "coordinates": {
        "latitude": "14.9000",
        "longitude": "5.2700"
      },
      "timezone": {
        "offset": "+01:00",
        "description": "West Africa Time"
      },
      "avatar_url": "https://api.dicebear.com/8.x/thumbs/svg?seed=MahamaneIbrahim"
    },
    {
      "name": "Halima Oumarou",
      "gender": "Female",
      "phone_number": "+227 91 678 901",
      "street_address": "56 Route de Dosso",
      "street_name": "Route de Dosso",
      "building_number": "56",
      "city": "Dosso",
      "state": "Dosso Region",
      "postal_code": "4200",
      "coordinates": {
        "latitude": "13.0500",
        "longitude": "3.2100"
      },
      "timezone": {
        "offset": "+01:00",
        "description": "West Africa Time"
      },
      "avatar_url": "https://api.dicebear.com/8.x/thumbs/svg?seed=HalimaOumarou"
    },
    {
      "name": "Boubacar Moussa",
      "gender": "Male",
      "phone_number": "+227 92 789 012",
      "street_address": "89 Rue de Diffa",
      "street_name": "Rue de Diffa",
      "building_number": "89",
      "city": "Diffa",
      "state": "Diffa Region",
      "postal_code": "8000",
      "coordinates": {
        "latitude": "13.3200",
        "longitude": "12.6100"
      },
      "timezone": {
        "offset": "+01:00",
        "description": "West Africa Time"
      },
      "avatar_url": "https://api.dicebear.com/8.x/thumbs/svg?seed=BoubacarMoussa"
    },
    {
      "name": "Aicha Abdou",
      "gender": "Female",
      "phone_number": "+227 94 890 123",
      "street_address": "67 Rue de Tillab√©ri",
      "street_name": "Rue de Tillab√©ri",
      "building_number": "67",
      "city": "Tillab√©ri",
      "state": "Tillab√©ri Region",
      "postal_code": "6000",
      "coordinates": {
        "latitude": "14.2200",
        "longitude": "1.4600"
      },
      "timezone": {
        "offset": "+01:00",
        "description": "West Africa Time"
      },
      "avatar_url": "https://api.dicebear.com/8.x/thumbs/svg?seed=AichaAbdou"
    },
    {
      "name": "Issa Garba",
      "gender": "Male",
      "phone_number": "+227 95 901 234",
      "street_address": "43 Boulevard Kassa√Ø",
      "street_name": "Boulevard Kassa√Ø",
      "building_number": "43",
      "city": "Niamey",
      "state": "Niamey Urban Community",
      "postal_code": "8003",
      "coordinates": {
        "latitude": "13.5120",
        "longitude": "2.1120"
      },
      "timezone": {
        "offset": "+01:00",
        "description": "West Africa Time"
      },
      "avatar_url": "https://api.dicebear.com/8.x/thumbs/svg?seed=IssaGarba"
    },
    {
      "name": "Zainab Adamou",
      "gender": "Female",
      "phone_number": "+227 99 012 345",
      "street_address": "11 Avenue Boubacar Diallo",
      "street_name": "Avenue Boubacar Diallo",
      "building_number": "11",
      "city": "Agadez",
      "state": "Agadez Region",
      "postal_code": "3000",
      "coordinates": {
        "latitude": "16.9700",
        "longitude": "8.0000"
      },
      "timezone": {
        "offset": "+01:00",
        "description": "West Africa Time"
      },
      "avatar_url": "https://api.dicebear.com/8.x/thumbs/svg?seed=ZainabAdamou"
    }
  ]
}