{
  "meta": {
    "country": "Sweden",
    "country_code": "SE",
    "currency": "SEK",
    "country_flag": "游젏릖"
  },
  "addresses": [
    {
      "name": "Erik Lindstr칬m",
      "gender": "Male",
      "phone_number": "+46 70 123 45 67",
      "street_address": "123 Drottninggatan",
      "street_name": "Drottninggatan",
      "building_number": "123",
      "city": "Stockholm",
      "state": "Stockholm",
      "postal_code": "111 21",
      "coordinates": {
        "latitude": "59.33258",
        "longitude": "18.0649"
      },
      "timezone": {
        "offset": "+01:00",
        "description": "Central European Time"
      },
      "avatar_url": "https://api.dicebear.com/8.x/thumbs/svg?seed=ErikLindstrom"
    },
    {
      "name": "Anna Svensson",
      "gender": "Female",
      "phone_number": "+46 73 234 56 78",
      "street_address": "456 Kungsportsavenyn",
      "street_name": "Kungsportsavenyn",
      "building_number": "456",
      "city": "Gothenburg",
      "state": "V칛stra G칬taland",
      "postal_code": "411 36",
      "coordinates": {
        "latitude": "57.70887",
        "longitude": "11.97456"
      },
      "timezone": {
        "offset": "+01:00",
        "description": "Central European Time"
      },
      "avatar_url": "https://api.dicebear.com/8.x/thumbs/svg?seed=AnnaSvensson"
    },
    {
      "name": "Johan Karlsson",
      "gender": "Male",
      "phone_number": "+46 72 345 67 89",
      "street_address": "789 Stora Nygatan",
      "street_name": "Stora Nygatan",
      "building_number": "789",
      "city": "Malm칬",
      "state": "Sk친ne",
      "postal_code": "211 37",
      "coordinates": {
        "latitude": "55.60587",
        "longitude": "13.00024"
      },
      "timezone": {
        "offset": "+01:00",
        "description": "Central European Time"
      },
      "avatar_url": "https://api.dicebear.com/8.x/thumbs/svg?seed=JohanKarlsson"
    },
    {
      "name": "Emelie Andersson",
      "gender": "Female",
      "phone_number": "+46 76 456 78 90",
      "street_address": "101 Storgatan",
      "street_name": "Storgatan",
      "building_number": "101",
      "city": "Uppsala",
      "state": "Uppsala",
      "postal_code": "753 31",
      "coordinates": {
        "latitude": "59.85856",
        "longitude": "17.63893"
      },
      "timezone": {
        "offset": "+01:00",
        "description": "Central European Time"
      },
      "avatar_url": "https://api.dicebear.com/8.x/thumbs/svg?seed=EmelieAndersson"
    },
    {
      "name": "Lars Nilsson",
      "gender": "Male",
      "phone_number": "+46 74 567 89 01",
      "street_address": "34 Norra Vallgatan",
      "street_name": "Norra Vallgatan",
      "building_number": "34",
      "city": "Lund",
      "state": "Sk친ne",
      "postal_code": "222 22",
      "coordinates": {
        "latitude": "55.70466",
        "longitude": "13.191"
      },
      "timezone": {
        "offset": "+01:00",
        "description": "Central European Time"
      },
      "avatar_url": "https://api.dicebear.com/8.x/thumbs/svg?seed=LarsNilsson"
    },
    {
      "name": "Sara Berg",
      "gender": "Female",
      "phone_number": "+46 79 678 90 12",
      "street_address": "12 Kungsgatan",
      "street_name": "Kungsgatan",
      "building_number": "12",
      "city": "Stockholm",
      "state": "Stockholm",
      "postal_code": "111 22",
      "coordinates": {
        "latitude": "59.33459",
        "longitude": "18.06633"
      },
      "timezone": {
        "offset": "+01:00",
        "description": "Central European Time"
      },
      "avatar_url": "https://api.dicebear.com/8.x/thumbs/svg?seed=SaraBerg"
    },
    {
      "name": "Anders Ek",
      "gender": "Male",
      "phone_number": "+46 75 789 01 23",
      "street_address": "88 Vasagatan",
      "street_name": "Vasagatan",
      "building_number": "88",
      "city": "G칬teborg",
      "state": "V칛stra G칬taland",
      "postal_code": "411 37",
      "coordinates": {
        "latitude": "57.7089",
        "longitude": "11.9744"
      },
      "timezone": {
        "offset": "+01:00",
        "description": "Central European Time"
      },
      "avatar_url": "https://api.dicebear.com/8.x/thumbs/svg?seed=AndersEk"
    },
    {
      "name": "Maria Holm",
      "gender": "Female",
      "phone_number": "+46 71 890 12 34",
      "street_address": "55 Lilla Torg",
      "street_name": "Lilla Torg",
      "building_number": "55",
      "city": "Malm칬",
      "state": "Sk친ne",
      "postal_code": "211 38",
      "coordinates": {
        "latitude": "55.6059",
        "longitude": "13.0003"
      },
      "timezone": {
        "offset": "+01:00",
        "description": "Central European Time"
      },
      "avatar_url": "https://api.dicebear.com/8.x/thumbs/svg?seed=MariaHolm"
    },
    {
      "name": "Fredrik Nystr칬m",
      "gender": "Male",
      "phone_number": "+46 78 901 23 45",
      "street_address": "66 Drottninggatan",
      "street_name": "Drottninggatan",
      "building_number": "66",
      "city": "Uppsala",
      "state": "Uppsala",
      "postal_code": "753 32",
      "coordinates": {
        "latitude": "59.8586",
        "longitude": "17.6389"
      },
      "timezone": {
        "offset": "+01:00",
        "description": "Central European Time"
      },
      "avatar_url": "https://api.dicebear.com/8.x/thumbs/svg?seed=FredrikNystrom"
    },
    {
      "name": "Carolina 칀kesson",
      "gender": "Female",
      "phone_number": "+46 70 012 34 56",
      "street_address": "99 S칬dra Esplanaden",
      "street_name": "S칬dra Esplanaden",
      "building_number": "99",
      "city": "Lund",
      "state": "Sk친ne",
      "postal_code": "222 23",
      "coordinates": {
        "latitude": "55.7050",
        "longitude": "13.1920"
      },
      "timezone": {
        "offset": "+01:00",
        "description": "Central European Time"
      },
      "avatar_url": "https://api.dicebear.com/8.x/thumbs/svg?seed=CarolinaAkesson"
    }
  ]
}