{
  "meta": {
    "country": "Taiwan",
    "country_code": "TW",
    "currency": "TWD",
    "country_flag": "ðŸ‡¹ðŸ‡¼"
  },
  "addresses": [
    {
      "name": "Chun-Li Huang",
      "gender": "Female",
      "phone_number": "+886 912 345 678",
      "street_address": "123 Zhongxiao East Road",
      "street_name": "Zhongxiao East Road",
      "building_number": "123",
      "city": "Taipei",
      "state": "Taipei City",
      "postal_code": "110",
      "coordinates": {
        "latitude": "25.0402",
        "longitude": "121.5677"
      },
      "timezone": {
        "offset": "+08:00",
        "description": "Taipei Standard Time"
      },
      "avatar_url": "https://api.dicebear.com/8.x/thumbs/svg?seed=ChunLiHuang"
    },
    {
      "name": "Wei-Ting Chen",
      "gender": "Male",
      "phone_number": "+886 913 456 789",
      "street_address": "45 Wenxin Road",
      "street_name": "Wenxin Road",
      "building_number": "45",
      "city": "Taichung",
      "state": "Taichung City",
      "postal_code": "404",
      "coordinates": {
        "latitude": "24.1477",
        "longitude": "120.6736"
      },
      "timezone": {
        "offset": "+08:00",
        "description": "Taipei Standard Time"
      },
      "avatar_url": "https://api.dicebear.com/8.x/thumbs/svg?seed=WeiTingChen"
    },
    {
      "name": "Yi-Jie Lin",
      "gender": "Female",
      "phone_number": "+886 914 567 890",
      "street_address": "78 Zhonghua Road",
      "street_name": "Zhonghua Road",
      "building_number": "78",
      "city": "Kaohsiung",
      "state": "Kaohsiung City",
      "postal_code": "800",
      "coordinates": {
        "latitude": "22.6273",
        "longitude": "120.3014"
      },
      "timezone": {
        "offset": "+08:00",
        "description": "Taipei Standard Time"
      },
      "avatar_url": "https://api.dicebear.com/8.x/thumbs/svg?seed=YiJieLin"
    },
    {
      "name": "Hao-Wei Tsai",
      "gender": "Male",
      "phone_number": "+886 915 678 901",
      "street_address": "101 Xinyi Road",
      "street_name": "Xinyi Road",
      "building_number": "101",
      "city": "Tainan",
      "state": "Tainan City",
      "postal_code": "700",
      "coordinates": {
        "latitude": "22.9997",
        "longitude": "120.2270"
      },
      "timezone": {
        "offset": "+08:00",
        "description": "Taipei Standard Time"
      },
      "avatar_url": "https://api.dicebear.com/8.x/thumbs/svg?seed=HaoWeiTsai"
    },
    {
      "name": "Mei-Ling Wang",
      "gender": "Female",
      "phone_number": "+886 916 789 012",
      "street_address": "34 Minquan Road",
      "street_name": "Minquan Road",
      "building_number": "34",
      "city": "Hsinchu",
      "state": "Hsinchu City",
      "postal_code": "300",
      "coordinates": {
        "latitude": "24.8036",
        "longitude": "120.9686"
      },
      "timezone": {
        "offset": "+08:00",
        "description": "Taipei Standard Time"
      },
      "avatar_url": "https://api.dicebear.com/8.x/thumbs/svg?seed=MeiLingWang"
    },
    {
      "name": "Yu-Chen Lai",
      "gender": "Male",
      "phone_number": "+886 917 890 123",
      "street_address": "67 Chenggong Road",
      "street_name": "Chenggong Road",
      "building_number": "67",
      "city": "Keelung",
      "state": "Keelung City",
      "postal_code": "202",
      "coordinates": {
        "latitude": "25.1276",
        "longitude": "121.7392"
      },
      "timezone": {
        "offset": "+08:00",
        "description": "Taipei Standard Time"
      },
      "avatar_url": "https://api.dicebear.com/8.x/thumbs/svg?seed=YuChenLai"
    },
    {
      "name": "Jing-Ru Chang",
      "gender": "Female",
      "phone_number": "+886 918 901 234",
      "street_address": "89 Linsen Road",
      "street_name": "Linsen Road",
      "building_number": "89",
      "city": "Chiayi",
      "state": "Chiayi City",
      "postal_code": "600",
      "coordinates": {
        "latitude": "23.4800",
        "longitude": "120.4490"
      },
      "timezone": {
        "offset": "+08:00",
        "description": "Taipei Standard Time"
      },
      "avatar_url": "https://api.dicebear.com/8.x/thumbs/svg?seed=JingRuChang"
    },
    {
      "name": "Kuan-Ting Wu",
      "gender": "Male",
      "phone_number": "+886 919 012 345",
      "street_address": "52 Gongyuan Road",
      "street_name": "Gongyuan Road",
      "building_number": "52",
      "city": "Yilan",
      "state": "Yilan County",
      "postal_code": "260",
      "coordinates": {
        "latitude": "24.7541",
        "longitude": "121.7510"
      },
      "timezone": {
        "offset": "+08:00",
        "description": "Taipei Standard Time"
      },
      "avatar_url": "https://api.dicebear.com/8.x/thumbs/svg?seed=KuanTingWu"
    },
    {
      "name": "Hsiao-Mei Kuo",
      "gender": "Female",
      "phone_number": "+886 920 123 456",
      "street_address": "76 Renai Road",
      "street_name": "Renai Road",
      "building_number": "76",
      "city": "Hualien",
      "state": "Hualien County",
      "postal_code": "970",
      "coordinates": {
        "latitude": "24.0010",
        "longitude": "121.6044"
      },
      "timezone": {
        "offset": "+08:00",
        "description": "Taipei Standard Time"
      },
      "avatar_url": "https://api.dicebear.com/8.x/thumbs/svg?seed=HsiaoMeiKuo"
    },
    {
      "name": "Cheng-Hsiang Lee",
      "gender": "Male",
      "phone_number": "+886 921 234 567",
      "street_address": "88 Zhongzheng Road",
      "street_name": "Zhongzheng Road",
      "building_number": "88",
      "city": "Taitung",
      "state": "Taitung County",
      "postal_code": "950",
      "coordinates": {
        "latitude": "22.7576",
        "longitude": "121.1449"
      },
      "timezone": {
        "offset": "+08:00",
        "description": "Taipei Standard Time"
      },
      "avatar_url": "https://api.dicebear.com/8.x/thumbs/svg?seed=ChengHsiangLee"
    }
  ]
}