{
  "meta": {
    "country": "Commonwealth of Australia",
    "country_flag": "ðŸ‡¦ðŸ‡º",
    "country_code": "AU",
    "currency": "AUD"
  },
  "addresses": [
    {
      "name": "Jack Thompson",
      "gender": "Male",
      "phone_number": "+61 412 345 678",
      "street_address": "123 George Street",
      "street_name": "George Street",
      "building_number": "123",
      "city": "Sydney",
      "state": "New South Wales",
      "postal_code": "2000",
      "coordinates": {
        "latitude": "-33.8675",
        "longitude": "151.2070"
      },
      "timezone": {
        "offset": "+10:00",
        "description": "Australia/Sydney"
      },
      "avatar_url": "https://api.dicebear.com/8.x/thumbs/svg?seed=JackThompson"
    },
    {
      "name": "Olivia Harris",
      "gender": "Female",
      "phone_number": "+61 438 765 432",
      "street_address": "456 Collins Street",
      "street_name": "Collins Street",
      "building_number": "456",
      "city": "Melbourne",
      "state": "Victoria",
      "postal_code": "3000",
      "coordinates": {
        "latitude": "-37.8140",
        "longitude": "144.9633"
      },
      "timezone": {
        "offset": "+10:00",
        "description": "Australia/Melbourne"
      },
      "avatar_url": "https://api.dicebear.com/8.x/thumbs/svg?seed=OliviaHarris"
    },
    {
      "name": "Liam Wright",
      "gender": "Male",
      "phone_number": "+61 400 123 456",
      "street_address": "789 Adelaide Street",
      "street_name": "Adelaide Street",
      "building_number": "789",
      "city": "Brisbane",
      "state": "Queensland",
      "postal_code": "4000",
      "coordinates": {
        "latitude": "-27.4698",
        "longitude": "153.0251"
      },
      "timezone": {
        "offset": "+10:00",
        "description": "Australia/Brisbane"
      },
      "avatar_url": "https://api.dicebear.com/8.x/thumbs/svg?seed=LiamWright"
    },
    {
      "name": "Charlotte Mitchell",
      "gender": "Female",
      "phone_number": "+61 450 654 321",
      "street_address": "101 North Terrace",
      "street_name": "North Terrace",
      "building_number": "101",
      "city": "Adelaide",
      "state": "South Australia",
      "postal_code": "5000",
      "coordinates": {
        "latitude": "-34.9285",
        "longitude": "138.6007"
      },
      "timezone": {
        "offset": "+09:30",
        "description": "Australia/Adelaide"
      },
      "avatar_url": "https://api.dicebear.com/8.x/thumbs/svg?seed=CharlotteMitchell"
    },
    {
      "name": "Ethan Russell",
      "gender": "Male",
      "phone_number": "+61 422 789 012",
      "street_address": "34 St Georges Terrace",
      "street_name": "St Georges Terrace",
      "building_number": "34",
      "city": "Perth",
      "state": "Western Australia",
      "postal_code": "6000",
      "coordinates": {
        "latitude": "-31.9505",
        "longitude": "115.8605"
      },
      "timezone": {
        "offset": "+08:00",
        "description": "Australia/Perth"
      },
      "avatar_url": "https://api.dicebear.com/8.x/thumbs/svg?seed=EthanRussell"
    },
    {
      "name": "Amelia Robinson",
      "gender": "Female",
      "phone_number": "+61 439 112 233",
      "street_address": "67 King William Street",
      "street_name": "King William Street",
      "building_number": "67",
      "city": "Adelaide",
      "state": "South Australia",
      "postal_code": "5000",
      "coordinates": {
        "latitude": "-34.9285",
        "longitude": "138.6007"
      },
      "timezone": {
        "offset": "+09:30",
        "description": "Australia/Adelaide"
      },
      "avatar_url": "https://api.dicebear.com/8.x/thumbs/svg?seed=AmeliaRobinson"
    },
    {
      "name": "Benjamin Hall",
      "gender": "Male",
      "phone_number": "+61 401 987 654",
      "street_address": "89 Bourke Street",
      "street_name": "Bourke Street",
      "building_number": "89",
      "city": "Melbourne",
      "state": "Victoria",
      "postal_code": "3000",
      "coordinates": {
        "latitude": "-37.8136",
        "longitude": "144.9631"
      },
      "timezone": {
        "offset": "+10:00",
        "description": "Australia/Melbourne"
      },
      "avatar_url": "https://api.dicebear.com/8.x/thumbs/svg?seed=BenjaminHall"
    },
    {
      "name": "Emily Watson",
      "gender": "Female",
      "phone_number": "+61 447 556 789",
      "street_address": "12 Elizabeth Street",
      "street_name": "Elizabeth Street",
      "building_number": "12",
      "city": "Hobart",
      "state": "Tasmania",
      "postal_code": "7000",
      "coordinates": {
        "latitude": "-42.8821",
        "longitude": "147.3272"
      },
      "timezone": {
        "offset": "+10:00",
        "description": "Australia/Hobart"
      },
      "avatar_url": "https://api.dicebear.com/8.x/thumbs/svg?seed=EmilyWatson"
    },
    {
      "name": "Daniel Evans",
      "gender": "Male",
      "phone_number": "+61 478 334 221",
      "street_address": "105 Oxford Street",
      "street_name": "Oxford Street",
      "building_number": "105",
      "city": "Sydney",
      "state": "New South Wales",
      "postal_code": "2021",
      "coordinates": {
        "latitude": "-33.8808",
        "longitude": "151.2165"
      },
      "timezone": {
        "offset": "+10:00",
        "description": "Australia/Sydney"
      },
      "avatar_url": "https://api.dicebear.com/8.x/thumbs/svg?seed=DanielEvans"
    },
    {
      "name": "Sophie Bennett",
      "gender": "Female",
      "phone_number": "+61 419 665 443",
      "street_address": "38 Ann Street",
      "street_name": "Ann Street",
      "building_number": "38",
      "city": "Brisbane",
      "state": "Queensland",
      "postal_code": "4000",
      "coordinates": {
        "latitude": "-27.4679",
        "longitude": "153.0281"
      },
      "timezone": {
        "offset": "+10:00",
        "description": "Australia/Brisbane"
      },
      "avatar_url": "https://api.dicebear.com/8.x/thumbs/svg?seed=SophieBennett"
    }
  ]
}