{
  "meta": {
    "country": "Germany",
    "country_code": "DE",
    "currency": "EUR",
    "country_flag": "üá©üá™"
  },
  "addresses": [
    {
      "name": "Max M√ºller",
      "gender": "Male",
      "phone_number": "+49 151 12345678",
      "street_address": "123 Kurf√ºrstendamm",
      "street_name": "Kurf√ºrstendamm",
      "building_number": "123",
      "city": "Berlin",
      "state": "Berlin",
      "postal_code": "10709",
      "coordinates": {
        "latitude": "52.4995",
        "longitude": "13.3086"
      },
      "timezone": {
        "offset": "+01:00",
        "description": "Europe/Berlin"
      },
      "avatar_url": "https://api.dicebear.com/8.x/thumbs/svg?seed=MaxMuller"
    },
    {
      "name": "Anna Schmidt",
      "gender": "Female",
      "phone_number": "+49 160 23456789",
      "street_address": "456 Marienplatz",
      "street_name": "Marienplatz",
      "building_number": "456",
      "city": "Munich",
      "state": "Bavaria",
      "postal_code": "80331",
      "coordinates": {
        "latitude": "48.1371",
        "longitude": "11.5754"
      },
      "timezone": {
        "offset": "+01:00",
        "description": "Europe/Berlin"
      },
      "avatar_url": "https://api.dicebear.com/8.x/thumbs/svg?seed=AnnaSchmidt"
    },
    {
      "name": "Lukas Fischer",
      "gender": "Male",
      "phone_number": "+49 170 34567890",
      "street_address": "789 K√∂nigstra√üe",
      "street_name": "K√∂nigstra√üe",
      "building_number": "789",
      "city": "Stuttgart",
      "state": "Baden-W√ºrttemberg",
      "postal_code": "70173",
      "coordinates": {
        "latitude": "48.7784",
        "longitude": "9.1798"
      },
      "timezone": {
        "offset": "+01:00",
        "description": "Europe/Berlin"
      },
      "avatar_url": "https://api.dicebear.com/8.x/thumbs/svg?seed=LukasFischer"
    },
    {
      "name": "Sophie Wagner",
      "gender": "Female",
      "phone_number": "+49 152 45678901",
      "street_address": "101 Zeil",
      "street_name": "Zeil",
      "building_number": "101",
      "city": "Frankfurt",
      "state": "Hesse",
      "postal_code": "60313",
      "coordinates": {
        "latitude": "50.1145",
        "longitude": "8.6842"
      },
      "timezone": {
        "offset": "+01:00",
        "description": "Europe/Berlin"
      },
      "avatar_url": "https://api.dicebear.com/8.x/thumbs/svg?seed=SophieWagner"
    },
    {
      "name": "Tim Becker",
      "gender": "Male",
      "phone_number": "+49 176 56789012",
      "street_address": "34 Schildergasse",
      "street_name": "Schildergasse",
      "building_number": "34",
      "city": "Cologne",
      "state": "North Rhine-Westphalia",
      "postal_code": "50667",
      "coordinates": {
        "latitude": "50.9364",
        "longitude": "6.9526"
      },
      "timezone": {
        "offset": "+01:00",
        "description": "Europe/Berlin"
      },
      "avatar_url": "https://api.dicebear.com/8.x/thumbs/svg?seed=TimBecker"
    },
    {
      "name": "Laura Neumann",
      "gender": "Female",
      "phone_number": "+49 157 67890123",
      "street_address": "78 Hauptstra√üe",
      "street_name": "Hauptstra√üe",
      "building_number": "78",
      "city": "Dresden",
      "state": "Saxony",
      "postal_code": "01067",
      "coordinates": {
        "latitude": "51.0504",
        "longitude": "13.7373"
      },
      "timezone": {
        "offset": "+01:00",
        "description": "Europe/Berlin"
      },
      "avatar_url": "https://api.dicebear.com/8.x/thumbs/svg?seed=LauraNeumann"
    },
    {
      "name": "Felix Hoffmann",
      "gender": "Male",
      "phone_number": "+49 155 78901234",
      "street_address": "90 Friedrichstra√üe",
      "street_name": "Friedrichstra√üe",
      "building_number": "90",
      "city": "Berlin",
      "state": "Berlin",
      "postal_code": "10117",
      "coordinates": {
        "latitude": "52.5076",
        "longitude": "13.3904"
      },
      "timezone": {
        "offset": "+01:00",
        "description": "Europe/Berlin"
      },
      "avatar_url": "https://api.dicebear.com/8.x/thumbs/svg?seed=FelixHoffmann"
    },
    {
      "name": "Mia Sch√§fer",
      "gender": "Female",
      "phone_number": "+49 159 89012345",
      "street_address": "56 Leipziger Stra√üe",
      "street_name": "Leipziger Stra√üe",
      "building_number": "56",
      "city": "Leipzig",
      "state": "Saxony",
      "postal_code": "04109",
      "coordinates": {
        "latitude": "51.3397",
        "longitude": "12.3731"
      },
      "timezone": {
        "offset": "+01:00",
        "description": "Europe/Berlin"
      },
      "avatar_url": "https://api.dicebear.com/8.x/thumbs/svg?seed=MiaSchaefer"
    },
    {
      "name": "Jonas Braun",
      "gender": "Male",
      "phone_number": "+49 162 90123456",
      "street_address": "67 Marktstra√üe",
      "street_name": "Marktstra√üe",
      "building_number": "67",
      "city": "Hannover",
      "state": "Lower Saxony",
      "postal_code": "30159",
      "coordinates": {
        "latitude": "52.3759",
        "longitude": "9.7320"
      },
      "timezone": {
        "offset": "+01:00",
        "description": "Europe/Berlin"
      },
      "avatar_url": "https://api.dicebear.com/8.x/thumbs/svg?seed=JonasBraun"
    },
    {
      "name": "Nina Keller",
      "gender": "Female",
      "phone_number": "+49 163 01234567",
      "street_address": "34 Bahnhofstra√üe",
      "street_name": "Bahnhofstra√üe",
      "building_number": "34",
      "city": "Bremen",
      "state": "Bremen",
      "postal_code": "28195",
      "coordinates": {
        "latitude": "53.0793",
        "longitude": "8.8017"
      },
      "timezone": {
        "offset": "+01:00",
        "description": "Europe/Berlin"
      },
      "avatar_url": "https://api.dicebear.com/8.x/thumbs/svg?seed=NinaKeller"
    }
  ]
}