{
  "meta": {
    "country": "United Kingdom",
    "country_code": "GB",
    "currency": "GBP",
    "country_flag": "ðŸ‡¬ðŸ‡§"
  },
  "addresses": [
    {
      "name": "James Walker",
      "gender": "Male",
      "phone_number": "+44 7700 900123",
      "street_address": "10 Downing Street",
      "street_name": "Downing Street",
      "building_number": "10",
      "city": "London",
      "state": "England",
      "postal_code": "SW1A 2AA",
      "coordinates": {
        "latitude": "51.5034",
        "longitude": "-0.1276"
      },
      "timezone": {
        "offset": "+01:00",
        "description": "Europe/London"
      },
      "avatar_url": "https://api.dicebear.com/8.x/thumbs/svg?seed=JamesWalker"
    },
    {
      "name": "Emily Clarke",
      "gender": "Female",
      "phone_number": "+44 7700 900456",
      "street_address": "221B Baker Street",
      "street_name": "Baker Street",
      "building_number": "221B",
      "city": "London",
      "state": "England",
      "postal_code": "NW1 6XE",
      "coordinates": {
        "latitude": "51.5237",
        "longitude": "-0.1585"
      },
      "timezone": {
        "offset": "+01:00",
        "description": "Europe/London"
      },
      "avatar_url": "https://api.dicebear.com/8.x/thumbs/svg?seed=EmilyClarke"
    },
    {
      "name": "Oliver Hughes",
      "gender": "Male",
      "phone_number": "+44 7700 900789",
      "street_address": "45 Oxford Street",
      "street_name": "Oxford Street",
      "building_number": "45",
      "city": "London",
      "state": "England",
      "postal_code": "W1D 1BS",
      "coordinates": {
        "latitude": "51.5142",
        "longitude": "-0.1410"
      },
      "timezone": {
        "offset": "+01:00",
        "description": "Europe/London"
      },
      "avatar_url": "https://api.dicebear.com/8.x/thumbs/svg?seed=OliverHughes"
    },
    {
      "name": "Sophie Turner",
      "gender": "Female",
      "phone_number": "+44 7700 901012",
      "street_address": "78 Princess Street",
      "street_name": "Princess Street",
      "building_number": "78",
      "city": "Manchester",
      "state": "England",
      "postal_code": "M1 6EN",
      "coordinates": {
        "latitude": "53.4808",
        "longitude": "-2.2435"
      },
      "timezone": {
        "offset": "+01:00",
        "description": "Europe/London"
      },
      "avatar_url": "https://api.dicebear.com/8.x/thumbs/svg?seed=SophieTurner"
    },
    {
      "name": "Callum Fraser",
      "gender": "Male",
      "phone_number": "+44 7700 901345",
      "street_address": "12 Royal Mile",
      "street_name": "Royal Mile",
      "building_number": "12",
      "city": "Edinburgh",
      "state": "Scotland",
      "postal_code": "EH1 1QS",
      "coordinates": {
        "latitude": "55.9521",
        "longitude": "-3.1965"
      },
      "timezone": {
        "offset": "+01:00",
        "description": "Europe/London"
      },
      "avatar_url": "https://api.dicebear.com/8.x/thumbs/svg?seed=CallumFraser"
    },
    {
      "name": "Isla Bennett",
      "gender": "Female",
      "phone_number": "+44 7700 901678",
      "street_address": "34 Queen Street",
      "street_name": "Queen Street",
      "building_number": "34",
      "city": "Glasgow",
      "state": "Scotland",
      "postal_code": "G1 3DX",
      "coordinates": {
        "latitude": "55.8609",
        "longitude": "-4.2514"
      },
      "timezone": {
        "offset": "+01:00",
        "description": "Europe/London"
      },
      "avatar_url": "https://api.dicebear.com/8.x/thumbs/svg?seed=IslaBennett"
    },
    {
      "name": "Liam Robinson",
      "gender": "Male",
      "phone_number": "+44 7700 902001",
      "street_address": "56 Castle Street",
      "street_name": "Castle Street",
      "building_number": "56",
      "city": "Belfast",
      "state": "Northern Ireland",
      "postal_code": "BT1 1GH",
      "coordinates": {
        "latitude": "54.5973",
        "longitude": "-5.9301"
      },
      "timezone": {
        "offset": "+01:00",
        "description": "Europe/London"
      },
      "avatar_url": "https://api.dicebear.com/8.x/thumbs/svg?seed=LiamRobinson"
    },
    {
      "name": "Freya Morgan",
      "gender": "Female",
      "phone_number": "+44 7700 902234",
      "street_address": "90 Kingsway",
      "street_name": "Kingsway",
      "building_number": "90",
      "city": "Cardiff",
      "state": "Wales",
      "postal_code": "CF10 3FD",
      "coordinates": {
        "latitude": "51.4816",
        "longitude": "-3.1791"
      },
      "timezone": {
        "offset": "+01:00",
        "description": "Europe/London"
      },
      "avatar_url": "https://api.dicebear.com/8.x/thumbs/svg?seed=FreyaMorgan"
    },
    {
      "name": "Daniel Evans",
      "gender": "Male",
      "phone_number": "+44 7700 902567",
      "street_address": "88 Market Street",
      "street_name": "Market Street",
      "building_number": "88",
      "city": "Nottingham",
      "state": "England",
      "postal_code": "NG1 6FG",
      "coordinates": {
        "latitude": "52.9548",
        "longitude": "-1.1490"
      },
      "timezone": {
        "offset": "+01:00",
        "description": "Europe/London"
      },
      "avatar_url": "https://api.dicebear.com/8.x/thumbs/svg?seed=DanielEvans"
    },
    {
      "name": "Charlotte Reed",
      "gender": "Female",
      "phone_number": "+44 7700 902890",
      "street_address": "66 Bold Street",
      "street_name": "Bold Street",
      "building_number": "66",
      "city": "Liverpool",
      "state": "England",
      "postal_code": "L1 4HR",
      "coordinates": {
        "latitude": "53.4084",
        "longitude": "-2.9916"
      },
      "timezone": {
        "offset": "+01:00",
        "description": "Europe/London"
      },
      "avatar_url": "https://api.dicebear.com/8.x/thumbs/svg?seed=CharlotteReed"
    }
  ]
}