{
  "meta": {
    "country": "Hong Kong",
    "country_code": "HK",
    "currency": "HKD",
    "country_flag": "ðŸ‡­ðŸ‡°"
  },
  "addresses": [
    {
      "name": "Victor Chan",
      "gender": "Male",
      "phone_number": "+852 9123 4567",
      "street_address": "123 Queen's Road Central",
      "street_name": "Queen's Road Central",
      "building_number": "123",
      "city": "Central",
      "state": "Hong Kong Island",
      "postal_code": "",
      "coordinates": {
        "latitude": "22.2819",
        "longitude": "114.1582"
      },
      "timezone": {
        "offset": "+08:00",
        "description": "Asia/Hong_Kong"
      },
      "avatar_url": "https://api.dicebear.com/8.x/thumbs/svg?seed=VictorChan"
    },
    {
      "name": "Angela Wong",
      "gender": "Female",
      "phone_number": "+852 9234 5678",
      "street_address": "45 Nathan Road",
      "street_name": "Nathan Road",
      "building_number": "45",
      "city": "Tsim Sha Tsui",
      "state": "Kowloon",
      "postal_code": "",
      "coordinates": {
        "latitude": "22.2964",
        "longitude": "114.1718"
      },
      "timezone": {
        "offset": "+08:00",
        "description": "Asia/Hong_Kong"
      },
      "avatar_url": "https://api.dicebear.com/8.x/thumbs/svg?seed=AngelaWong"
    },
    {
      "name": "Samuel Lee",
      "gender": "Male",
      "phone_number": "+852 9345 6789",
      "street_address": "78 Hennessy Road",
      "street_name": "Hennessy Road",
      "building_number": "78",
      "city": "Wan Chai",
      "state": "Hong Kong Island",
      "postal_code": "",
      "coordinates": {
        "latitude": "22.2761",
        "longitude": "114.1707"
      },
      "timezone": {
        "offset": "+08:00",
        "description": "Asia/Hong_Kong"
      },
      "avatar_url": "https://api.dicebear.com/8.x/thumbs/svg?seed=SamuelLee"
    },
    {
      "name": "Emily Cheung",
      "gender": "Female",
      "phone_number": "+852 9456 7890",
      "street_address": "101 Des Voeux Road West",
      "street_name": "Des Voeux Road West",
      "building_number": "101",
      "city": "Sai Ying Pun",
      "state": "Hong Kong Island",
      "postal_code": "",
      "coordinates": {
        "latitude": "22.2864",
        "longitude": "114.1386"
      },
      "timezone": {
        "offset": "+08:00",
        "description": "Asia/Hong_Kong"
      },
      "avatar_url": "https://api.dicebear.com/8.x/thumbs/svg?seed=EmilyCheung"
    },
    {
      "name": "Jason Ho",
      "gender": "Male",
      "phone_number": "+852 9567 8901",
      "street_address": "34 Castle Peak Road",
      "street_name": "Castle Peak Road",
      "building_number": "34",
      "city": "Tsuen Wan",
      "state": "New Territories",
      "postal_code": "",
      "coordinates": {
        "latitude": "22.3704",
        "longitude": "114.1095"
      },
      "timezone": {
        "offset": "+08:00",
        "description": "Asia/Hong_Kong"
      },
      "avatar_url": "https://api.dicebear.com/8.x/thumbs/svg?seed=JasonHo"
    },
    {
      "name": "Carmen Lau",
      "gender": "Female",
      "phone_number": "+852 9678 9012",
      "street_address": "56 Gloucester Road",
      "street_name": "Gloucester Road",
      "building_number": "56",
      "city": "Wan Chai",
      "state": "Hong Kong Island",
      "postal_code": "",
      "coordinates": {
        "latitude": "22.2792",
        "longitude": "114.1702"
      },
      "timezone": {
        "offset": "+08:00",
        "description": "Asia/Hong_Kong"
      },
      "avatar_url": "https://api.dicebear.com/8.x/thumbs/svg?seed=CarmenLau"
    },
    {
      "name": "Alan Cheng",
      "gender": "Male",
      "phone_number": "+852 9789 0123",
      "street_address": "88 Argyle Street",
      "street_name": "Argyle Street",
      "building_number": "88",
      "city": "Mong Kok",
      "state": "Kowloon",
      "postal_code": "",
      "coordinates": {
        "latitude": "22.3200",
        "longitude": "114.1694"
      },
      "timezone": {
        "offset": "+08:00",
        "description": "Asia/Hong_Kong"
      },
      "avatar_url": "https://api.dicebear.com/8.x/thumbs/svg?seed=AlanCheng"
    },
    {
      "name": "Rachel Ng",
      "gender": "Female",
      "phone_number": "+852 9890 1234",
      "street_address": "67 Queen's Road East",
      "street_name": "Queen's Road East",
      "building_number": "67",
      "city": "Wan Chai",
      "state": "Hong Kong Island",
      "postal_code": "",
      "coordinates": {
        "latitude": "22.2775",
        "longitude": "114.1825"
      },
      "timezone": {
        "offset": "+08:00",
        "description": "Asia/Hong_Kong"
      },
      "avatar_url": "https://api.dicebear.com/8.x/thumbs/svg?seed=RachelNg"
    },
    {
      "name": "Brian Yip",
      "gender": "Male",
      "phone_number": "+852 9012 2345",
      "street_address": "21 Sha Tsui Road",
      "street_name": "Sha Tsui Road",
      "building_number": "21",
      "city": "Tsuen Wan",
      "state": "New Territories",
      "postal_code": "",
      "coordinates": {
        "latitude": "22.3741",
        "longitude": "114.1091"
      },
      "timezone": {
        "offset": "+08:00",
        "description": "Asia/Hong_Kong"
      },
      "avatar_url": "https://api.dicebear.com/8.x/thumbs/svg?seed=BrianYip"
    },
    {
      "name": "Natalie Fong",
      "gender": "Female",
      "phone_number": "+852 9123 3456",
      "street_address": "150 Des Voeux Road Central",
      "street_name": "Des Voeux Road Central",
      "building_number": "150",
      "city": "Sheung Wan",
      "state": "Hong Kong Island",
      "postal_code": "",
      "coordinates": {
        "latitude": "22.2855",
        "longitude": "114.1505"
      },
      "timezone": {
        "offset": "+08:00",
        "description": "Asia/Hong_Kong"
      },
      "avatar_url": "https://api.dicebear.com/8.x/thumbs/svg?seed=NatalieFong"
    }
  ]
}