{
  "meta": {
    "country": "Myanmar",
    "country_code": "MM",
    "currency": "MMK",
    "country_flag": "ðŸ‡²ðŸ‡²"
  },
  "addresses": [
    {
      "name": "Ko Zaw Min",
      "gender": "Male",
      "phone_number": "+95 9 420 123 456",
      "street_address": "123 Pyay Road",
      "street_name": "Pyay Road",
      "building_number": "123",
      "city": "Yangon",
      "state": "Yangon Region",
      "postal_code": "11191",
      "coordinates": {
        "latitude": "16.8209",
        "longitude": "96.1526"
      },
      "timezone": {
        "offset": "+06:30",
        "description": "Asia/Yangon"
      },
      "avatar_url": "https://api.dicebear.com/8.x/thumbs/svg?seed=KoZawMin"
    },
    {
      "name": "Daw May Thandar",
      "gender": "Female",
      "phone_number": "+95 9 450 987 654",
      "street_address": "45 University Avenue",
      "street_name": "University Avenue",
      "building_number": "45",
      "city": "Yangon",
      "state": "Yangon Region",
      "postal_code": "11181",
      "coordinates": {
        "latitude": "16.8210",
        "longitude": "96.1525"
      },
      "timezone": {
        "offset": "+06:30",
        "description": "Asia/Yangon"
      },
      "avatar_url": "https://api.dicebear.com/8.x/thumbs/svg?seed=DawMayThandar"
    },
    {
      "name": "Ko Aung Ko",
      "gender": "Male",
      "phone_number": "+95 9 421 678 901",
      "street_address": "78 Strand Road",
      "street_name": "Strand Road",
      "building_number": "78",
      "city": "Mandalay",
      "state": "Mandalay Region",
      "postal_code": "05071",
      "coordinates": {
        "latitude": "21.9740",
        "longitude": "96.0840"
      },
      "timezone": {
        "offset": "+06:30",
        "description": "Asia/Yangon"
      },
      "avatar_url": "https://api.dicebear.com/8.x/thumbs/svg?seed=KoAungKo"
    },
    {
      "name": "Daw Nyein Chan",
      "gender": "Female",
      "phone_number": "+95 9 430 345 678",
      "street_address": "101 Bogyoke Aung San Road",
      "street_name": "Bogyoke Aung San Road",
      "building_number": "101",
      "city": "Naypyidaw",
      "state": "Naypyidaw Union Territory",
      "postal_code": "15011",
      "coordinates": {
        "latitude": "19.7633",
        "longitude": "96.0785"
      },
      "timezone": {
        "offset": "+06:30",
        "description": "Asia/Yangon"
      },
      "avatar_url": "https://api.dicebear.com/8.x/thumbs/svg?seed=DawNyeinChan"
    },
    {
      "name": "Ko Thura Aung",
      "gender": "Male",
      "phone_number": "+95 9 440 876 543",
      "street_address": "34 Mahabandoola Road",
      "street_name": "Mahabandoola Road",
      "building_number": "34",
      "city": "Yangon",
      "state": "Yangon Region",
      "postal_code": "11161",
      "coordinates": {
        "latitude": "16.8220",
        "longitude": "96.1530"
      },
      "timezone": {
        "offset": "+06:30",
        "description": "Asia/Yangon"
      },
      "avatar_url": "https://api.dicebear.com/8.x/thumbs/svg?seed=KoThuraAung"
    },
    {
      "name": "Daw Su Mon",
      "gender": "Female",
      "phone_number": "+95 9 450 765 432",
      "street_address": "65 Insein Road",
      "street_name": "Insein Road",
      "building_number": "65",
      "city": "Yangon",
      "state": "Yangon Region",
      "postal_code": "11011",
      "coordinates": {
        "latitude": "16.8433",
        "longitude": "96.1169"
      },
      "timezone": {
        "offset": "+06:30",
        "description": "Asia/Yangon"
      },
      "avatar_url": "https://api.dicebear.com/8.x/thumbs/svg?seed=DawSuMon"
    },
    {
      "name": "Ko Kyaw Win",
      "gender": "Male",
      "phone_number": "+95 9 431 234 567",
      "street_address": "88 35th Street",
      "street_name": "35th Street",
      "building_number": "88",
      "city": "Mandalay",
      "state": "Mandalay Region",
      "postal_code": "05072",
      "coordinates": {
        "latitude": "21.9750",
        "longitude": "96.0850"
      },
      "timezone": {
        "offset": "+06:30",
        "description": "Asia/Yangon"
      },
      "avatar_url": "https://api.dicebear.com/8.x/thumbs/svg?seed=KoKyawWin"
    },
    {
      "name": "Daw Hnin Ei Ei",
      "gender": "Female",
      "phone_number": "+95 9 423 456 789",
      "street_address": "12 Bo Aung Kyaw Street",
      "street_name": "Bo Aung Kyaw Street",
      "building_number": "12",
      "city": "Yangon",
      "state": "Yangon Region",
      "postal_code": "11171",
      "coordinates": {
        "latitude": "16.8230",
        "longitude": "96.1540"
      },
      "timezone": {
        "offset": "+06:30",
        "description": "Asia/Yangon"
      },
      "avatar_url": "https://api.dicebear.com/8.x/thumbs/svg?seed=DawHninEiEi"
    },
    {
      "name": "Ko Min Lwin",
      "gender": "Male",
      "phone_number": "+95 9 410 112 233",
      "street_address": "54 Anawrahta Road",
      "street_name": "Anawrahta Road",
      "building_number": "54",
      "city": "Yangon",
      "state": "Yangon Region",
      "postal_code": "11151",
      "coordinates": {
        "latitude": "16.8190",
        "longitude": "96.1510"
      },
      "timezone": {
        "offset": "+06:30",
        "description": "Asia/Yangon"
      },
      "avatar_url": "https://api.dicebear.com/8.x/thumbs/svg?seed=KoMinLwin"
    },
    {
      "name": "Daw Ei Mon",
      "gender": "Female",
      "phone_number": "+95 9 446 332 211",
      "street_address": "77 U Wisara Road",
      "street_name": "U Wisara Road",
      "building_number": "77",
      "city": "Yangon",
      "state": "Yangon Region",
      "postal_code": "11141",
      "coordinates": {
        "latitude": "16.8225",
        "longitude": "96.1520"
      },
      "timezone": {
        "offset": "+06:30",
        "description": "Asia/Yangon"
      },
      "avatar_url": "https://api.dicebear.com/8.x/thumbs/svg?seed=DawEiMon"
    }
  ]
}