{
  "meta": {
    "country": "New Zealand",
    "country_code": "NZ",
    "currency": "NZD",
    "country_flag": "ðŸ‡³ðŸ‡¿"
  },
  "addresses": [
    {
      "name": "Oliver Smith",
      "gender": "Male",
      "phone_number": "+64 21 123 4567",
      "street_address": "123 Queen Street",
      "street_name": "Queen Street",
      "building_number": "123",
      "city": "Auckland",
      "state": "Auckland",
      "postal_code": "1010",
      "coordinates": {
        "latitude": "-36.8485",
        "longitude": "174.7633"
      },
      "timezone": {
        "offset": "+12:00",
        "description": "New Zealand Standard Time"
      },
      "avatar_url": "https://api.dicebear.com/8.x/thumbs/svg?seed=OliverSmith"
    },
    {
      "name": "Emily Johnson",
      "gender": "Female",
      "phone_number": "+64 22 987 6543",
      "street_address": "456 Lambton Quay",
      "street_name": "Lambton Quay",
      "building_number": "456",
      "city": "Wellington",
      "state": "Wellington",
      "postal_code": "6011",
      "coordinates": {
        "latitude": "-41.2865",
        "longitude": "174.7762"
      },
      "timezone": {
        "offset": "+12:00",
        "description": "New Zealand Standard Time"
      },
      "avatar_url": "https://api.dicebear.com/8.x/thumbs/svg?seed=EmilyJohnson"
    },
    {
      "name": "James Wilson",
      "gender": "Male",
      "phone_number": "+64 27 111 2233",
      "street_address": "789 Colombo Street",
      "street_name": "Colombo Street",
      "building_number": "789",
      "city": "Christchurch",
      "state": "Canterbury",
      "postal_code": "8011",
      "coordinates": {
        "latitude": "-43.5321",
        "longitude": "172.6362"
      },
      "timezone": {
        "offset": "+12:00",
        "description": "New Zealand Standard Time"
      },
      "avatar_url": "https://api.dicebear.com/8.x/thumbs/svg?seed=JamesWilson"
    },
    {
      "name": "Sophie Davis",
      "gender": "Female",
      "phone_number": "+64 21 222 3344",
      "street_address": "101 Princes Street",
      "street_name": "Princes Street",
      "building_number": "101",
      "city": "Dunedin",
      "state": "Otago",
      "postal_code": "9016",
      "coordinates": {
        "latitude": "-45.8742",
        "longitude": "170.5036"
      },
      "timezone": {
        "offset": "+12:00",
        "description": "New Zealand Standard Time"
      },
      "avatar_url": "https://api.dicebear.com/8.x/thumbs/svg?seed=SophieDavis"
    },
    {
      "name": "Liam Martin",
      "gender": "Male",
      "phone_number": "+64 29 555 6677",
      "street_address": "34 Devonport Road",
      "street_name": "Devonport Road",
      "building_number": "34",
      "city": "Tauranga",
      "state": "Bay of Plenty",
      "postal_code": "3110",
      "coordinates": {
        "latitude": "-37.6878",
        "longitude": "176.1651"
      },
      "timezone": {
        "offset": "+12:00",
        "description": "New Zealand Standard Time"
      },
      "avatar_url": "https://api.dicebear.com/8.x/thumbs/svg?seed=LiamMartin"
    },
    {
      "name": "Ava Walker",
      "gender": "Female",
      "phone_number": "+64 20 888 9999",
      "street_address": "77 Marine Parade",
      "street_name": "Marine Parade",
      "building_number": "77",
      "city": "Napier",
      "state": "Hawke's Bay",
      "postal_code": "4110",
      "coordinates": {
        "latitude": "-39.4928",
        "longitude": "176.9120"
      },
      "timezone": {
        "offset": "+12:00",
        "description": "New Zealand Standard Time"
      },
      "avatar_url": "https://api.dicebear.com/8.x/thumbs/svg?seed=AvaWalker"
    },
    {
      "name": "Noah Thompson",
      "gender": "Male",
      "phone_number": "+64 27 333 2211",
      "street_address": "89 Victoria Avenue",
      "street_name": "Victoria Avenue",
      "building_number": "89",
      "city": "Whanganui",
      "state": "Manawatu-Whanganui",
      "postal_code": "4500",
      "coordinates": {
        "latitude": "-39.9316",
        "longitude": "175.0491"
      },
      "timezone": {
        "offset": "+12:00",
        "description": "New Zealand Standard Time"
      },
      "avatar_url": "https://api.dicebear.com/8.x/thumbs/svg?seed=NoahThompson"
    },
    {
      "name": "Isabella Moore",
      "gender": "Female",
      "phone_number": "+64 22 456 7890",
      "street_address": "22 Esk Street",
      "street_name": "Esk Street",
      "building_number": "22",
      "city": "Invercargill",
      "state": "Southland",
      "postal_code": "9810",
      "coordinates": {
        "latitude": "-46.4132",
        "longitude": "168.3538"
      },
      "timezone": {
        "offset": "+12:00",
        "description": "New Zealand Standard Time"
      },
      "avatar_url": "https://api.dicebear.com/8.x/thumbs/svg?seed=IsabellaMoore"
    },
    {
      "name": "Ethan Brown",
      "gender": "Male",
      "phone_number": "+64 21 666 7777",
      "street_address": "12 Victoria Street",
      "street_name": "Victoria Street",
      "building_number": "12",
      "city": "Hamilton",
      "state": "Waikato",
      "postal_code": "3204",
      "coordinates": {
        "latitude": "-37.7870",
        "longitude": "175.2793"
      },
      "timezone": {
        "offset": "+12:00",
        "description": "New Zealand Standard Time"
      },
      "avatar_url": "https://api.dicebear.com/8.x/thumbs/svg?seed=EthanBrown"
    },
    {
      "name": "Charlotte Taylor",
      "gender": "Female",
      "phone_number": "+64 29 111 8888",
      "street_address": "66 Cameron Road",
      "street_name": "Cameron Road",
      "building_number": "66",
      "city": "Tauranga",
      "state": "Bay of Plenty",
      "postal_code": "3112",
      "coordinates": {
        "latitude": "-37.6878",
        "longitude": "176.1651"
      },
      "timezone": {
        "offset": "+12:00",
        "description": "New Zealand Standard Time"
      },
      "avatar_url": "https://api.dicebear.com/8.x/thumbs/svg?seed=CharlotteTaylor"
    }
  ]
}