{
  "meta": {
    "country": "United Arab Emirates",
    "country_code": "AE",
    "country_flag": "ðŸ‡¦ðŸ‡ª",
    "currency": "AED"
  },
  "addresses": [
    {
      "name": "Omar Al Farsi",
      "gender": "Male",
      "phone_number": "+971 50 123 4567",
      "street_address": "123 Sheikh Zayed Road",
      "street_name": "Sheikh Zayed Road",
      "building_number": "123",
      "city": "Dubai",
      "state": "Dubai",
      "postal_code": "00000",
      "coordinates": {
        "latitude": "25.2048",
        "longitude": "55.2708"
      },
      "timezone": {
        "offset": "+04:00",
        "description": "Asia/Dubai"
      },
      "avatar_url": "https://api.dicebear.com/8.x/thumbs/svg?seed=OmarAlFarsi"
    },
    {
      "name": "Aisha Al Mansoori",
      "gender": "Female",
      "phone_number": "+971 52 987 6543",
      "street_address": "45 Abu Dhabi Corniche",
      "street_name": "Abu Dhabi Corniche",
      "building_number": "45",
      "city": "Abu Dhabi",
      "state": "Abu Dhabi",
      "postal_code": "00000",
      "coordinates": {
        "latitude": "24.4539",
        "longitude": "54.3773"
      },
      "timezone": {
        "offset": "+04:00",
        "description": "Asia/Dubai"
      },
      "avatar_url": "https://api.dicebear.com/8.x/thumbs/svg?seed=AishaAlMansoori"
    },
    {
      "name": "Salim Al Rashed",
      "gender": "Male",
      "phone_number": "+971 55 765 4321",
      "street_address": "78 Al Majaz Street",
      "street_name": "Al Majaz Street",
      "building_number": "78",
      "city": "Sharjah",
      "state": "Sharjah",
      "postal_code": "00000",
      "coordinates": {
        "latitude": "25.3463",
        "longitude": "55.4209"
      },
      "timezone": {
        "offset": "+04:00",
        "description": "Asia/Dubai"
      },
      "avatar_url": "https://api.dicebear.com/8.x/thumbs/svg?seed=SalimAlRashed"
    },
    {
      "name": "Noora Al Suwaidi",
      "gender": "Female",
      "phone_number": "+971 56 345 6789",
      "street_address": "101 Al Qasimi Street",
      "street_name": "Al Qasimi Street",
      "building_number": "101",
      "city": "Ajman",
      "state": "Ajman",
      "postal_code": "00000",
      "coordinates": {
        "latitude": "25.4052",
        "longitude": "55.5136"
      },
      "timezone": {
        "offset": "+04:00",
        "description": "Asia/Dubai"
      },
      "avatar_url": "https://api.dicebear.com/8.x/thumbs/svg?seed=NooraAlSuwaidi"
    },
    {
      "name": "Mohammed Al Marri",
      "gender": "Male",
      "phone_number": "+971 58 210 3344",
      "street_address": "34 Fujairah Street",
      "street_name": "Fujairah Street",
      "building_number": "34",
      "city": "Fujairah",
      "state": "Fujairah",
      "postal_code": "00000",
      "coordinates": {
        "latitude": "25.1288",
        "longitude": "56.3265"
      },
      "timezone": {
        "offset": "+04:00",
        "description": "Asia/Dubai"
      },
      "avatar_url": "https://api.dicebear.com/8.x/thumbs/svg?seed=MohammedAlMarri"
    },
    {
      "name": "Fatima Al Kaabi",
      "gender": "Female",
      "phone_number": "+971 54 998 1122",
      "street_address": "76 Marina Walk",
      "street_name": "Marina Walk",
      "building_number": "76",
      "city": "Dubai",
      "state": "Dubai",
      "postal_code": "00000",
      "coordinates": {
        "latitude": "25.2048",
        "longitude": "55.2708"
      },
      "timezone": {
        "offset": "+04:00",
        "description": "Asia/Dubai"
      },
      "avatar_url": "https://api.dicebear.com/8.x/thumbs/svg?seed=FatimaAlKaabi"
    },
    {
      "name": "Khalid Al Nuaimi",
      "gender": "Male",
      "phone_number": "+971 50 334 5566",
      "street_address": "88 Reem Island Road",
      "street_name": "Reem Island Road",
      "building_number": "88",
      "city": "Abu Dhabi",
      "state": "Abu Dhabi",
      "postal_code": "00000",
      "coordinates": {
        "latitude": "24.4539",
        "longitude": "54.3773"
      },
      "timezone": {
        "offset": "+04:00",
        "description": "Asia/Dubai"
      },
      "avatar_url": "https://api.dicebear.com/8.x/thumbs/svg?seed=KhalidAlNuaimi"
    },
    {
      "name": "Layla Al Hammadi",
      "gender": "Female",
      "phone_number": "+971 56 777 8888",
      "street_address": "99 Buhairah Corniche",
      "street_name": "Buhairah Corniche",
      "building_number": "99",
      "city": "Sharjah",
      "state": "Sharjah",
      "postal_code": "00000",
      "coordinates": {
        "latitude": "25.3463",
        "longitude": "55.4209"
      },
      "timezone": {
        "offset": "+04:00",
        "description": "Asia/Dubai"
      },
      "avatar_url": "https://api.dicebear.com/8.x/thumbs/svg?seed=LaylaAlHammadi"
    },
    {
      "name": "Yousef Al Mazrouei",
      "gender": "Male",
      "phone_number": "+971 52 123 9876",
      "street_address": "11 Rashid Bin Humaid Street",
      "street_name": "Rashid Bin Humaid Street",
      "building_number": "11",
      "city": "Ajman",
      "state": "Ajman",
      "postal_code": "00000",
      "coordinates": {
        "latitude": "25.4052",
        "longitude": "55.5136"
      },
      "timezone": {
        "offset": "+04:00",
        "description": "Asia/Dubai"
      },
      "avatar_url": "https://api.dicebear.com/8.x/thumbs/svg?seed=YousefAlMazrouei"
    },
    {
      "name": "Mariam Al Sharqi",
      "gender": "Female",
      "phone_number": "+971 55 432 1098",
      "street_address": "66 Khalifa Bin Zayed Street",
      "street_name": "Khalifa Bin Zayed Street",
      "building_number": "66",
      "city": "Al Ain",
      "state": "Abu Dhabi",
      "postal_code": "00000",
      "coordinates": {
        "latitude": "24.1302",
        "longitude": "55.8023"
      },
      "timezone": {
        "offset": "+04:00",
        "description": "Asia/Dubai"
      },
      "avatar_url": "https://api.dicebear.com/8.x/thumbs/svg?seed=MariamAlSharqi"
    }
  ]
}