{
  "meta": {
    "country": "Brazil",
    "country_code": "BR",
    "currency": "BRL",
    "country_flag": "üáßüá∑"
  },
  "addresses": [
    {
      "name": "Carlos da Silva",
      "gender": "Male",
      "phone_number": "+55 11 91234-5678",
      "street_address": "Avenida Paulista 1000",
      "street_name": "Avenida Paulista",
      "building_number": "1000",
      "city": "S√£o Paulo",
      "state": "S√£o Paulo",
      "postal_code": "01310-100",
      "coordinates": {
        "latitude": "-23.5617",
        "longitude": "-46.6560"
      },
      "timezone": {
        "offset": "-03:00",
        "description": "America/Sao_Paulo"
      },
      "avatar_url": "https://api.dicebear.com/8.x/thumbs/svg?seed=CarlosdaSilva"
    },
    {
      "name": "Mariana Oliveira",
      "gender": "Female",
      "phone_number": "+55 11 99876-5432",
      "street_address": "Rua Oscar Freire 200",
      "street_name": "Rua Oscar Freire",
      "building_number": "200",
      "city": "S√£o Paulo",
      "state": "S√£o Paulo",
      "postal_code": "01426-001",
      "coordinates": {
        "latitude": "-23.5562",
        "longitude": "-46.6654"
      },
      "timezone": {
        "offset": "-03:00",
        "description": "America/Sao_Paulo"
      },
      "avatar_url": "https://api.dicebear.com/8.x/thumbs/svg?seed=MarianaOliveira"
    },
    {
      "name": "Jo√£o Souza",
      "gender": "Male",
      "phone_number": "+55 21 98765-4321",
      "street_address": "Avenida Atl√¢ntica 1702",
      "street_name": "Avenida Atl√¢ntica",
      "building_number": "1702",
      "city": "Rio de Janeiro",
      "state": "Rio de Janeiro",
      "postal_code": "22021-001",
      "coordinates": {
        "latitude": "-22.9711",
        "longitude": "-43.1822"
      },
      "timezone": {
        "offset": "-03:00",
        "description": "America/Sao_Paulo"
      },
      "avatar_url": "https://api.dicebear.com/8.x/thumbs/svg?seed=JoaoSouza"
    },
    {
      "name": "Camila Rocha",
      "gender": "Female",
      "phone_number": "+55 31 99812-3456",
      "street_address": "Rua Gon√ßalves Dias 30",
      "street_name": "Rua Gon√ßalves Dias",
      "building_number": "30",
      "city": "Belo Horizonte",
      "state": "Minas Gerais",
      "postal_code": "30140-090",
      "coordinates": {
        "latitude": "-19.9245",
        "longitude": "-43.9352"
      },
      "timezone": {
        "offset": "-03:00",
        "description": "America/Sao_Paulo"
      },
      "avatar_url": "https://api.dicebear.com/8.x/thumbs/svg?seed=CamilaRocha"
    },
    {
      "name": "Felipe Fernandes",
      "gender": "Male",
      "phone_number": "+55 51 99123-4567",
      "street_address": "Avenida Borges de Medeiros 150",
      "street_name": "Avenida Borges de Medeiros",
      "building_number": "150",
      "city": "Porto Alegre",
      "state": "Rio Grande do Sul",
      "postal_code": "90020-022",
      "coordinates": {
        "latitude": "-30.0323",
        "longitude": "-51.2306"
      },
      "timezone": {
        "offset": "-03:00",
        "description": "America/Sao_Paulo"
      },
      "avatar_url": "https://api.dicebear.com/8.x/thumbs/svg?seed=FelipeFernandes"
    },
    {
      "name": "Isabela Costa",
      "gender": "Female",
      "phone_number": "+55 11 93456-7890",
      "street_address": "Rua Augusta 500",
      "street_name": "Rua Augusta",
      "building_number": "500",
      "city": "S√£o Paulo",
      "state": "S√£o Paulo",
      "postal_code": "01305-000",
      "coordinates": {
        "latitude": "-23.5530",
        "longitude": "-46.6544"
      },
      "timezone": {
        "offset": "-03:00",
        "description": "America/Sao_Paulo"
      },
      "avatar_url": "https://api.dicebear.com/8.x/thumbs/svg?seed=IsabelaCosta"
    },
    {
      "name": "Mateus Lima",
      "gender": "Male",
      "phone_number": "+55 21 94567-1234",
      "street_address": "Rua do Catete 300",
      "street_name": "Rua do Catete",
      "building_number": "300",
      "city": "Rio de Janeiro",
      "state": "Rio de Janeiro",
      "postal_code": "22220-000",
      "coordinates": {
        "latitude": "-22.9145",
        "longitude": "-43.1771"
      },
      "timezone": {
        "offset": "-03:00",
        "description": "America/Sao_Paulo"
      },
      "avatar_url": "https://api.dicebear.com/8.x/thumbs/svg?seed=MateusLima"
    },
    {
      "name": "Laura Almeida",
      "gender": "Female",
      "phone_number": "+55 71 91234-5678",
      "street_address": "Avenida Sete de Setembro 850",
      "street_name": "Avenida Sete de Setembro",
      "building_number": "850",
      "city": "Salvador",
      "state": "Bahia",
      "postal_code": "40060-001",
      "coordinates": {
        "latitude": "-12.9760",
        "longitude": "-38.5108"
      },
      "timezone": {
        "offset": "-03:00",
        "description": "America/Bahia"
      },
      "avatar_url": "https://api.dicebear.com/8.x/thumbs/svg?seed=LauraAlmeida"
    },
    {
      "name": "Gabriel Ribeiro",
      "gender": "Male",
      "phone_number": "+55 41 99876-1234",
      "street_address": "Rua XV de Novembro 300",
      "street_name": "Rua XV de Novembro",
      "building_number": "300",
      "city": "Curitiba",
      "state": "Paran√°",
      "postal_code": "80020-310",
      "coordinates": {
        "latitude": "-25.4294",
        "longitude": "-49.2719"
      },
      "timezone": {
        "offset": "-03:00",
        "description": "America/Sao_Paulo"
      },
      "avatar_url": "https://api.dicebear.com/8.x/thumbs/svg?seed=GabrielRibeiro"
    },
    {
      "name": "Beatriz Nunes",
      "gender": "Female",
      "phone_number": "+55 84 99765-4321",
      "street_address": "Avenida Hermes da Fonseca 1120",
      "street_name": "Avenida Hermes da Fonseca",
      "building_number": "1120",
      "city": "Natal",
      "state": "Rio Grande do Norte",
      "postal_code": "59022-170",
      "coordinates": {
        "latitude": "-5.7950",
        "longitude": "-35.2089"
      },
      "timezone": {
        "offset": "-03:00",
        "description": "America/Fortaleza"
      },
      "avatar_url": "https://api.dicebear.com/8.x/thumbs/svg?seed=BeatrizNunes"
    }
  ]
}