{
  "meta": {
    "country": "Egypt",
    "country_code": "EG",
    "currency": "EGP",
    "country_flag": "ðŸ‡ªðŸ‡¬"
  },
  "addresses": [
    {
      "name": "Ahmed El Sayed",
      "gender": "Male",
      "phone_number": "+20 100 123 4567",
      "street_address": "123 Nile Corniche",
      "street_name": "Nile Corniche",
      "building_number": "123",
      "city": "Cairo",
      "state": "Cairo Governorate",
      "postal_code": "11511",
      "coordinates": {
        "latitude": "30.0444",
        "longitude": "31.2357"
      },
      "timezone": {
        "offset": "+02:00",
        "description": "Africa/Cairo"
      },
      "avatar_url": "https://api.dicebear.com/8.x/thumbs/svg?seed=AhmedElSayed"
    },
    {
      "name": "Fatma Hassan",
      "gender": "Female",
      "phone_number": "+20 101 234 5678",
      "street_address": "456 Pyramids Road",
      "street_name": "Pyramids Road",
      "building_number": "456",
      "city": "Giza",
      "state": "Giza Governorate",
      "postal_code": "12511",
      "coordinates": {
        "latitude": "29.9870",
        "longitude": "31.2118"
      },
      "timezone": {
        "offset": "+02:00",
        "description": "Africa/Cairo"
      },
      "avatar_url": "https://api.dicebear.com/8.x/thumbs/svg?seed=FatmaHassan"
    },
    {
      "name": "Mohamed Tarek",
      "gender": "Male",
      "phone_number": "+20 102 345 6789",
      "street_address": "789 Alexandria Street",
      "street_name": "Alexandria Street",
      "building_number": "789",
      "city": "Alexandria",
      "state": "Alexandria Governorate",
      "postal_code": "21511",
      "coordinates": {
        "latitude": "31.2001",
        "longitude": "29.9187"
      },
      "timezone": {
        "offset": "+02:00",
        "description": "Africa/Cairo"
      },
      "avatar_url": "https://api.dicebear.com/8.x/thumbs/svg?seed=MohamedTarek"
    },
    {
      "name": "Salma Nabil",
      "gender": "Female",
      "phone_number": "+20 103 456 7890",
      "street_address": "101 Luxor Avenue",
      "street_name": "Luxor Avenue",
      "building_number": "101",
      "city": "Luxor",
      "state": "Luxor Governorate",
      "postal_code": "85511",
      "coordinates": {
        "latitude": "25.6872",
        "longitude": "32.6396"
      },
      "timezone": {
        "offset": "+02:00",
        "description": "Africa/Cairo"
      },
      "avatar_url": "https://api.dicebear.com/8.x/thumbs/svg?seed=SalmaNabil"
    },
    {
      "name": "Omar Mahmoud",
      "gender": "Male",
      "phone_number": "+20 104 567 8901",
      "street_address": "34 Suez Canal Road",
      "street_name": "Suez Canal Road",
      "building_number": "34",
      "city": "Suez",
      "state": "Suez Governorate",
      "postal_code": "43511",
      "coordinates": {
        "latitude": "29.9668",
        "longitude": "32.5498"
      },
      "timezone": {
        "offset": "+02:00",
        "description": "Africa/Cairo"
      },
      "avatar_url": "https://api.dicebear.com/8.x/thumbs/svg?seed=OmarMahmoud"
    },
    {
      "name": "Hana Mostafa",
      "gender": "Female",
      "phone_number": "+20 105 678 9012",
      "street_address": "55 Tahrir Square",
      "street_name": "Tahrir Square",
      "building_number": "55",
      "city": "Cairo",
      "state": "Cairo Governorate",
      "postal_code": "11512",
      "coordinates": {
        "latitude": "30.0444",
        "longitude": "31.2357"
      },
      "timezone": {
        "offset": "+02:00",
        "description": "Africa/Cairo"
      },
      "avatar_url": "https://api.dicebear.com/8.x/thumbs/svg?seed=HanaMostafa"
    },
    {
      "name": "Karim Hossam",
      "gender": "Male",
      "phone_number": "+20 106 789 0123",
      "street_address": "22 Al Haram Street",
      "street_name": "Al Haram Street",
      "building_number": "22",
      "city": "Giza",
      "state": "Giza Governorate",
      "postal_code": "12512",
      "coordinates": {
        "latitude": "29.9870",
        "longitude": "31.2118"
      },
      "timezone": {
        "offset": "+02:00",
        "description": "Africa/Cairo"
      },
      "avatar_url": "https://api.dicebear.com/8.x/thumbs/svg?seed=KarimHossam"
    },
    {
      "name": "Nourhan Adel",
      "gender": "Female",
      "phone_number": "+20 107 890 1234",
      "street_address": "88 Corniche El Nil",
      "street_name": "Corniche El Nil",
      "building_number": "88",
      "city": "Aswan",
      "state": "Aswan Governorate",
      "postal_code": "81511",
      "coordinates": {
        "latitude": "24.0889",
        "longitude": "32.8998"
      },
      "timezone": {
        "offset": "+02:00",
        "description": "Africa/Cairo"
      },
      "avatar_url": "https://api.dicebear.com/8.x/thumbs/svg?seed=NourhanAdel"
    },
    {
      "name": "Tamer El Maghraby",
      "gender": "Male",
      "phone_number": "+20 108 901 2345",
      "street_address": "17 Port Said Street",
      "street_name": "Port Said Street",
      "building_number": "17",
      "city": "Port Said",
      "state": "Port Said Governorate",
      "postal_code": "42511",
      "coordinates": {
        "latitude": "31.2653",
        "longitude": "32.3019"
      },
      "timezone": {
        "offset": "+02:00",
        "description": "Africa/Cairo"
      },
      "avatar_url": "https://api.dicebear.com/8.x/thumbs/svg?seed=TamerElMaghraby"
    },
    {
      "name": "Laila Ibrahim",
      "gender": "Female",
      "phone_number": "+20 109 012 3456",
      "street_address": "66 Ismailia Road",
      "street_name": "Ismailia Road",
      "building_number": "66",
      "city": "Ismailia",
      "state": "Ismailia Governorate",
      "postal_code": "41511",
      "coordinates": {
        "latitude": "30.5852",
        "longitude": "32.2654"
      },
      "timezone": {
        "offset": "+02:00",
        "description": "Africa/Cairo"
      },
      "avatar_url": "https://api.dicebear.com/8.x/thumbs/svg?seed=LailaIbrahim"
    }
  ]
}