{
  "meta": {
    "country": "Spain",
    "country_code": "ES",
    "currency": "EUR",
    "country_flag": "üá™üá∏"
  },
  "addresses": [
    {
      "name": "Carlos Mart√≠n",
      "gender": "Male",
      "phone_number": "+34 612 345 678",
      "street_address": "123 La Rambla",
      "street_name": "La Rambla",
      "building_number": "123",
      "city": "Barcelona",
      "state": "Catalonia",
      "postal_code": "08002",
      "coordinates": {
        "latitude": "41.3809",
        "longitude": "2.1735"
      },
      "timezone": {
        "offset": "+01:00",
        "description": "Europe/Madrid"
      },
      "avatar_url": "https://api.dicebear.com/8.x/thumbs/svg?seed=CarlosMart√≠n"
    },
    {
      "name": "Luc√≠a Romero",
      "gender": "Female",
      "phone_number": "+34 634 987 654",
      "street_address": "456 Gran V√≠a",
      "street_name": "Gran V√≠a",
      "building_number": "456",
      "city": "Madrid",
      "state": "Madrid",
      "postal_code": "28013",
      "coordinates": {
        "latitude": "40.4200",
        "longitude": "-3.7058"
      },
      "timezone": {
        "offset": "+01:00",
        "description": "Europe/Madrid"
      },
      "avatar_url": "https://api.dicebear.com/8.x/thumbs/svg?seed=Luc√≠aRomero"
    },
    {
      "name": "Javier Torres",
      "gender": "Male",
      "phone_number": "+34 622 789 012",
      "street_address": "789 Paseo de Gracia",
      "street_name": "Paseo de Gracia",
      "building_number": "789",
      "city": "Barcelona",
      "state": "Catalonia",
      "postal_code": "08008",
      "coordinates": {
        "latitude": "41.3915",
        "longitude": "2.1649"
      },
      "timezone": {
        "offset": "+01:00",
        "description": "Europe/Madrid"
      },
      "avatar_url": "https://api.dicebear.com/8.x/thumbs/svg?seed=JavierTorres"
    },
    {
      "name": "Elena Navarro",
      "gender": "Female",
      "phone_number": "+34 644 321 890",
      "street_address": "101 Calle de Serrano",
      "street_name": "Calle de Serrano",
      "building_number": "101",
      "city": "Madrid",
      "state": "Madrid",
      "postal_code": "28006",
      "coordinates": {
        "latitude": "40.4350",
        "longitude": "-3.6888"
      },
      "timezone": {
        "offset": "+01:00",
        "description": "Europe/Madrid"
      },
      "avatar_url": "https://api.dicebear.com/8.x/thumbs/svg?seed=ElenaNavarro"
    },
    {
      "name": "Miguel √Ålvarez",
      "gender": "Male",
      "phone_number": "+34 688 210 345",
      "street_address": "34 Calle Larios",
      "street_name": "Calle Larios",
      "building_number": "34",
      "city": "Malaga",
      "state": "Andalusia",
      "postal_code": "29005",
      "coordinates": {
        "latitude": "36.7196",
        "longitude": "-4.4200"
      },
      "timezone": {
        "offset": "+01:00",
        "description": "Europe/Madrid"
      },
      "avatar_url": "https://api.dicebear.com/8.x/thumbs/svg?seed=Miguel√Ålvarez"
    },
    {
      "name": "In√©s Herrera",
      "gender": "Female",
      "phone_number": "+34 690 111 223",
      "street_address": "23 Avenida de la Constituci√≥n",
      "street_name": "Avenida de la Constituci√≥n",
      "building_number": "23",
      "city": "Seville",
      "state": "Andalusia",
      "postal_code": "41004",
      "coordinates": {
        "latitude": "37.3876",
        "longitude": "-5.9869"
      },
      "timezone": {
        "offset": "+01:00",
        "description": "Europe/Madrid"
      },
      "avatar_url": "https://api.dicebear.com/8.x/thumbs/svg?seed=In√©sHerrera"
    },
    {
      "name": "Daniel Ortega",
      "gender": "Male",
      "phone_number": "+34 675 998 321",
      "street_address": "67 Calle Mayor",
      "street_name": "Calle Mayor",
      "building_number": "67",
      "city": "Madrid",
      "state": "Madrid",
      "postal_code": "28013",
      "coordinates": {
        "latitude": "40.4153",
        "longitude": "-3.7074"
      },
      "timezone": {
        "offset": "+01:00",
        "description": "Europe/Madrid"
      },
      "avatar_url": "https://api.dicebear.com/8.x/thumbs/svg?seed=DanielOrtega"
    },
    {
      "name": "Clara Gonz√°lez",
      "gender": "Female",
      "phone_number": "+34 699 342 118",
      "street_address": "89 Rambla Nova",
      "street_name": "Rambla Nova",
      "building_number": "89",
      "city": "Tarragona",
      "state": "Catalonia",
      "postal_code": "43001",
      "coordinates": {
        "latitude": "41.1167",
        "longitude": "1.2500"
      },
      "timezone": {
        "offset": "+01:00",
        "description": "Europe/Madrid"
      },
      "avatar_url": "https://api.dicebear.com/8.x/thumbs/svg?seed=ClaraGonz√°lez"
    },
    {
      "name": "Alberto Ruiz",
      "gender": "Male",
      "phone_number": "+34 678 654 231",
      "street_address": "14 Calle Col√≥n",
      "street_name": "Calle Col√≥n",
      "building_number": "14",
      "city": "Valencia",
      "state": "Valencian Community",
      "postal_code": "46004",
      "coordinates": {
        "latitude": "39.4699",
        "longitude": "-0.3763"
      },
      "timezone": {
        "offset": "+01:00",
        "description": "Europe/Madrid"
      },
      "avatar_url": "https://api.dicebear.com/8.x/thumbs/svg?seed=AlbertoRuiz"
    },
    {
      "name": "Marina L√≥pez",
      "gender": "Female",
      "phone_number": "+34 687 900 456",
      "street_address": "75 Calle Triana",
      "street_name": "Calle Triana",
      "building_number": "75",
      "city": "Las Palmas",
      "state": "Canary Islands",
      "postal_code": "35002",
      "coordinates": {
        "latitude": "28.1235",
        "longitude": "-15.4363"
      },
      "timezone": {
        "offset": "+00:00",
        "description": "Atlantic/Canary"
      },
      "avatar_url": "https://api.dicebear.com/8.x/thumbs/svg?seed=MarinaL√≥pez"
    }
  ]
}