{
  "meta": {
    "country": "Malaysia",
    "country_code": "MY",
    "currency": "MYR",
    "country_flag": "ðŸ‡²ðŸ‡¾"
  },
  "addresses": [
    {
      "name": "Ahmad Faizal",
      "gender": "Male",
      "phone_number": "+60 12-345 6789",
      "street_address": "Jalan Ampang 56",
      "street_name": "Jalan Ampang",
      "building_number": "56",
      "city": "Kuala Lumpur",
      "state": "Federal Territory of Kuala Lumpur",
      "postal_code": "50450",
      "coordinates": {
        "latitude": "3.1390",
        "longitude": "101.6869"
      },
      "timezone": {
        "offset": "+08:00",
        "description": "Malaysia Time"
      },
      "avatar_url": "https://api.dicebear.com/8.x/thumbs/svg?seed=AhmadFaizal"
    },
    {
      "name": "Nur Aisyah",
      "gender": "Female",
      "phone_number": "+60 17-456 7890",
      "street_address": "Lebuh Pantai 88",
      "street_name": "Lebuh Pantai",
      "building_number": "88",
      "city": "George Town",
      "state": "Penang",
      "postal_code": "10300",
      "coordinates": {
        "latitude": "5.4141",
        "longitude": "100.3288"
      },
      "timezone": {
        "offset": "+08:00",
        "description": "Malaysia Time"
      },
      "avatar_url": "https://api.dicebear.com/8.x/thumbs/svg?seed=NurAisyah"
    },
    {
      "name": "Mohd Azlan",
      "gender": "Male",
      "phone_number": "+60 13-567 8901",
      "street_address": "Jalan Tebrau 22",
      "street_name": "Jalan Tebrau",
      "building_number": "22",
      "city": "Johor Bahru",
      "state": "Johor",
      "postal_code": "80000",
      "coordinates": {
        "latitude": "1.4927",
        "longitude": "103.7414"
      },
      "timezone": {
        "offset": "+08:00",
        "description": "Malaysia Time"
      },
      "avatar_url": "https://api.dicebear.com/8.x/thumbs/svg?seed=MohdAzlan"
    },
    {
      "name": "Siti Hajar",
      "gender": "Female",
      "phone_number": "+60 19-678 9012",
      "street_address": "Jalan Tunku Abdul Rahman 10",
      "street_name": "Jalan Tunku Abdul Rahman",
      "building_number": "10",
      "city": "Kota Kinabalu",
      "state": "Sabah",
      "postal_code": "88000",
      "coordinates": {
        "latitude": "5.9804",
        "longitude": "116.0735"
      },
      "timezone": {
        "offset": "+08:00",
        "description": "Malaysia Time"
      },
      "avatar_url": "https://api.dicebear.com/8.x/thumbs/svg?seed=SitiHajar"
    },
    {
      "name": "Lim Wei Jian",
      "gender": "Male",
      "phone_number": "+60 16-234 5678",
      "street_address": "Persiaran Gurney 15A",
      "street_name": "Persiaran Gurney",
      "building_number": "15A",
      "city": "Ipoh",
      "state": "Perak",
      "postal_code": "31400",
      "coordinates": {
        "latitude": "4.5975",
        "longitude": "101.0901"
      },
      "timezone": {
        "offset": "+08:00",
        "description": "Malaysia Time"
      },
      "avatar_url": "https://api.dicebear.com/8.x/thumbs/svg?seed=LimWeiJian"
    },
    {
      "name": "Tan Mei Ling",
      "gender": "Female",
      "phone_number": "+60 14-789 0123",
      "street_address": "Jalan Raja Chulan 77",
      "street_name": "Jalan Raja Chulan",
      "building_number": "77",
      "city": "Kuala Lumpur",
      "state": "Federal Territory of Kuala Lumpur",
      "postal_code": "50200",
      "coordinates": {
        "latitude": "3.1390",
        "longitude": "101.6869"
      },
      "timezone": {
        "offset": "+08:00",
        "description": "Malaysia Time"
      },
      "avatar_url": "https://api.dicebear.com/8.x/thumbs/svg?seed=TanMeiLing"
    },
    {
      "name": "Amirul Hakim",
      "gender": "Male",
      "phone_number": "+60 11-345 6789",
      "street_address": "Jalan Tun Razak 9",
      "street_name": "Jalan Tun Razak",
      "building_number": "9",
      "city": "Shah Alam",
      "state": "Selangor",
      "postal_code": "40000",
      "coordinates": {
        "latitude": "3.0738",
        "longitude": "101.5183"
      },
      "timezone": {
        "offset": "+08:00",
        "description": "Malaysia Time"
      },
      "avatar_url": "https://api.dicebear.com/8.x/thumbs/svg?seed=AmirulHakim"
    },
    {
      "name": "Farah Nadia",
      "gender": "Female",
      "phone_number": "+60 10-567 8901",
      "street_address": "Jalan Bukit Bintang 30",
      "street_name": "Jalan Bukit Bintang",
      "building_number": "30",
      "city": "Kuala Lumpur",
      "state": "Federal Territory of Kuala Lumpur",
      "postal_code": "55100",
      "coordinates": {
        "latitude": "3.1390",
        "longitude": "101.6869"
      },
      "timezone": {
        "offset": "+08:00",
        "description": "Malaysia Time"
      },
      "avatar_url": "https://api.dicebear.com/8.x/thumbs/svg?seed=FarahNadia"
    },
    {
      "name": "Hafiz Roslan",
      "gender": "Male",
      "phone_number": "+60 12-876 5432",
      "street_address": "Jalan Sultan Ismail 88",
      "street_name": "Jalan Sultan Ismail",
      "building_number": "88",
      "city": "Kuala Lumpur",
      "state": "Federal Territory of Kuala Lumpur",
      "postal_code": "50250",
      "coordinates": {
        "latitude": "3.1390",
        "longitude": "101.6869"
      },
      "timezone": {
        "offset": "+08:00",
        "description": "Malaysia Time"
      },
      "avatar_url": "https://api.dicebear.com/8.x/thumbs/svg?seed=HafizRoslan"
    },
    {
      "name": "Aina Zakiah",
      "gender": "Female",
      "phone_number": "+60 18-901 2345",
      "street_address": "Jalan Dato Onn 40",
      "street_name": "Jalan Dato Onn",
      "building_number": "40",
      "city": "Johor Bahru",
      "state": "Johor",
      "postal_code": "80200",
      "coordinates": {
        "latitude": "1.4927",
        "longitude": "103.7414"
      },
      "timezone": {
        "offset": "+08:00",
        "description": "Malaysia Time"
      },
      "avatar_url": "https://api.dicebear.com/8.x/thumbs/svg?seed=AinaZakiah"
    }
  ]
}