{
  "meta": {
    "country": "Norway",
    "country_code": "NO",
    "currency": "NOK",
    "country_flag": "üá≥üá¥"
  },
  "addresses": [
    {
      "name": "Magnus Nilsen",
      "gender": "Male",
      "phone_number": "+47 91234567",
      "street_address": "123 Karl Johans Gate",
      "street_name": "Karl Johans Gate",
      "building_number": "123",
      "city": "Oslo",
      "state": "Oslo County",
      "postal_code": "0154",
      "coordinates": {
        "latitude": "59.9127",
        "longitude": "10.7461"
      },
      "timezone": {
        "offset": "+02:00",
        "description": "Central European Summer Time"
      },
      "avatar_url": "https://api.dicebear.com/8.x/thumbs/svg?seed=MagnusNilsen"
    },
    {
      "name": "Ingrid Larsen",
      "gender": "Female",
      "phone_number": "+47 93456789",
      "street_address": "45 Bryggen",
      "street_name": "Bryggen",
      "building_number": "45",
      "city": "Bergen",
      "state": "Vestland",
      "postal_code": "5003",
      "coordinates": {
        "latitude": "60.3971",
        "longitude": "5.3245"
      },
      "timezone": {
        "offset": "+02:00",
        "description": "Central European Summer Time"
      },
      "avatar_url": "https://api.dicebear.com/8.x/thumbs/svg?seed=IngridLarsen"
    },
    {
      "name": "Ole Kristoffersen",
      "gender": "Male",
      "phone_number": "+47 94567890",
      "street_address": "78 Storgata",
      "street_name": "Storgata",
      "building_number": "78",
      "city": "Troms√∏",
      "state": "Troms og Finnmark",
      "postal_code": "9008",
      "coordinates": {
        "latitude": "69.6496",
        "longitude": "18.9560"
      },
      "timezone": {
        "offset": "+02:00",
        "description": "Central European Summer Time"
      },
      "avatar_url": "https://api.dicebear.com/8.x/thumbs/svg?seed=OleKristoffersen"
    },
    {
      "name": "Sofie Bj√∏rnsen",
      "gender": "Female",
      "phone_number": "+47 95678901",
      "street_address": "101 Prinsens Gate",
      "street_name": "Prinsens Gate",
      "building_number": "101",
      "city": "Trondheim",
      "state": "Tr√∏ndelag",
      "postal_code": "7011",
      "coordinates": {
        "latitude": "63.4305",
        "longitude": "10.3951"
      },
      "timezone": {
        "offset": "+02:00",
        "description": "Central European Summer Time"
      },
      "avatar_url": "https://api.dicebear.com/8.x/thumbs/svg?seed=SofieBj√∏rnsen"
    },
    {
      "name": "Anders Johansen",
      "gender": "Male",
      "phone_number": "+47 96789012",
      "street_address": "34 Torget",
      "street_name": "Torget",
      "building_number": "34",
      "city": "Stavanger",
      "state": "Rogaland",
      "postal_code": "4006",
      "coordinates": {
        "latitude": "58.9690",
        "longitude": "5.7331"
      },
      "timezone": {
        "offset": "+02:00",
        "description": "Central European Summer Time"
      },
      "avatar_url": "https://api.dicebear.com/8.x/thumbs/svg?seed=AndersJohansen"
    },
    {
      "name": "Emma Lie",
      "gender": "Female",
      "phone_number": "+47 97890123",
      "street_address": "88 Gr√∏nland",
      "street_name": "Gr√∏nland",
      "building_number": "88",
      "city": "Oslo",
      "state": "Oslo County",
      "postal_code": "0188",
      "coordinates": {
        "latitude": "59.9069",
        "longitude": "10.7609"
      },
      "timezone": {
        "offset": "+02:00",
        "description": "Central European Summer Time"
      },
      "avatar_url": "https://api.dicebear.com/8.x/thumbs/svg?seed=EmmaLie"
    },
    {
      "name": "Jonas Hagen",
      "gender": "Male",
      "phone_number": "+47 98901234",
      "street_address": "55 Strandgaten",
      "street_name": "Strandgaten",
      "building_number": "55",
      "city": "Bergen",
      "state": "Vestland",
      "postal_code": "5004",
      "coordinates": {
        "latitude": "60.3954",
        "longitude": "5.3228"
      },
      "timezone": {
        "offset": "+02:00",
        "description": "Central European Summer Time"
      },
      "avatar_url": "https://api.dicebear.com/8.x/thumbs/svg?seed=JonasHagen"
    },
    {
      "name": "Maja Solheim",
      "gender": "Female",
      "phone_number": "+47 99012345",
      "street_address": "22 Stakkevollvegen",
      "street_name": "Stakkevollvegen",
      "building_number": "22",
      "city": "Troms√∏",
      "state": "Troms og Finnmark",
      "postal_code": "9010",
      "coordinates": {
        "latitude": "69.6571",
        "longitude": "18.9750"
      },
      "timezone": {
        "offset": "+02:00",
        "description": "Central European Summer Time"
      },
      "avatar_url": "https://api.dicebear.com/8.x/thumbs/svg?seed=MajaSolheim"
    },
    {
      "name": "Erik H√•land",
      "gender": "Male",
      "phone_number": "+47 90123456",
      "street_address": "66 Olav Tryggvasons gate",
      "street_name": "Olav Tryggvasons gate",
      "building_number": "66",
      "city": "Trondheim",
      "state": "Tr√∏ndelag",
      "postal_code": "7010",
      "coordinates": {
        "latitude": "63.4305",
        "longitude": "10.3951"
      },
      "timezone": {
        "offset": "+02:00",
        "description": "Central European Summer Time"
      },
      "avatar_url": "https://api.dicebear.com/8.x/thumbs/svg?seed=ErikH√•land"
    },
    {
      "name": "Lina Kristiansen",
      "gender": "Female",
      "phone_number": "+47 91234567",
      "street_address": "19 Skagenkaien",
      "street_name": "Skagenkaien",
      "building_number": "19",
      "city": "Stavanger",
      "state": "Rogaland",
      "postal_code": "4001",
      "coordinates": {
        "latitude": "58.9670",
        "longitude": "5.7335"
      },
      "timezone": {
        "offset": "+02:00",
        "description": "Central European Summer Time"
      },
      "avatar_url": "https://api.dicebear.com/8.x/thumbs/svg?seed=LinaKristiansen"
    }
  ]
}