{
  "meta": {
    "country": "Oman",
    "country_code": "OM",
    "currency": "OMR",
    "country_flag": "ðŸ‡´ðŸ‡²"
  },
  "addresses": [
    {
      "name": "Ahmed Al Harthy",
      "gender": "Male",
      "phone_number": "+968 9212 3456",
      "street_address": "123 Sultan Qaboos Street",
      "street_name": "Sultan Qaboos Street",
      "building_number": "123",
      "city": "Muscat",
      "state": "Muscat Governorate",
      "postal_code": "133",
      "coordinates": {
        "latitude": "23.588",
        "longitude": "58.3829"
      },
      "timezone": {
        "offset": "+04:00",
        "description": "Gulf Standard Time"
      },
      "avatar_url": "https://api.dicebear.com/8.x/thumbs/svg?seed=AhmedAlHarthy"
    },
    {
      "name": "Fatima Al Lawati",
      "gender": "Female",
      "phone_number": "+968 9654 3210",
      "street_address": "45 Al Khuwair Street",
      "street_name": "Al Khuwair Street",
      "building_number": "45",
      "city": "Muscat",
      "state": "Muscat Governorate",
      "postal_code": "115",
      "coordinates": {
        "latitude": "23.6225",
        "longitude": "58.5733"
      },
      "timezone": {
        "offset": "+04:00",
        "description": "Gulf Standard Time"
      },
      "avatar_url": "https://api.dicebear.com/8.x/thumbs/svg?seed=FatimaAlLawati"
    },
    {
      "name": "Salim Al Busaidi",
      "gender": "Male",
      "phone_number": "+968 9345 6789",
      "street_address": "78 Sohar Industrial Road",
      "street_name": "Sohar Industrial Road",
      "building_number": "78",
      "city": "Sohar",
      "state": "Al Batinah North",
      "postal_code": "321",
      "coordinates": {
        "latitude": "24.3499",
        "longitude": "56.7385"
      },
      "timezone": {
        "offset": "+04:00",
        "description": "Gulf Standard Time"
      },
      "avatar_url": "https://api.dicebear.com/8.x/thumbs/svg?seed=SalimAlBusaidi"
    },
    {
      "name": "Aisha Al Riyami",
      "gender": "Female",
      "phone_number": "+968 9456 7890",
      "street_address": "101 Al Wadi Al Kabir",
      "street_name": "Al Wadi Al Kabir",
      "building_number": "101",
      "city": "Muttrah",
      "state": "Muscat Governorate",
      "postal_code": "114",
      "coordinates": {
        "latitude": "23.6218",
        "longitude": "58.5468"
      },
      "timezone": {
        "offset": "+04:00",
        "description": "Gulf Standard Time"
      },
      "avatar_url": "https://api.dicebear.com/8.x/thumbs/svg?seed=AishaAlRiyami"
    },
    {
      "name": "Hassan Al Habsi",
      "gender": "Male",
      "phone_number": "+968 9123 4567",
      "street_address": "34 Salalah Central Road",
      "street_name": "Salalah Central Road",
      "building_number": "34",
      "city": "Salalah",
      "state": "Dhofar",
      "postal_code": "211",
      "coordinates": {
        "latitude": "17.0194",
        "longitude": "54.0891"
      },
      "timezone": {
        "offset": "+04:00",
        "description": "Gulf Standard Time"
      },
      "avatar_url": "https://api.dicebear.com/8.x/thumbs/svg?seed=HassanAlHabsi"
    },
    {
      "name": "Mona Al Zadjali",
      "gender": "Female",
      "phone_number": "+968 9988 4455",
      "street_address": "56 Al Ghubra Street",
      "street_name": "Al Ghubra Street",
      "building_number": "56",
      "city": "Muscat",
      "state": "Muscat Governorate",
      "postal_code": "130",
      "coordinates": {
        "latitude": "23.5961",
        "longitude": "58.4032"
      },
      "timezone": {
        "offset": "+04:00",
        "description": "Gulf Standard Time"
      },
      "avatar_url": "https://api.dicebear.com/8.x/thumbs/svg?seed=MonaAlZadjali"
    },
    {
      "name": "Khalid Al Shukaili",
      "gender": "Male",
      "phone_number": "+968 9797 1234",
      "street_address": "90 Ruwi High Street",
      "street_name": "Ruwi High Street",
      "building_number": "90",
      "city": "Ruwi",
      "state": "Muscat Governorate",
      "postal_code": "112",
      "coordinates": {
        "latitude": "23.6137",
        "longitude": "58.5461"
      },
      "timezone": {
        "offset": "+04:00",
        "description": "Gulf Standard Time"
      },
      "avatar_url": "https://api.dicebear.com/8.x/thumbs/svg?seed=KhalidAlShukaili"
    },
    {
      "name": "Laila Al Hinai",
      "gender": "Female",
      "phone_number": "+968 9444 7788",
      "street_address": "72 Al Amerat Road",
      "street_name": "Al Amerat Road",
      "building_number": "72",
      "city": "Al Amerat",
      "state": "Muscat Governorate",
      "postal_code": "116",
      "coordinates": {
        "latitude": "23.6210",
        "longitude": "58.5450"
      },
      "timezone": {
        "offset": "+04:00",
        "description": "Gulf Standard Time"
      },
      "avatar_url": "https://api.dicebear.com/8.x/thumbs/svg?seed=LailaAlHinai"
    },
    {
      "name": "Saeed Al Nabhani",
      "gender": "Male",
      "phone_number": "+968 9876 5432",
      "street_address": "88 Seeb Beach Road",
      "street_name": "Seeb Beach Road",
      "building_number": "88",
      "city": "Seeb",
      "state": "Muscat Governorate",
      "postal_code": "121",
      "coordinates": {
        "latitude": "23.6380",
        "longitude": "58.1820"
      },
      "timezone": {
        "offset": "+04:00",
        "description": "Gulf Standard Time"
      },
      "avatar_url": "https://api.dicebear.com/8.x/thumbs/svg?seed=SaeedAlNabhani"
    },
    {
      "name": "Nadia Al Farsi",
      "gender": "Female",
      "phone_number": "+968 9765 4321",
      "street_address": "66 Nizwa Souq Road",
      "street_name": "Nizwa Souq Road",
      "building_number": "66",
      "city": "Nizwa",
      "state": "Al Dakhiliyah",
      "postal_code": "611",
      "coordinates": {
        "latitude": "22.9333",
        "longitude": "57.5333"
      },
      "timezone": {
        "offset": "+04:00",
        "description": "Gulf Standard Time"
      },
      "avatar_url": "https://api.dicebear.com/8.x/thumbs/svg?seed=NadiaAlFarsi"
    }
  ]
}