{
  "meta": {
    "country": "Panama",
    "country_code": "PA",
    "currency": "PAB",
    "country_flag": "üáµüá¶"
  },
  "addresses": [
    {
      "name": "Carlos Rodr√≠guez",
      "gender": "Male",
      "phone_number": "+507 6123 4567",
      "street_address": "123 Via Espa√±a",
      "street_name": "Via Espa√±a",
      "building_number": "123",
      "city": "Panama City",
      "state": "Panama",
      "postal_code": "0801",
      "coordinates": {
        "latitude": "8.9824",
        "longitude": "-79.5199"
      },
      "timezone": {
        "offset": "-05:00",
        "description": "Eastern Standard Time"
      },
      "avatar_url": "https://api.dicebear.com/8.x/thumbs/svg?seed=CarlosRodriguez"
    },
    {
      "name": "Ana Gonz√°lez",
      "gender": "Female",
      "phone_number": "+507 6987 4321",
      "street_address": "456 Avenida Balboa",
      "street_name": "Avenida Balboa",
      "building_number": "456",
      "city": "Panama City",
      "state": "Panama",
      "postal_code": "0801",
      "coordinates": {
        "latitude": "8.9824",
        "longitude": "-79.5199"
      },
      "timezone": {
        "offset": "-05:00",
        "description": "Eastern Standard Time"
      },
      "avatar_url": "https://api.dicebear.com/8.x/thumbs/svg?seed=AnaGonzalez"
    },
    {
      "name": "Luis Mart√≠nez",
      "gender": "Male",
      "phone_number": "+507 6111 8899",
      "street_address": "789 Calle 50",
      "street_name": "Calle 50",
      "building_number": "789",
      "city": "Panama City",
      "state": "Panama",
      "postal_code": "0801",
      "coordinates": {
        "latitude": "8.9824",
        "longitude": "-79.5199"
      },
      "timezone": {
        "offset": "-05:00",
        "description": "Eastern Standard Time"
      },
      "avatar_url": "https://api.dicebear.com/8.x/thumbs/svg?seed=LuisMartinez"
    },
    {
      "name": "Gabriela Moreno",
      "gender": "Female",
      "phone_number": "+507 6777 3456",
      "street_address": "101 Avenida Central",
      "street_name": "Avenida Central",
      "building_number": "101",
      "city": "Panama City",
      "state": "Panama",
      "postal_code": "0801",
      "coordinates": {
        "latitude": "8.9824",
        "longitude": "-79.5199"
      },
      "timezone": {
        "offset": "-05:00",
        "description": "Eastern Standard Time"
      },
      "avatar_url": "https://api.dicebear.com/8.x/thumbs/svg?seed=GabrielaMoreno"
    },
    {
      "name": "Roberto D√≠az",
      "gender": "Male",
      "phone_number": "+507 6345 2233",
      "street_address": "34 Calle Uruguay",
      "street_name": "Calle Uruguay",
      "building_number": "34",
      "city": "Panama City",
      "state": "Panama",
      "postal_code": "0801",
      "coordinates": {
        "latitude": "8.9824",
        "longitude": "-79.5199"
      },
      "timezone": {
        "offset": "-05:00",
        "description": "Eastern Standard Time"
      },
      "avatar_url": "https://api.dicebear.com/8.x/thumbs/svg?seed=RobertoDiaz"
    },
    {
      "name": "Paola S√°nchez",
      "gender": "Female",
      "phone_number": "+507 6555 4433",
      "street_address": "67 V√≠a Ricardo J. Alfaro",
      "street_name": "V√≠a Ricardo J. Alfaro",
      "building_number": "67",
      "city": "Panama City",
      "state": "Panama",
      "postal_code": "0801",
      "coordinates": {
        "latitude": "8.9824",
        "longitude": "-79.5199"
      },
      "timezone": {
        "offset": "-05:00",
        "description": "Eastern Standard Time"
      },
      "avatar_url": "https://api.dicebear.com/8.x/thumbs/svg?seed=PaolaSanchez"
    },
    {
      "name": "Miguel Herrera",
      "gender": "Male",
      "phone_number": "+507 6444 5566",
      "street_address": "89 Calle 12 Este",
      "street_name": "Calle 12 Este",
      "building_number": "89",
      "city": "Panama City",
      "state": "Panama",
      "postal_code": "0801",
      "coordinates": {
        "latitude": "8.9824",
        "longitude": "-79.5199"
      },
      "timezone": {
        "offset": "-05:00",
        "description": "Eastern Standard Time"
      },
      "avatar_url": "https://api.dicebear.com/8.x/thumbs/svg?seed=MiguelHerrera"
    },
    {
      "name": "Laura Jim√©nez",
      "gender": "Female",
      "phone_number": "+507 6234 7788",
      "street_address": "23 Avenida Justo Arosemena",
      "street_name": "Avenida Justo Arosemena",
      "building_number": "23",
      "city": "Panama City",
      "state": "Panama",
      "postal_code": "0801",
      "coordinates": {
        "latitude": "8.9824",
        "longitude": "-79.5199"
      },
      "timezone": {
        "offset": "-05:00",
        "description": "Eastern Standard Time"
      },
      "avatar_url": "https://api.dicebear.com/8.x/thumbs/svg?seed=LauraJimenez"
    },
    {
      "name": "Javier Castillo",
      "gender": "Male",
      "phone_number": "+507 6888 9900",
      "street_address": "77 Calle Elvira M√©ndez",
      "street_name": "Calle Elvira M√©ndez",
      "building_number": "77",
      "city": "Panama City",
      "state": "Panama",
      "postal_code": "0801",
      "coordinates": {
        "latitude": "8.9824",
        "longitude": "-79.5199"
      },
      "timezone": {
        "offset": "-05:00",
        "description": "Eastern Standard Time"
      },
      "avatar_url": "https://api.dicebear.com/8.x/thumbs/svg?seed=JavierCastillo"
    },
    {
      "name": "Mar√≠a Torres",
      "gender": "Female",
      "phone_number": "+507 6999 8877",
      "street_address": "58 Avenida Cuba",
      "street_name": "Avenida Cuba",
      "building_number": "58",
      "city": "Panama City",
      "state": "Panama",
      "postal_code": "0801",
      "coordinates": {
        "latitude": "8.9824",
        "longitude": "-79.5199"
      },
      "timezone": {
        "offset": "-05:00",
        "description": "Eastern Standard Time"
      },
      "avatar_url": "https://api.dicebear.com/8.x/thumbs/svg?seed=MariaTorres"
    }
  ]
}