{
  "meta": {
    "country": "Vietnam",
    "country_code": "VN",
    "currency": "VND",
    "country_flag": "üáªüá≥"
  },
  "addresses": [
    {
      "name": "Nguy·ªÖn Th·ªã Mai",
      "gender": "Female",
      "phone_number": "+84 91 234 5678",
      "street_address": "123 Nguy·ªÖn Hu·ªá",
      "street_name": "Nguy·ªÖn Hu·ªá",
      "building_number": "123",
      "city": "Ho Chi Minh City",
      "state": "Ho Chi Minh",
      "postal_code": "700000",
      "coordinates": {
        "latitude": "10.7769",
        "longitude": "106.7009"
      },
      "timezone": {
        "offset": "+07:00",
        "description": "Indochina Time"
      },
      "avatar_url": "https://api.dicebear.com/8.x/thumbs/svg?seed=NguyenThiMai"
    },
    {
      "name": "Tr·∫ßn VƒÉn An",
      "gender": "Male",
      "phone_number": "+84 94 567 8901",
      "street_address": "45 L√Ω Th∆∞·ªùng Ki·ªát",
      "street_name": "L√Ω Th∆∞·ªùng Ki·ªát",
      "building_number": "45",
      "city": "Hanoi",
      "state": "Hanoi",
      "postal_code": "100000",
      "coordinates": {
        "latitude": "21.0285",
        "longitude": "105.8542"
      },
      "timezone": {
        "offset": "+07:00",
        "description": "Indochina Time"
      },
      "avatar_url": "https://api.dicebear.com/8.x/thumbs/svg?seed=TranVanAn"
    },
    {
      "name": "L√™ Th·ªã H·ªìng",
      "gender": "Female",
      "phone_number": "+84 93 876 5432",
      "street_address": "78 Tr·∫ßn Ph√∫",
      "street_name": "Tr·∫ßn Ph√∫",
      "building_number": "78",
      "city": "Da Nang",
      "state": "Da Nang",
      "postal_code": "550000",
      "coordinates": {
        "latitude": "16.0544",
        "longitude": "108.2022"
      },
      "timezone": {
        "offset": "+07:00",
        "description": "Indochina Time"
      },
      "avatar_url": "https://api.dicebear.com/8.x/thumbs/svg?seed=LeThiHong"
    },
    {
      "name": "Ph·∫°m VƒÉn D≈©ng",
      "gender": "Male",
      "phone_number": "+84 96 321 9876",
      "street_address": "101 ƒêi·ªán Bi√™n Ph·ªß",
      "street_name": "ƒêi·ªán Bi√™n Ph·ªß",
      "building_number": "101",
      "city": "Hai Phong",
      "state": "Hai Phong",
      "postal_code": "180000",
      "coordinates": {
        "latitude": "20.8449",
        "longitude": "106.6881"
      },
      "timezone": {
        "offset": "+07:00",
        "description": "Indochina Time"
      },
      "avatar_url": "https://api.dicebear.com/8.x/thumbs/svg?seed=PhamVanDung"
    },
    {
      "name": "Ho√†ng Th·ªã Lan",
      "gender": "Female",
      "phone_number": "+84 97 111 2233",
      "street_address": "34 H√πng V∆∞∆°ng",
      "street_name": "H√πng V∆∞∆°ng",
      "building_number": "34",
      "city": "Can Tho",
      "state": "Can Tho",
      "postal_code": "900000",
      "coordinates": {
        "latitude": "10.0452",
        "longitude": "105.7469"
      },
      "timezone": {
        "offset": "+07:00",
        "description": "Indochina Time"
      },
      "avatar_url": "https://api.dicebear.com/8.x/thumbs/svg?seed=HoangThiLan"
    },
    {
      "name": "ƒê·ªó Minh Tu·∫•n",
      "gender": "Male",
      "phone_number": "+84 98 333 4455",
      "street_address": "66 Nguy·ªÖn Tr√£i",
      "street_name": "Nguy·ªÖn Tr√£i",
      "building_number": "66",
      "city": "Hue",
      "state": "Thua Thien Hue",
      "postal_code": "530000",
      "coordinates": {
        "latitude": "16.4637",
        "longitude": "107.5909"
      },
      "timezone": {
        "offset": "+07:00",
        "description": "Indochina Time"
      },
      "avatar_url": "https://api.dicebear.com/8.x/thumbs/svg?seed=DoMinhTuan"
    },
    {
      "name": "V≈© Th·ªã H·∫°nh",
      "gender": "Female",
      "phone_number": "+84 90 555 6677",
      "street_address": "89 C√°ch M·∫°ng Th√°ng T√°m",
      "street_name": "C√°ch M·∫°ng Th√°ng T√°m",
      "building_number": "89",
      "city": "Nha Trang",
      "state": "Khanh Hoa",
      "postal_code": "650000",
      "coordinates": {
        "latitude": "12.2388",
        "longitude": "109.1967"
      },
      "timezone": {
        "offset": "+07:00",
        "description": "Indochina Time"
      },
      "avatar_url": "https://api.dicebear.com/8.x/thumbs/svg?seed=VuThiHanh"
    },
    {
      "name": "Ng√¥ VƒÉn Long",
      "gender": "Male",
      "phone_number": "+84 92 777 8899",
      "street_address": "55 L√™ L·ª£i",
      "street_name": "L√™ L·ª£i",
      "building_number": "55",
      "city": "Bien Hoa",
      "state": "Dong Nai",
      "postal_code": "810000",
      "coordinates": {
        "latitude": "10.9530",
        "longitude": "106.8227"
      },
      "timezone": {
        "offset": "+07:00",
        "description": "Indochina Time"
      },
      "avatar_url": "https://api.dicebear.com/8.x/thumbs/svg?seed=NgoVanLong"
    },
    {
      "name": "B√πi Th·ªã Nh√†n",
      "gender": "Female",
      "phone_number": "+84 91 888 9990",
      "street_address": "22 V√µ Th·ªã S√°u",
      "street_name": "V√µ Th·ªã S√°u",
      "building_number": "22",
      "city": "Vung Tau",
      "state": "Ba Ria-Vung Tau",
      "postal_code": "780000",
      "coordinates": {
        "latitude": "10.3573",
        "longitude": "107.0843"
      },
      "timezone": {
        "offset": "+07:00",
        "description": "Indochina Time"
      },
      "avatar_url": "https://api.dicebear.com/8.x/thumbs/svg?seed=BuiThiNhan"
    },
    {
      "name": "Nguy·ªÖn H·ªØu Nghƒ©a",
      "gender": "Male",
      "phone_number": "+84 93 444 5566",
      "street_address": "11 H√≤a B√¨nh",
      "street_name": "H√≤a B√¨nh",
      "building_number": "11",
      "city": "Buon Ma Thuot",
      "state": "Dak Lak",
      "postal_code": "630000",
      "coordinates": {
        "latitude": "12.6844",
        "longitude": "108.0374"
      },
      "timezone": {
        "offset": "+07:00",
        "description": "Indochina Time"
      },
      "avatar_url": "https://api.dicebear.com/8.x/thumbs/svg?seed=NguyenHuuNghia"
    }
  ]
}