{
  "meta": {
    "country": "Antarctica",
    "country_code": "AQ",
    "country_flag": "ðŸ‡¦ðŸ‡¶",
    "currency": "None"
  },
  "addresses": [
    {
      "name": "Dr. Alex Morgan",
      "gender": "Male",
      "phone_number": "+672 11 0001",
      "street_address": "1 Amundsen-Scott Station",
      "street_name": "Amundsen-Scott South Pole Station",
      "building_number": "1",
      "city": "South Pole",
      "state": "Antarctica",
      "postal_code": "96598",
      "coordinates": {
        "latitude": "-90.0000",
        "longitude": "0.0000"
      },
      "timezone": {
        "offset": "+00:00",
        "description": "UTC"
      },
      "avatar_url": "https://api.dicebear.com/8.x/thumbs/svg?seed=AlexMorgan"
    },
    {
      "name": "Dr. Sofia LindstrÃ¶m",
      "gender": "Female",
      "phone_number": "+672 11 0002",
      "street_address": "12 McMurdo Base Road",
      "street_name": "McMurdo Station",
      "building_number": "12",
      "city": "McMurdo",
      "state": "Ross Island",
      "postal_code": "96599",
      "coordinates": {
        "latitude": "-77.8419",
        "longitude": "166.6863"
      },
      "timezone": {
        "offset": "+12:00",
        "description": "Pacific/McMurdo"
      },
      "avatar_url": "https://api.dicebear.com/8.x/thumbs/svg?seed=SofiaLindstrom"
    },
    {
      "name": "Dr. Carlos Alvarez",
      "gender": "Male",
      "phone_number": "+672 11 0003",
      "street_address": "34 Rothera Point",
      "street_name": "Rothera Research Station",
      "building_number": "34",
      "city": "Rothera",
      "state": "Adelaide Island",
      "postal_code": "N/A",
      "coordinates": {
        "latitude": "-67.5683",
        "longitude": "-68.1257"
      },
      "timezone": {
        "offset": "-03:00",
        "description": "Antarctica/Rothera"
      },
      "avatar_url": "https://api.dicebear.com/8.x/thumbs/svg?seed=CarlosAlvarez"
    },
    {
      "name": "Dr. Elena Petrova",
      "gender": "Female",
      "phone_number": "+672 11 0004",
      "street_address": "56 Esperanza Base",
      "street_name": "Esperanza Station Road",
      "building_number": "56",
      "city": "Hope Bay",
      "state": "Trinity Peninsula",
      "postal_code": "N/A",
      "coordinates": {
        "latitude": "-63.4000",
        "longitude": "-56.9900"
      },
      "timezone": {
        "offset": "-03:00",
        "description": "America/Argentina/Rio_Gallegos"
      },
      "avatar_url": "https://api.dicebear.com/8.x/thumbs/svg?seed=ElenaPetrova"
    },
    {
      "name": "Dr. Ming Zhao",
      "gender": "Male",
      "phone_number": "+672 11 0005",
      "street_address": "78 Zhongshan Base",
      "street_name": "Zhongshan Station Road",
      "building_number": "78",
      "city": "Larsemann Hills",
      "state": "Princess Elizabeth Land",
      "postal_code": "N/A",
      "coordinates": {
        "latitude": "-69.3733",
        "longitude": "76.3761"
      },
      "timezone": {
        "offset": "+08:00",
        "description": "Asia/Shanghai"
      },
      "avatar_url": "https://api.dicebear.com/8.x/thumbs/svg?seed=MingZhao"
    },
    {
      "name": "Dr. Laura Kim",
      "gender": "Female",
      "phone_number": "+672 11 0006",
      "street_address": "89 Dome Fuji Station",
      "street_name": "Dome Fuji Road",
      "building_number": "89",
      "city": "Queen Maud Land",
      "state": "East Antarctica",
      "postal_code": "N/A",
      "coordinates": {
        "latitude": "-77.3167",
        "longitude": "39.7000"
      },
      "timezone": {
        "offset": "+09:00",
        "description": "Asia/Tokyo"
      },
      "avatar_url": "https://api.dicebear.com/8.x/thumbs/svg?seed=LauraKim"
    },
    {
      "name": "Dr. Noah Schneider",
      "gender": "Male",
      "phone_number": "+672 11 0007",
      "street_address": "42 Concordia Station",
      "street_name": "Concordia Road",
      "building_number": "42",
      "city": "Dome C",
      "state": "East Antarctic Plateau",
      "postal_code": "N/A",
      "coordinates": {
        "latitude": "-75.1000",
        "longitude": "123.3500"
      },
      "timezone": {
        "offset": "+08:00",
        "description": "Asia/Shanghai"
      },
      "avatar_url": "https://api.dicebear.com/8.x/thumbs/svg?seed=NoahSchneider"
    },
    {
      "name": "Dr. Isabella Conti",
      "gender": "Female",
      "phone_number": "+672 11 0008",
      "street_address": "25 Mario Zucchelli Base",
      "street_name": "Zucchelli Base Road",
      "building_number": "25",
      "city": "Terra Nova Bay",
      "state": "Victoria Land",
      "postal_code": "N/A",
      "coordinates": {
        "latitude": "-74.7000",
        "longitude": "164.1000"
      },
      "timezone": {
        "offset": "+13:00",
        "description": "Pacific/Auckland"
      },
      "avatar_url": "https://api.dicebear.com/8.x/thumbs/svg?seed=IsabellaConti"
    },
    {
      "name": "Dr. Hiroshi Tanaka",
      "gender": "Male",
      "phone_number": "+672 11 0009",
      "street_address": "66 Syowa Station",
      "street_name": "Syowa Station Street",
      "building_number": "66",
      "city": "East Ongul Island",
      "state": "Queen Maud Land",
      "postal_code": "N/A",
      "coordinates": {
        "latitude": "-69.0000",
        "longitude": "39.5833"
      },
      "timezone": {
        "offset": "+09:00",
        "description": "Asia/Tokyo"
      },
      "avatar_url": "https://api.dicebear.com/8.x/thumbs/svg?seed=HiroshiTanaka"
    },
    {
      "name": "Dr. Clara Dubois",
      "gender": "Female",
      "phone_number": "+672 11 0010",
      "street_address": "37 Dumont dâ€™Urville Station",
      "street_name": "dâ€™Urville Street",
      "building_number": "37",
      "city": "Petrel Island",
      "state": "AdÃ©lie Land",
      "postal_code": "N/A",
      "coordinates": {
        "latitude": "-66.6667",
        "longitude": "140.0000"
      },
      "timezone": {
        "offset": "+11:00",
        "description": "Pacific/Noumea"
      },
      "avatar_url": "https://api.dicebear.com/8.x/thumbs/svg?seed=ClaraDubois"
    }
  ]
}