{
  "meta": {
    "country": "Kingdom of Bahrain",
    "country_code": "BH",
    "currency": "BHD",
    "country_flag": "ðŸ‡§ðŸ‡­"
  },
  "addresses": [
    {
      "name": "Faisal Al Khalifa",
      "gender": "Male",
      "phone_number": "+973 3211 1234",
      "street_address": "123 Government Avenue",
      "street_name": "Government Avenue",
      "building_number": "123",
      "city": "Manama",
      "state": "Capital Governorate",
      "postal_code": "12345",
      "coordinates": {
        "latitude": "26.2285",
        "longitude": "50.5860"
      },
      "timezone": {
        "offset": "+03:00",
        "description": "Asia/Bahrain"
      },
      "avatar_url": "https://api.dicebear.com/8.x/thumbs/svg?seed=FaisalAlKhalifa"
    },
    {
      "name": "Layla Hassan",
      "gender": "Female",
      "phone_number": "+973 3645 5678",
      "street_address": "456 King Faisal Highway",
      "street_name": "King Faisal Highway",
      "building_number": "456",
      "city": "Manama",
      "state": "Capital Governorate",
      "postal_code": "23456",
      "coordinates": {
        "latitude": "26.2332",
        "longitude": "50.5722"
      },
      "timezone": {
        "offset": "+03:00",
        "description": "Asia/Bahrain"
      },
      "avatar_url": "https://api.dicebear.com/8.x/thumbs/svg?seed=LaylaHassan"
    },
    {
      "name": "Ahmed Nasser",
      "gender": "Male",
      "phone_number": "+973 3887 2345",
      "street_address": "789 Budaiya Road",
      "street_name": "Budaiya Road",
      "building_number": "789",
      "city": "Manama",
      "state": "Capital Governorate",
      "postal_code": "34567",
      "coordinates": {
        "latitude": "26.2264",
        "longitude": "50.5319"
      },
      "timezone": {
        "offset": "+03:00",
        "description": "Asia/Bahrain"
      },
      "avatar_url": "https://api.dicebear.com/8.x/thumbs/svg?seed=AhmedNasser"
    },
    {
      "name": "Noor Al Sayegh",
      "gender": "Female",
      "phone_number": "+973 3976 7890",
      "street_address": "101 Al Fateh Avenue",
      "street_name": "Al Fateh Avenue",
      "building_number": "101",
      "city": "Manama",
      "state": "Capital Governorate",
      "postal_code": "45678",
      "coordinates": {
        "latitude": "26.2167",
        "longitude": "50.5833"
      },
      "timezone": {
        "offset": "+03:00",
        "description": "Asia/Bahrain"
      },
      "avatar_url": "https://api.dicebear.com/8.x/thumbs/svg?seed=NoorAlSayegh"
    },
    {
      "name": "Hassan Jassim",
      "gender": "Male",
      "phone_number": "+973 3559 8765",
      "street_address": "34 Exhibition Avenue",
      "street_name": "Exhibition Avenue",
      "building_number": "34",
      "city": "Manama",
      "state": "Capital Governorate",
      "postal_code": "56789",
      "coordinates": {
        "latitude": "26.2344",
        "longitude": "50.5892"
      },
      "timezone": {
        "offset": "+03:00",
        "description": "Asia/Bahrain"
      },
      "avatar_url": "https://api.dicebear.com/8.x/thumbs/svg?seed=HassanJassim"
    },
    {
      "name": "Mariam Yousif",
      "gender": "Female",
      "phone_number": "+973 3901 1122",
      "street_address": "12 Al Seef Road",
      "street_name": "Al Seef Road",
      "building_number": "12",
      "city": "Manama",
      "state": "Capital Governorate",
      "postal_code": "11223",
      "coordinates": {
        "latitude": "26.2350",
        "longitude": "50.5433"
      },
      "timezone": {
        "offset": "+03:00",
        "description": "Asia/Bahrain"
      },
      "avatar_url": "https://api.dicebear.com/8.x/thumbs/svg?seed=MariamYousif"
    },
    {
      "name": "Salman Abdulla",
      "gender": "Male",
      "phone_number": "+973 3789 2233",
      "street_address": "56 Diplomatic Area Street",
      "street_name": "Diplomatic Area Street",
      "building_number": "56",
      "city": "Manama",
      "state": "Capital Governorate",
      "postal_code": "99887",
      "coordinates": {
        "latitude": "26.2378",
        "longitude": "50.5866"
      },
      "timezone": {
        "offset": "+03:00",
        "description": "Asia/Bahrain"
      },
      "avatar_url": "https://api.dicebear.com/8.x/thumbs/svg?seed=SalmanAbdulla"
    },
    {
      "name": "Dana Ali",
      "gender": "Female",
      "phone_number": "+973 3620 3344",
      "street_address": "89 Reef Island Road",
      "street_name": "Reef Island Road",
      "building_number": "89",
      "city": "Manama",
      "state": "Capital Governorate",
      "postal_code": "88866",
      "coordinates": {
        "latitude": "26.2385",
        "longitude": "50.5715"
      },
      "timezone": {
        "offset": "+03:00",
        "description": "Asia/Bahrain"
      },
      "avatar_url": "https://api.dicebear.com/8.x/thumbs/svg?seed=DanaAli"
    },
    {
      "name": "Yousef Al Dossari",
      "gender": "Male",
      "phone_number": "+973 3498 4455",
      "street_address": "72 Sanabis Street",
      "street_name": "Sanabis Street",
      "building_number": "72",
      "city": "Manama",
      "state": "Capital Governorate",
      "postal_code": "77888",
      "coordinates": {
        "latitude": "26.2419",
        "longitude": "50.5481"
      },
      "timezone": {
        "offset": "+03:00",
        "description": "Asia/Bahrain"
      },
      "avatar_url": "https://api.dicebear.com/8.x/thumbs/svg?seed=YousefAlDossari"
    },
    {
      "name": "Fatima Al Zayani",
      "gender": "Female",
      "phone_number": "+973 3312 5566",
      "street_address": "90 Juffair Avenue",
      "street_name": "Juffair Avenue",
      "building_number": "90",
      "city": "Manama",
      "state": "Capital Governorate",
      "postal_code": "66777",
      "coordinates": {
        "latitude": "26.2178",
        "longitude": "50.6125"
      },
      "timezone": {
        "offset": "+03:00",
        "description": "Asia/Bahrain"
      },
      "avatar_url": "https://api.dicebear.com/8.x/thumbs/svg?seed=FatimaAlZayani"
    }
  ]
}