{
  "meta": {
    "country": "Algeria",
    "country_code": "DZ",
    "currency": "DZD",
    "country_flag": "ðŸ‡©ðŸ‡¿"
  },
  "addresses": [
    {
      "name": "Yacine Bensalah",
      "gender": "Male",
      "phone_number": "+213 661 23 45 67",
      "street_address": "12 Rue Didouche Mourad",
      "street_name": "Rue Didouche Mourad",
      "building_number": "12",
      "city": "Algiers",
      "state": "Algiers Province",
      "postal_code": "16000",
      "coordinates": {
        "latitude": "36.7529",
        "longitude": "3.0420"
      },
      "timezone": {
        "offset": "+01:00",
        "description": "Africa/Algiers"
      },
      "avatar_url": "https://api.dicebear.com/8.x/thumbs/svg?seed=YacineBensalah"
    },
    {
      "name": "Nour El Houda Benyamina",
      "gender": "Female",
      "phone_number": "+213 770 34 56 78",
      "street_address": "45 Avenue Pasteur",
      "street_name": "Avenue Pasteur",
      "building_number": "45",
      "city": "Oran",
      "state": "Oran Province",
      "postal_code": "31000",
      "coordinates": {
        "latitude": "35.6969",
        "longitude": "-0.6333"
      },
      "timezone": {
        "offset": "+01:00",
        "description": "Africa/Algiers"
      },
      "avatar_url": "https://api.dicebear.com/8.x/thumbs/svg?seed=NourElHoudaBenyamina"
    },
    {
      "name": "Sofiane Rahmani",
      "gender": "Male",
      "phone_number": "+213 550 45 67 89",
      "street_address": "789 Boulevard Zighout Youcef",
      "street_name": "Boulevard Zighout Youcef",
      "building_number": "789",
      "city": "Constantine",
      "state": "Constantine Province",
      "postal_code": "25000",
      "coordinates": {
        "latitude": "36.3650",
        "longitude": "6.6147"
      },
      "timezone": {
        "offset": "+01:00",
        "description": "Africa/Algiers"
      },
      "avatar_url": "https://api.dicebear.com/8.x/thumbs/svg?seed=SofianeRahmani"
    },
    {
      "name": "Lina Boudjemaa",
      "gender": "Female",
      "phone_number": "+213 696 12 34 56",
      "street_address": "101 Rue des FrÃ¨res Benhafid",
      "street_name": "Rue des FrÃ¨res Benhafid",
      "building_number": "101",
      "city": "Annaba",
      "state": "Annaba Province",
      "postal_code": "23000",
      "coordinates": {
        "latitude": "36.9000",
        "longitude": "7.7667"
      },
      "timezone": {
        "offset": "+01:00",
        "description": "Africa/Algiers"
      },
      "avatar_url": "https://api.dicebear.com/8.x/thumbs/svg?seed=LinaBoudjemaa"
    },
    {
      "name": "Karim Belkacem",
      "gender": "Male",
      "phone_number": "+213 558 98 76 54",
      "street_address": "34 Rue Larbi Ben M'hidi",
      "street_name": "Rue Larbi Ben M'hidi",
      "building_number": "34",
      "city": "Blida",
      "state": "Blida Province",
      "postal_code": "09000",
      "coordinates": {
        "latitude": "36.4700",
        "longitude": "2.8333"
      },
      "timezone": {
        "offset": "+01:00",
        "description": "Africa/Algiers"
      },
      "avatar_url": "https://api.dicebear.com/8.x/thumbs/svg?seed=KarimBelkacem"
    },
    {
      "name": "Amina Khelifi",
      "gender": "Female",
      "phone_number": "+213 697 34 12 09",
      "street_address": "3 cours de la RÃ©volution",
      "street_name": "cours de la RÃ©volution",
      "building_number": "3",
      "city": "Annaba",
      "state": "Annaba Province",
      "postal_code": "23000",
      "coordinates": {
        "latitude": "36.9000",
        "longitude": "7.7667"
      },
      "timezone": {
        "offset": "+01:00",
        "description": "Africa/Algiers"
      },
      "avatar_url": "https://api.dicebear.com/8.x/thumbs/svg?seed=AminaKhelifi"
    },
    {
      "name": "Rachid Benali",
      "gender": "Male",
      "phone_number": "+213 662 11 22 33",
      "street_address": "400 nouvelle ville 400",
      "street_name": "nouvelle ville",
      "building_number": "400",
      "city": "Constantine",
      "state": "Constantine Province",
      "postal_code": "23000",
      "coordinates": {
        "latitude": "36.3650",
        "longitude": "6.6147"
      },
      "timezone": {
        "offset": "+01:00",
        "description": "Africa/Algiers"
      },
      "avatar_url": "https://api.dicebear.com/8.x/thumbs/svg?seed=RachidBenali"
    },
    {
      "name": "Yasmine Gacem",
      "gender": "Female",
      "phone_number": "+213 699 88 77 66",
      "street_address": "101 Rue de la LibertÃ©",
      "street_name": "Rue de la LibertÃ©",
      "building_number": "101",
      "city": "Batna",
      "state": "Batna Province",
      "postal_code": "05000",
      "coordinates": {
        "latitude": "35.5559",
        "longitude": "6.1741"
      },
      "timezone": {
        "offset": "+01:00",
        "description": "Africa/Algiers"
      },
      "avatar_url": "https://api.dicebear.com/8.x/thumbs/svg?seed=YasmineGacem"
    },
    {
      "name": "Mohamed Amrani",
      "gender": "Male",
      "phone_number": "+213 671 23 45 89",
      "street_address": "90 Rue Emir Abdelkader",
      "street_name": "Rue Emir Abdelkader",
      "building_number": "90",
      "city": "Tlemcen",
      "state": "Tlemcen Province",
      "postal_code": "13000",
      "coordinates": {
        "latitude": "34.8828",
        "longitude": "-1.3167"
      },
      "timezone": {
        "offset": "+01:00",
        "description": "Africa/Algiers"
      },
      "avatar_url": "https://api.dicebear.com/8.x/thumbs/svg?seed=MohamedAmrani"
    },
    {
      "name": "Samira Djouadi",
      "gender": "Female",
      "phone_number": "+213 688 76 55 44",
      "street_address": "55 Rue Mohamed Belouizdad",
      "street_name": "Rue Mohamed Belouizdad",
      "building_number": "55",
      "city": "Algiers",
      "state": "Algiers Province",
      "postal_code": "16000",
      "coordinates": {
        "latitude": "36.7529",
        "longitude": "3.0420"
      },
      "timezone": {
        "offset": "+01:00",
        "description": "Africa/Algiers"
      },
      "avatar_url": "https://api.dicebear.com/8.x/thumbs/svg?seed=SamiraDjouadi"
    }
  ]
}