{
  "meta": {
    "country": "Guatemala",
    "country_code": "GT",
    "currency": "GTQ",
    "country_flag": "üá¨üáπ"
  },
  "addresses": [
    {
      "name": "Carlos M√©ndez",
      "gender": "Male",
      "phone_number": "+502 5012 3456",
      "street_address": "123 Avenida Reforma",
      "street_name": "Avenida Reforma",
      "building_number": "123",
      "city": "Guatemala City",
      "state": "Guatemala Department",
      "postal_code": "01010",
      "coordinates": {
        "latitude": "14.6349",
        "longitude": "-90.5069"
      },
      "timezone": {
        "offset": "-06:00",
        "description": "America/Guatemala"
      },
      "avatar_url": "https://api.dicebear.com/8.x/thumbs/svg?seed=CarlosMendez"
    },
    {
      "name": "Ana L√≥pez",
      "gender": "Female",
      "phone_number": "+502 5345 6789",
      "street_address": "45 Calzada Roosevelt",
      "street_name": "Calzada Roosevelt",
      "building_number": "45",
      "city": "Guatemala City",
      "state": "Guatemala Department",
      "postal_code": "01009",
      "coordinates": {
        "latitude": "14.6349",
        "longitude": "-90.5069"
      },
      "timezone": {
        "offset": "-06:00",
        "description": "America/Guatemala"
      },
      "avatar_url": "https://api.dicebear.com/8.x/thumbs/svg?seed=AnaLopez"
    },
    {
      "name": "Jorge Ram√≠rez",
      "gender": "Male",
      "phone_number": "+502 5567 8910",
      "street_address": "78 Calle del Arco",
      "street_name": "Calle del Arco",
      "building_number": "78",
      "city": "Antigua Guatemala",
      "state": "Sacatep√©quez",
      "postal_code": "03001",
      "coordinates": {
        "latitude": "14.5615",
        "longitude": "-90.7333"
      },
      "timezone": {
        "offset": "-06:00",
        "description": "America/Guatemala"
      },
      "avatar_url": "https://api.dicebear.com/8.x/thumbs/svg?seed=JorgeRamirez"
    },
    {
      "name": "Mar√≠a Fernanda Ruiz",
      "gender": "Female",
      "phone_number": "+502 5789 0123",
      "street_address": "101 Avenida Las Am√©ricas",
      "street_name": "Avenida Las Am√©ricas",
      "building_number": "101",
      "city": "Quetzaltenango",
      "state": "Quetzaltenango",
      "postal_code": "09001",
      "coordinates": {
        "latitude": "14.8340",
        "longitude": "-91.5189"
      },
      "timezone": {
        "offset": "-06:00",
        "description": "America/Guatemala"
      },
      "avatar_url": "https://api.dicebear.com/8.x/thumbs/svg?seed=MariaFernandaRuiz"
    },
    {
      "name": "Luis Castillo",
      "gender": "Male",
      "phone_number": "+502 5901 2345",
      "street_address": "34 Boulevard Los Pr√≥ceres",
      "street_name": "Boulevard Los Pr√≥ceres",
      "building_number": "34",
      "city": "Guatemala City",
      "state": "Guatemala Department",
      "postal_code": "01017",
      "coordinates": {
        "latitude": "14.6349",
        "longitude": "-90.5069"
      },
      "timezone": {
        "offset": "-06:00",
        "description": "America/Guatemala"
      },
      "avatar_url": "https://api.dicebear.com/8.x/thumbs/svg?seed=LuisCastillo"
    },
    {
      "name": "Daniela Morales",
      "gender": "Female",
      "phone_number": "+502 5023 4567",
      "street_address": "89 Avenida Bol√≠var",
      "street_name": "Avenida Bol√≠var",
      "building_number": "89",
      "city": "Guatemala City",
      "state": "Guatemala Department",
      "postal_code": "01003",
      "coordinates": {
        "latitude": "14.6349",
        "longitude": "-90.5069"
      },
      "timezone": {
        "offset": "-06:00",
        "description": "America/Guatemala"
      },
      "avatar_url": "https://api.dicebear.com/8.x/thumbs/svg?seed=DanielaMorales"
    },
    {
      "name": "Ricardo Gonz√°lez",
      "gender": "Male",
      "phone_number": "+502 5445 6789",
      "street_address": "22 Calle Mart√≠",
      "street_name": "Calle Mart√≠",
      "building_number": "22",
      "city": "Guatemala City",
      "state": "Guatemala Department",
      "postal_code": "01011",
      "coordinates": {
        "latitude": "14.6349",
        "longitude": "-90.5069"
      },
      "timezone": {
        "offset": "-06:00",
        "description": "America/Guatemala"
      },
      "avatar_url": "https://api.dicebear.com/8.x/thumbs/svg?seed=RicardoGonzalez"
    },
    {
      "name": "Gabriela Santos",
      "gender": "Female",
      "phone_number": "+502 5667 8901",
      "street_address": "67 Avenida La Reforma",
      "street_name": "Avenida La Reforma",
      "building_number": "67",
      "city": "Guatemala City",
      "state": "Guatemala Department",
      "postal_code": "01018",
      "coordinates": {
        "latitude": "14.6349",
        "longitude": "-90.5069"
      },
      "timezone": {
        "offset": "-06:00",
        "description": "America/Guatemala"
      },
      "avatar_url": "https://api.dicebear.com/8.x/thumbs/svg?seed=GabrielaSantos"
    },
    {
      "name": "Diego V√°squez",
      "gender": "Male",
      "phone_number": "+502 5789 1012",
      "street_address": "150 Calzada San Juan",
      "street_name": "Calzada San Juan",
      "building_number": "150",
      "city": "Mixco",
      "state": "Guatemala Department",
      "postal_code": "01057",
      "coordinates": {
        "latitude": "14.6342",
        "longitude": "-90.6030"
      },
      "timezone": {
        "offset": "-06:00",
        "description": "America/Guatemala"
      },
      "avatar_url": "https://api.dicebear.com/8.x/thumbs/svg?seed=DiegoVasquez"
    },
    {
      "name": "Andrea Mendoza",
      "gender": "Female",
      "phone_number": "+502 5900 1122",
      "street_address": "301 Avenida Petapa",
      "street_name": "Avenida Petapa",
      "building_number": "301",
      "city": "Guatemala City",
      "state": "Guatemala Department",
      "postal_code": "01013",
      "coordinates": {
        "latitude": "14.6349",
        "longitude": "-90.5069"
      },
      "timezone": {
        "offset": "-06:00",
        "description": "America/Guatemala"
      },
      "avatar_url": "https://api.dicebear.com/8.x/thumbs/svg?seed=AndreaMendoza"
    }
  ]
}