{
  "meta": {
    "country": "Ireland",
    "country_code": "IE",
    "currency": "EUR",
    "country_flag": "ðŸ‡®ðŸ‡ª"
  },
  "addresses": [
    {
      "name": "Liam O'Sullivan",
      "gender": "Male",
      "phone_number": "+353 83 123 4567",
      "street_address": "123 O'Connell Street",
      "street_name": "O'Connell Street",
      "building_number": "123",
      "city": "Dublin",
      "state": "Leinster",
      "postal_code": "D01 F5P2",
      "coordinates": {
        "latitude": "53.349805",
        "longitude": "-6.26031"
      },
      "timezone": {
        "offset": "+01:00",
        "description": "Europe/Dublin"
      },
      "avatar_url": "https://api.dicebear.com/8.x/thumbs/svg?seed=LiamOSullivan"
    },
    {
      "name": "Aoife Murphy",
      "gender": "Female",
      "phone_number": "+353 87 234 5678",
      "street_address": "45 Eyre Square",
      "street_name": "Eyre Square",
      "building_number": "45",
      "city": "Galway",
      "state": "Connacht",
      "postal_code": "H91 R3TC",
      "coordinates": {
        "latitude": "53.2707",
        "longitude": "-9.0568"
      },
      "timezone": {
        "offset": "+01:00",
        "description": "Europe/Dublin"
      },
      "avatar_url": "https://api.dicebear.com/8.x/thumbs/svg?seed=AoifeMurphy"
    },
    {
      "name": "Conor Walsh",
      "gender": "Male",
      "phone_number": "+353 86 345 6789",
      "street_address": "78 Oliver Plunkett Street",
      "street_name": "Oliver Plunkett Street",
      "building_number": "78",
      "city": "Cork",
      "state": "Munster",
      "postal_code": "T12 AKC4",
      "coordinates": {
        "latitude": "51.8985",
        "longitude": "-8.4756"
      },
      "timezone": {
        "offset": "+01:00",
        "description": "Europe/Dublin"
      },
      "avatar_url": "https://api.dicebear.com/8.x/thumbs/svg?seed=ConorWalsh"
    },
    {
      "name": "Niamh Kennedy",
      "gender": "Female",
      "phone_number": "+353 89 456 7890",
      "street_address": "101 Patrick Street",
      "street_name": "Patrick Street",
      "building_number": "101",
      "city": "Limerick",
      "state": "Munster",
      "postal_code": "V94 Y42Y",
      "coordinates": {
        "latitude": "52.6638",
        "longitude": "-8.6267"
      },
      "timezone": {
        "offset": "+01:00",
        "description": "Europe/Dublin"
      },
      "avatar_url": "https://api.dicebear.com/8.x/thumbs/svg?seed=NiamhKennedy"
    },
    {
      "name": "SeÃ¡n Byrne",
      "gender": "Male",
      "phone_number": "+353 85 567 8901",
      "street_address": "34 Church Street",
      "street_name": "Church Street",
      "building_number": "34",
      "city": "Kilkenny",
      "state": "Leinster",
      "postal_code": "R95 VK25",
      "coordinates": {
        "latitude": "52.6542",
        "longitude": "-7.2521"
      },
      "timezone": {
        "offset": "+01:00",
        "description": "Europe/Dublin"
      },
      "avatar_url": "https://api.dicebear.com/8.x/thumbs/svg?seed=SeanByrne"
    },
    {
      "name": "Emma Doyle",
      "gender": "Female",
      "phone_number": "+353 83 678 9012",
      "street_address": "58 Main Street",
      "street_name": "Main Street",
      "building_number": "58",
      "city": "Waterford",
      "state": "Munster",
      "postal_code": "X91 AE12",
      "coordinates": {
        "latitude": "52.2597",
        "longitude": "-7.1101"
      },
      "timezone": {
        "offset": "+01:00",
        "description": "Europe/Dublin"
      },
      "avatar_url": "https://api.dicebear.com/8.x/thumbs/svg?seed=EmmaDoyle"
    },
    {
      "name": "Cillian Moore",
      "gender": "Male",
      "phone_number": "+353 87 789 0123",
      "street_address": "90 Grafton Street",
      "street_name": "Grafton Street",
      "building_number": "90",
      "city": "Dublin",
      "state": "Leinster",
      "postal_code": "D02 R123",
      "coordinates": {
        "latitude": "53.3429",
        "longitude": "-6.2603"
      },
      "timezone": {
        "offset": "+01:00",
        "description": "Europe/Dublin"
      },
      "avatar_url": "https://api.dicebear.com/8.x/thumbs/svg?seed=CillianMoore"
    },
    {
      "name": "Orla Ryan",
      "gender": "Female",
      "phone_number": "+353 86 890 1234",
      "street_address": "22 High Street",
      "street_name": "High Street",
      "building_number": "22",
      "city": "Wexford",
      "state": "Leinster",
      "postal_code": "Y35 H9TR",
      "coordinates": {
        "latitude": "52.3378",
        "longitude": "-6.4605"
      },
      "timezone": {
        "offset": "+01:00",
        "description": "Europe/Dublin"
      },
      "avatar_url": "https://api.dicebear.com/8.x/thumbs/svg?seed=OrlaRyan"
    },
    {
      "name": "Darragh McGrath",
      "gender": "Male",
      "phone_number": "+353 89 901 2345",
      "street_address": "77 Thomas Street",
      "street_name": "Thomas Street",
      "building_number": "77",
      "city": "Limerick",
      "state": "Munster",
      "postal_code": "V94 T8NK",
      "coordinates": {
        "latitude": "52.6625",
        "longitude": "-8.6306"
      },
      "timezone": {
        "offset": "+01:00",
        "description": "Europe/Dublin"
      },
      "avatar_url": "https://api.dicebear.com/8.x/thumbs/svg?seed=DarraghMcGrath"
    },
    {
      "name": "Ciara Brennan",
      "gender": "Female",
      "phone_number": "+353 85 012 3456",
      "street_address": "11 Market Square",
      "street_name": "Market Square",
      "building_number": "11",
      "city": "Ennis",
      "state": "Munster",
      "postal_code": "V95 E4WF",
      "coordinates": {
        "latitude": "52.8435",
        "longitude": "-8.9834"
      },
      "timezone": {
        "offset": "+01:00",
        "description": "Europe/Dublin"
      },
      "avatar_url": "https://api.dicebear.com/8.x/thumbs/svg?seed=CiaraBrennan"
    }
  ]
}