{
  "meta": {
    "country": "Morocco",
    "country_code": "MA",
    "currency": "MAD",
    "country_flag": "üá≤üá¶"
  },
  "addresses": [
    {
      "name": "Youssef El Mansouri",
      "gender": "Male",
      "phone_number": "+212 612 345 678",
      "street_address": "123 Avenue Mohammed V",
      "street_name": "Avenue Mohammed V",
      "building_number": "123",
      "city": "Rabat",
      "state": "Rabat-Sal√©-K√©nitra",
      "postal_code": "10000",
      "coordinates": {
        "latitude": "34.020882",
        "longitude": "-6.841650"
      },
      "timezone": {
        "offset": "+01:00",
        "description": "Africa/Casablanca"
      },
      "avatar_url": "https://api.dicebear.com/8.x/thumbs/svg?seed=YoussefElMansouri"
    },
    {
      "name": "Salma Idrissi",
      "gender": "Female",
      "phone_number": "+212 633 987 654",
      "street_address": "456 Boulevard Mohamed VI",
      "street_name": "Boulevard Mohamed VI",
      "building_number": "456",
      "city": "Casablanca",
      "state": "Casablanca-Settat",
      "postal_code": "20000",
      "coordinates": {
        "latitude": "33.573110",
        "longitude": "-7.589843"
      },
      "timezone": {
        "offset": "+01:00",
        "description": "Africa/Casablanca"
      },
      "avatar_url": "https://api.dicebear.com/8.x/thumbs/svg?seed=SalmaIdrissi"
    },
    {
      "name": "Karim Bennis",
      "gender": "Male",
      "phone_number": "+212 655 789 012",
      "street_address": "789 Rue de la Libert√©",
      "street_name": "Rue de la Libert√©",
      "building_number": "789",
      "city": "Marrakesh",
      "state": "Marrakesh-Safi",
      "postal_code": "40000",
      "coordinates": {
        "latitude": "31.629472",
        "longitude": "-7.981084"
      },
      "timezone": {
        "offset": "+01:00",
        "description": "Africa/Casablanca"
      },
      "avatar_url": "https://api.dicebear.com/8.x/thumbs/svg?seed=KarimBennis"
    },
    {
      "name": "Nadia Othmani",
      "gender": "Female",
      "phone_number": "+212 677 321 890",
      "street_address": "101 Avenue Hassan II",
      "street_name": "Avenue Hassan II",
      "building_number": "101",
      "city": "Fes",
      "state": "F√®s-Mekn√®s",
      "postal_code": "30000",
      "coordinates": {
        "latitude": "34.033126",
        "longitude": "-5.000286"
      },
      "timezone": {
        "offset": "+01:00",
        "description": "Africa/Casablanca"
      },
      "avatar_url": "https://api.dicebear.com/8.x/thumbs/svg?seed=NadiaOthmani"
    },
    {
      "name": "Amine Berrada",
      "gender": "Male",
      "phone_number": "+212 688 210 345",
      "street_address": "34 Rue de la R√©sistance",
      "street_name": "Rue de la R√©sistance",
      "building_number": "34",
      "city": "Tangier",
      "state": "Tanger-T√©touan-Al Hoce√Øma",
      "postal_code": "90000",
      "coordinates": {
        "latitude": "35.759465",
        "longitude": "-5.833954"
      },
      "timezone": {
        "offset": "+01:00",
        "description": "Africa/Casablanca"
      },
      "avatar_url": "https://api.dicebear.com/8.x/thumbs/svg?seed=AmineBerrada"
    },
    {
      "name": "Imane Sebti",
      "gender": "Female",
      "phone_number": "+212 661 223 344",
      "street_address": "200 Rue Zerktouni",
      "street_name": "Rue Zerktouni",
      "building_number": "200",
      "city": "Agadir",
      "state": "Souss-Massa",
      "postal_code": "80000",
      "coordinates": {
        "latitude": "30.427755",
        "longitude": "-9.598107"
      },
      "timezone": {
        "offset": "+01:00",
        "description": "Africa/Casablanca"
      },
      "avatar_url": "https://api.dicebear.com/8.x/thumbs/svg?seed=ImaneSebti"
    },
    {
      "name": "Rachid Amrani",
      "gender": "Male",
      "phone_number": "+212 612 998 877",
      "street_address": "89 Boulevard Anfa",
      "street_name": "Boulevard Anfa",
      "building_number": "89",
      "city": "Casablanca",
      "state": "Casablanca-Settat",
      "postal_code": "20050",
      "coordinates": {
        "latitude": "33.585412",
        "longitude": "-7.611254"
      },
      "timezone": {
        "offset": "+01:00",
        "description": "Africa/Casablanca"
      },
      "avatar_url": "https://api.dicebear.com/8.x/thumbs/svg?seed=RachidAmrani"
    },
    {
      "name": "Zineb Hakam",
      "gender": "Female",
      "phone_number": "+212 644 889 776",
      "street_address": "56 Avenue Allal El Fassi",
      "street_name": "Avenue Allal El Fassi",
      "building_number": "56",
      "city": "Oujda",
      "state": "Oriental",
      "postal_code": "60000",
      "coordinates": {
        "latitude": "34.675599",
        "longitude": "-1.911646"
      },
      "timezone": {
        "offset": "+01:00",
        "description": "Africa/Casablanca"
      },
      "avatar_url": "https://api.dicebear.com/8.x/thumbs/svg?seed=ZinebHakam"
    },
    {
      "name": "Ayoub Meziane",
      "gender": "Male",
      "phone_number": "+212 655 443 322",
      "street_address": "67 Rue Al Qods",
      "street_name": "Rue Al Qods",
      "building_number": "67",
      "city": "T√©touan",
      "state": "Tanger-T√©touan-Al Hoce√Øma",
      "postal_code": "93000",
      "coordinates": {
        "latitude": "35.573374",
        "longitude": "-5.368413"
      },
      "timezone": {
        "offset": "+01:00",
        "description": "Africa/Casablanca"
      },
      "avatar_url": "https://api.dicebear.com/8.x/thumbs/svg?seed=AyoubMeziane"
    },
    {
      "name": "Hajar El Fassi",
      "gender": "Female",
      "phone_number": "+212 677 332 211",
      "street_address": "98 Avenue des FAR",
      "street_name": "Avenue des FAR",
      "building_number": "98",
      "city": "Kenitra",
      "state": "Rabat-Sal√©-K√©nitra",
      "postal_code": "14000",
      "coordinates": {
        "latitude": "34.261522",
        "longitude": "-6.580281"
      },
      "timezone": {
        "offset": "+01:00",
        "description": "Africa/Casablanca"
      },
      "avatar_url": "https://api.dicebear.com/8.x/thumbs/svg?seed=HajarElFassi"
    }
  ]
}