{
  "meta": {
    "country": "Pakistan",
    "country_code": "PK",
    "currency": "PKR",
    "country_flag": "ðŸ‡µðŸ‡°"
  },
  "addresses": [
    {
      "name": "Ali Raza",
      "gender": "Male",
      "phone_number": "+92 300 1234567",
      "street_address": "12 Mall Road",
      "street_name": "Mall Road",
      "building_number": "12",
      "city": "Lahore",
      "state": "Punjab",
      "postal_code": "54000",
      "coordinates": {
        "latitude": "31.5497",
        "longitude": "74.3436"
      },
      "timezone": {
        "offset": "+05:00",
        "description": "Pakistan Standard Time"
      },
      "avatar_url": "https://api.dicebear.com/8.x/thumbs/svg?seed=AliRaza"
    },
    {
      "name": "Ayesha Khan",
      "gender": "Female",
      "phone_number": "+92 301 2345678",
      "street_address": "45 Shahrah-e-Faisal",
      "street_name": "Shahrah-e-Faisal",
      "building_number": "45",
      "city": "Karachi",
      "state": "Sindh",
      "postal_code": "75350",
      "coordinates": {
        "latitude": "24.8607",
        "longitude": "67.0011"
      },
      "timezone": {
        "offset": "+05:00",
        "description": "Pakistan Standard Time"
      },
      "avatar_url": "https://api.dicebear.com/8.x/thumbs/svg?seed=AyeshaKhan"
    },
    {
      "name": "Usman Tariq",
      "gender": "Male",
      "phone_number": "+92 302 3456789",
      "street_address": "789 Jinnah Avenue",
      "street_name": "Jinnah Avenue",
      "building_number": "789",
      "city": "Islamabad",
      "state": "ICT",
      "postal_code": "44000",
      "coordinates": {
        "latitude": "33.6844",
        "longitude": "73.0479"
      },
      "timezone": {
        "offset": "+05:00",
        "description": "Pakistan Standard Time"
      },
      "avatar_url": "https://api.dicebear.com/8.x/thumbs/svg?seed=UsmanTariq"
    },
    {
      "name": "Sana Iqbal",
      "gender": "Female",
      "phone_number": "+92 303 4567890",
      "street_address": "34 The Mall",
      "street_name": "The Mall",
      "building_number": "34",
      "city": "Rawalpindi",
      "state": "Punjab",
      "postal_code": "46000",
      "coordinates": {
        "latitude": "33.6007",
        "longitude": "73.0679"
      },
      "timezone": {
        "offset": "+05:00",
        "description": "Pakistan Standard Time"
      },
      "avatar_url": "https://api.dicebear.com/8.x/thumbs/svg?seed=SanaIqbal"
    },
    {
      "name": "Ahmed Bilal",
      "gender": "Male",
      "phone_number": "+92 304 5678901",
      "street_address": "12 University Road",
      "street_name": "University Road",
      "building_number": "12",
      "city": "Peshawar",
      "state": "Khyber Pakhtunkhwa",
      "postal_code": "25000",
      "coordinates": {
        "latitude": "34.0150",
        "longitude": "71.5805"
      },
      "timezone": {
        "offset": "+05:00",
        "description": "Pakistan Standard Time"
      },
      "avatar_url": "https://api.dicebear.com/8.x/thumbs/svg?seed=AhmedBilal"
    },
    {
      "name": "Nida Ahmed",
      "gender": "Female",
      "phone_number": "+92 305 6789012",
      "street_address": "88 Gulberg Boulevard",
      "street_name": "Gulberg Boulevard",
      "building_number": "88",
      "city": "Lahore",
      "state": "Punjab",
      "postal_code": "54660",
      "coordinates": {
        "latitude": "31.5204",
        "longitude": "74.3587"
      },
      "timezone": {
        "offset": "+05:00",
        "description": "Pakistan Standard Time"
      },
      "avatar_url": "https://api.dicebear.com/8.x/thumbs/svg?seed=NidaAhmed"
    },
    {
      "name": "Zain Shah",
      "gender": "Male",
      "phone_number": "+92 306 7890123",
      "street_address": "77 Clifton Block 5",
      "street_name": "Clifton Block 5",
      "building_number": "77",
      "city": "Karachi",
      "state": "Sindh",
      "postal_code": "75600",
      "coordinates": {
        "latitude": "24.8138",
        "longitude": "67.0304"
      },
      "timezone": {
        "offset": "+05:00",
        "description": "Pakistan Standard Time"
      },
      "avatar_url": "https://api.dicebear.com/8.x/thumbs/svg?seed=ZainShah"
    },
    {
      "name": "Rabia Noor",
      "gender": "Female",
      "phone_number": "+92 307 8901234",
      "street_address": "22 I-8 Markaz",
      "street_name": "I-8 Markaz",
      "building_number": "22",
      "city": "Islamabad",
      "state": "ICT",
      "postal_code": "44000",
      "coordinates": {
        "latitude": "33.6938",
        "longitude": "73.0652"
      },
      "timezone": {
        "offset": "+05:00",
        "description": "Pakistan Standard Time"
      },
      "avatar_url": "https://api.dicebear.com/8.x/thumbs/svg?seed=RabiaNoor"
    },
    {
      "name": "Imran Saeed",
      "gender": "Male",
      "phone_number": "+92 308 9012345",
      "street_address": "66 Saddar Bazaar",
      "street_name": "Saddar Bazaar",
      "building_number": "66",
      "city": "Rawalpindi",
      "state": "Punjab",
      "postal_code": "46000",
      "coordinates": {
        "latitude": "33.6036",
        "longitude": "73.0490"
      },
      "timezone": {
        "offset": "+05:00",
        "description": "Pakistan Standard Time"
      },
      "avatar_url": "https://api.dicebear.com/8.x/thumbs/svg?seed=ImranSaeed"
    },
    {
      "name": "Hira Javed",
      "gender": "Female",
      "phone_number": "+92 309 0123456",
      "street_address": "55 University Town",
      "street_name": "University Town",
      "building_number": "55",
      "city": "Peshawar",
      "state": "Khyber Pakhtunkhwa",
      "postal_code": "25000",
      "coordinates": {
        "latitude": "34.0070",
        "longitude": "71.5464"
      },
      "timezone": {
        "offset": "+05:00",
        "description": "Pakistan Standard Time"
      },
      "avatar_url": "https://api.dicebear.com/8.x/thumbs/svg?seed=HiraJaved"
    }
  ]
}