{
  "meta": {
    "country": "Portugal",
    "country_code": "PT",
    "currency": "EUR",
    "country_flag": "üáµüáπ"
  },
  "addresses": [
    {
      "name": "Jo√£o Almeida",
      "gender": "Male",
      "phone_number": "+351 912 345 678",
      "street_address": "123 Avenida da Liberdade",
      "street_name": "Avenida da Liberdade",
      "building_number": "123",
      "city": "Lisbon",
      "state": "Lisbon District",
      "postal_code": "1250-140",
      "coordinates": {
        "latitude": "38.7169",
        "longitude": "-9.1399"
      },
      "timezone": {
        "offset": "+01:00",
        "description": "Western European Summer Time"
      },
      "avatar_url": "https://api.dicebear.com/8.x/thumbs/svg?seed=JoaoAlmeida"
    },
    {
      "name": "Ana Ferreira",
      "gender": "Female",
      "phone_number": "+351 913 456 789",
      "street_address": "45 Rua de Santa Catarina",
      "street_name": "Rua de Santa Catarina",
      "building_number": "45",
      "city": "Porto",
      "state": "Porto District",
      "postal_code": "4000-447",
      "coordinates": {
        "latitude": "41.1496",
        "longitude": "-8.6109"
      },
      "timezone": {
        "offset": "+01:00",
        "description": "Western European Summer Time"
      },
      "avatar_url": "https://api.dicebear.com/8.x/thumbs/svg?seed=AnaFerreira"
    },
    {
      "name": "Miguel Rocha",
      "gender": "Male",
      "phone_number": "+351 914 567 890",
      "street_address": "78 Avenida Central",
      "street_name": "Avenida Central",
      "building_number": "78",
      "city": "Braga",
      "state": "Braga District",
      "postal_code": "4710-229",
      "coordinates": {
        "latitude": "41.5483",
        "longitude": "-8.4265"
      },
      "timezone": {
        "offset": "+01:00",
        "description": "Western European Summer Time"
      },
      "avatar_url": "https://api.dicebear.com/8.x/thumbs/svg?seed=MiguelRocha"
    },
    {
      "name": "Sofia Costa",
      "gender": "Female",
      "phone_number": "+351 915 678 901",
      "street_address": "101 Rua 5 de Outubro",
      "street_name": "Rua 5 de Outubro",
      "building_number": "101",
      "city": "Coimbra",
      "state": "Coimbra District",
      "postal_code": "3000-056",
      "coordinates": {
        "latitude": "40.2056",
        "longitude": "-8.4196"
      },
      "timezone": {
        "offset": "+01:00",
        "description": "Western European Summer Time"
      },
      "avatar_url": "https://api.dicebear.com/8.x/thumbs/svg?seed=SofiaCosta"
    },
    {
      "name": "Ricardo Matos",
      "gender": "Male",
      "phone_number": "+351 916 789 012",
      "street_address": "34 Rua da Restaura√ß√£o",
      "street_name": "Rua da Restaura√ß√£o",
      "building_number": "34",
      "city": "Funchal",
      "state": "Madeira",
      "postal_code": "9000-060",
      "coordinates": {
        "latitude": "32.6669",
        "longitude": "-16.9241"
      },
      "timezone": {
        "offset": "+01:00",
        "description": "Western European Summer Time"
      },
      "avatar_url": "https://api.dicebear.com/8.x/thumbs/svg?seed=RicardoMatos"
    },
    {
      "name": "Carla Santos",
      "gender": "Female",
      "phone_number": "+351 917 890 123",
      "street_address": "56 Rua das Flores",
      "street_name": "Rua das Flores",
      "building_number": "56",
      "city": "Lisbon",
      "state": "Lisbon District",
      "postal_code": "1200-195",
      "coordinates": {
        "latitude": "38.7223",
        "longitude": "-9.1393"
      },
      "timezone": {
        "offset": "+01:00",
        "description": "Western European Summer Time"
      },
      "avatar_url": "https://api.dicebear.com/8.x/thumbs/svg?seed=CarlaSantos"
    },
    {
      "name": "Pedro Silva",
      "gender": "Male",
      "phone_number": "+351 918 901 234",
      "street_address": "89 Avenida da Boavista",
      "street_name": "Avenida da Boavista",
      "building_number": "89",
      "city": "Porto",
      "state": "Porto District",
      "postal_code": "4100-121",
      "coordinates": {
        "latitude": "41.1495",
        "longitude": "-8.6108"
      },
      "timezone": {
        "offset": "+01:00",
        "description": "Western European Summer Time"
      },
      "avatar_url": "https://api.dicebear.com/8.x/thumbs/svg?seed=PedroSilva"
    },
    {
      "name": "Mariana Lopes",
      "gender": "Female",
      "phone_number": "+351 919 012 345",
      "street_address": "77 Rua Direita",
      "street_name": "Rua Direita",
      "building_number": "77",
      "city": "Viseu",
      "state": "Viseu District",
      "postal_code": "3500-125",
      "coordinates": {
        "latitude": "40.6610",
        "longitude": "-7.9097"
      },
      "timezone": {
        "offset": "+01:00",
        "description": "Western European Summer Time"
      },
      "avatar_url": "https://api.dicebear.com/8.x/thumbs/svg?seed=MarianaLopes"
    },
    {
      "name": "Andr√© Martins",
      "gender": "Male",
      "phone_number": "+351 920 123 456",
      "street_address": "65 Pra√ßa da Rep√∫blica",
      "street_name": "Pra√ßa da Rep√∫blica",
      "building_number": "65",
      "city": "√âvora",
      "state": "√âvora District",
      "postal_code": "7000-656",
      "coordinates": {
        "latitude": "38.5705",
        "longitude": "-7.9122"
      },
      "timezone": {
        "offset": "+01:00",
        "description": "Western European Summer Time"
      },
      "avatar_url": "https://api.dicebear.com/8.x/thumbs/svg?seed=AndreMartins"
    },
    {
      "name": "Beatriz Teixeira",
      "gender": "Female",
      "phone_number": "+351 921 234 567",
      "street_address": "88 Rua do Carmo",
      "street_name": "Rua do Carmo",
      "building_number": "88",
      "city": "Lisbon",
      "state": "Lisbon District",
      "postal_code": "1200-093",
      "coordinates": {
        "latitude": "38.7169",
        "longitude": "-9.1399"
      },
      "timezone": {
        "offset": "+01:00",
        "description": "Western European Summer Time"
      },
      "avatar_url": "https://api.dicebear.com/8.x/thumbs/svg?seed=BeatrizTeixeira"
    }
  ]
}