{
  "meta": {
    "country": "Romania",
    "country_code": "RO",
    "currency": "RON",
    "country_flag": "üá∑üá¥"
  },
  "addresses": [
    {
      "name": "Andrei Popescu",
      "gender": "Male",
      "phone_number": "+40 721 123 456",
      "street_address": "123 Bulevardul Unirii",
      "street_name": "Bulevardul Unirii",
      "building_number": "123",
      "city": "Bucharest",
      "state": "Bucharest",
      "postal_code": "030833",
      "coordinates": {
        "latitude": "44.4268",
        "longitude": "26.1025"
      },
      "timezone": {
        "offset": "+02:00",
        "description": "Eastern European Time"
      },
      "avatar_url": "https://api.dicebear.com/8.x/thumbs/svg?seed=AndreiPopescu"
    },
    {
      "name": "Elena Ionescu",
      "gender": "Female",
      "phone_number": "+40 722 987 654",
      "street_address": "45 Strada Horea",
      "street_name": "Strada Horea",
      "building_number": "45",
      "city": "Cluj-Napoca",
      "state": "Cluj County",
      "postal_code": "400038",
      "coordinates": {
        "latitude": "46.7712",
        "longitude": "23.6236"
      },
      "timezone": {
        "offset": "+02:00",
        "description": "Eastern European Time"
      },
      "avatar_url": "https://api.dicebear.com/8.x/thumbs/svg?seed=ElenaIonescu"
    },
    {
      "name": "Mihai Georgescu",
      "gender": "Male",
      "phone_number": "+40 723 111 222",
      "street_address": "78 Strada »òtefan cel Mare",
      "street_name": "Strada »òtefan cel Mare",
      "building_number": "78",
      "city": "Ia»ôi",
      "state": "Ia»ôi County",
      "postal_code": "700063",
      "coordinates": {
        "latitude": "47.1585",
        "longitude": "27.6014"
      },
      "timezone": {
        "offset": "+02:00",
        "description": "Eastern European Time"
      },
      "avatar_url": "https://api.dicebear.com/8.x/thumbs/svg?seed=MihaiGeorgescu"
    },
    {
      "name": "Ioana Radu",
      "gender": "Female",
      "phone_number": "+40 724 333 444",
      "street_address": "101 Calea Victoriei",
      "street_name": "Calea Victoriei",
      "building_number": "101",
      "city": "Bra»ôov",
      "state": "Bra»ôov County",
      "postal_code": "500036",
      "coordinates": {
        "latitude": "45.6432",
        "longitude": "25.5882"
      },
      "timezone": {
        "offset": "+02:00",
        "description": "Eastern European Time"
      },
      "avatar_url": "https://api.dicebear.com/8.x/thumbs/svg?seed=IoanaRadu"
    },
    {
      "name": "Alin Dumitrescu",
      "gender": "Male",
      "phone_number": "+40 725 555 666",
      "street_address": "34 Strada Republicii",
      "street_name": "Strada Republicii",
      "building_number": "34",
      "city": "Timi»ôoara",
      "state": "Timi»ô County",
      "postal_code": "300003",
      "coordinates": {
        "latitude": "45.7489",
        "longitude": "21.2087"
      },
      "timezone": {
        "offset": "+02:00",
        "description": "Eastern European Time"
      },
      "avatar_url": "https://api.dicebear.com/8.x/thumbs/svg?seed=AlinDumitrescu"
    },
    {
      "name": "Raluca Petrescu",
      "gender": "Female",
      "phone_number": "+40 726 777 888",
      "street_address": "22 Strada LibertƒÉ»õii",
      "street_name": "Strada LibertƒÉ»õii",
      "building_number": "22",
      "city": "Sibiu",
      "state": "Sibiu County",
      "postal_code": "550260",
      "coordinates": {
        "latitude": "45.7983",
        "longitude": "24.1256"
      },
      "timezone": {
        "offset": "+02:00",
        "description": "Eastern European Time"
      },
      "avatar_url": "https://api.dicebear.com/8.x/thumbs/svg?seed=RalucaPetrescu"
    },
    {
      "name": "Cristian Marinescu",
      "gender": "Male",
      "phone_number": "+40 727 999 000",
      "street_address": "99 Strada Cuza VodƒÉ",
      "street_name": "Strada Cuza VodƒÉ",
      "building_number": "99",
      "city": "Constan»õa",
      "state": "Constan»õa County",
      "postal_code": "900178",
      "coordinates": {
        "latitude": "44.1598",
        "longitude": "28.6348"
      },
      "timezone": {
        "offset": "+02:00",
        "description": "Eastern European Time"
      },
      "avatar_url": "https://api.dicebear.com/8.x/thumbs/svg?seed=CristianMarinescu"
    },
    {
      "name": "Diana Iliescu",
      "gender": "Female",
      "phone_number": "+40 728 654 321",
      "street_address": "67 Bulevardul Independen»õei",
      "street_name": "Bulevardul Independen»õei",
      "building_number": "67",
      "city": "Ploie»ôti",
      "state": "Prahova County",
      "postal_code": "100068",
      "coordinates": {
        "latitude": "44.9429",
        "longitude": "26.0225"
      },
      "timezone": {
        "offset": "+02:00",
        "description": "Eastern European Time"
      },
      "avatar_url": "https://api.dicebear.com/8.x/thumbs/svg?seed=DianaIliescu"
    },
    {
      "name": "Vlad Enescu",
      "gender": "Male",
      "phone_number": "+40 729 222 333",
      "street_address": "55 Strada Mihai Viteazul",
      "street_name": "Strada Mihai Viteazul",
      "building_number": "55",
      "city": "Craiova",
      "state": "Dolj County",
      "postal_code": "200589",
      "coordinates": {
        "latitude": "44.3302",
        "longitude": "23.7949"
      },
      "timezone": {
        "offset": "+02:00",
        "description": "Eastern European Time"
      },
      "avatar_url": "https://api.dicebear.com/8.x/thumbs/svg?seed=VladEnescu"
    },
    {
      "name": "Anca Tudor",
      "gender": "Female",
      "phone_number": "+40 730 888 999",
      "street_address": "11 Strada PrimƒÉverii",
      "street_name": "Strada PrimƒÉverii",
      "building_number": "11",
      "city": "Oradea",
      "state": "Bihor County",
      "postal_code": "410100",
      "coordinates": {
        "latitude": "47.0722",
        "longitude": "21.9211"
      },
      "timezone": {
        "offset": "+02:00",
        "description": "Eastern European Time"
      },
      "avatar_url": "https://api.dicebear.com/8.x/thumbs/svg?seed=AncaTudor"
    }
  ]
}