{
  "meta": {
    "country": "Thailand",
    "country_code": "TH",
    "currency": "THB",
    "country_flag": "ðŸ‡¹ðŸ‡­"
  },
  "addresses": [
    {
      "name": "Anan Wong",
      "gender": "Male",
      "phone_number": "+66 81 234 5678",
      "street_address": "123 Sukhumvit Road",
      "street_name": "Sukhumvit Road",
      "building_number": "123",
      "city": "Bangkok",
      "state": "Bangkok",
      "postal_code": "10110",
      "coordinates": {
        "latitude": "13.7300",
        "longitude": "100.5800"
      },
      "timezone": {
        "offset": "+07:00",
        "description": "Indochina Time"
      },
      "avatar_url": "https://api.dicebear.com/8.x/thumbs/svg?seed=AnanWong"
    },
    {
      "name": "Natcha Kittisak",
      "gender": "Female",
      "phone_number": "+66 82 345 6789",
      "street_address": "456 Ratchadamnoen Avenue",
      "street_name": "Ratchadamnoen Avenue",
      "building_number": "456",
      "city": "Bangkok",
      "state": "Bangkok",
      "postal_code": "10200",
      "coordinates": {
        "latitude": "13.7523",
        "longitude": "100.4950"
      },
      "timezone": {
        "offset": "+07:00",
        "description": "Indochina Time"
      },
      "avatar_url": "https://api.dicebear.com/8.x/thumbs/svg?seed=NatchaKittisak"
    },
    {
      "name": "Preecha Supaporn",
      "gender": "Male",
      "phone_number": "+66 83 456 7890",
      "street_address": "789 Nimmanhaemin Road",
      "street_name": "Nimmanhaemin Road",
      "building_number": "789",
      "city": "Chiang Mai",
      "state": "Chiang Mai",
      "postal_code": "50200",
      "coordinates": {
        "latitude": "18.7961",
        "longitude": "98.9781"
      },
      "timezone": {
        "offset": "+07:00",
        "description": "Indochina Time"
      },
      "avatar_url": "https://api.dicebear.com/8.x/thumbs/svg?seed=PreechaSupaporn"
    },
    {
      "name": "Suwanna Chaiyasit",
      "gender": "Female",
      "phone_number": "+66 84 567 8901",
      "street_address": "101 Beach Road",
      "street_name": "Beach Road",
      "building_number": "101",
      "city": "Pattaya",
      "state": "Chonburi",
      "postal_code": "20150",
      "coordinates": {
        "latitude": "12.9276",
        "longitude": "100.8770"
      },
      "timezone": {
        "offset": "+07:00",
        "description": "Indochina Time"
      },
      "avatar_url": "https://api.dicebear.com/8.x/thumbs/svg?seed=SuwannaChaiyasit"
    },
    {
      "name": "Jirapat Boonmee",
      "gender": "Male",
      "phone_number": "+66 85 678 9012",
      "street_address": "34 Tha Pae Road",
      "street_name": "Tha Pae Road",
      "building_number": "34",
      "city": "Chiang Mai",
      "state": "Chiang Mai",
      "postal_code": "50100",
      "coordinates": {
        "latitude": "18.7890",
        "longitude": "98.9850"
      },
      "timezone": {
        "offset": "+07:00",
        "description": "Indochina Time"
      },
      "avatar_url": "https://api.dicebear.com/8.x/thumbs/svg?seed=JirapatBoonmee"
    },
    {
      "name": "Nannapat Wongsuwan",
      "gender": "Female",
      "phone_number": "+66 86 789 0123",
      "street_address": "99 Rama IV Road",
      "street_name": "Rama IV Road",
      "building_number": "99",
      "city": "Bangkok",
      "state": "Bangkok",
      "postal_code": "10330",
      "coordinates": {
        "latitude": "13.7303",
        "longitude": "100.5600"
      },
      "timezone": {
        "offset": "+07:00",
        "description": "Indochina Time"
      },
      "avatar_url": "https://api.dicebear.com/8.x/thumbs/svg?seed=NannapatWongsuwan"
    },
    {
      "name": "Krit Kanchanaburi",
      "gender": "Male",
      "phone_number": "+66 87 890 1234",
      "street_address": "50 Ratchaprarop Road",
      "street_name": "Ratchaprarop Road",
      "building_number": "50",
      "city": "Bangkok",
      "state": "Bangkok",
      "postal_code": "10400",
      "coordinates": {
        "latitude": "13.7450",
        "longitude": "100.5400"
      },
      "timezone": {
        "offset": "+07:00",
        "description": "Indochina Time"
      },
      "avatar_url": "https://api.dicebear.com/8.x/thumbs/svg?seed=KritKanchanaburi"
    },
    {
      "name": "Wilawan Supachai",
      "gender": "Female",
      "phone_number": "+66 88 901 2345",
      "street_address": "12 Silom Road",
      "street_name": "Silom Road",
      "building_number": "12",
      "city": "Bangkok",
      "state": "Bangkok",
      "postal_code": "10500",
      "coordinates": {
        "latitude": "13.7290",
        "longitude": "100.5340"
      },
      "timezone": {
        "offset": "+07:00",
        "description": "Indochina Time"
      },
      "avatar_url": "https://api.dicebear.com/8.x/thumbs/svg?seed=WilawanSupachai"
    },
    {
      "name": "Thanawat Chonburi",
      "gender": "Male",
      "phone_number": "+66 89 012 3456",
      "street_address": "66 Pattaya Sai 2 Road",
      "street_name": "Pattaya Sai 2 Road",
      "building_number": "66",
      "city": "Pattaya",
      "state": "Chonburi",
      "postal_code": "20150",
      "coordinates": {
        "latitude": "12.9279",
        "longitude": "100.8765"
      },
      "timezone": {
        "offset": "+07:00",
        "description": "Indochina Time"
      },
      "avatar_url": "https://api.dicebear.com/8.x/thumbs/svg?seed=ThanawatChonburi"
    },
    {
      "name": "Patcharee Intanon",
      "gender": "Female",
      "phone_number": "+66 80 123 4567",
      "street_address": "77 Chang Klan Road",
      "street_name": "Chang Klan Road",
      "building_number": "77",
      "city": "Chiang Mai",
      "state": "Chiang Mai",
      "postal_code": "50100",
      "coordinates": {
        "latitude": "18.7850",
        "longitude": "98.9800"
      },
      "timezone": {
        "offset": "+07:00",
        "description": "Indochina Time"
      },
      "avatar_url": "https://api.dicebear.com/8.x/thumbs/svg?seed=PatchareeIntanon"
    }
  ]
}