{
  "meta": {
    "country": "Venezuela",
    "country_code": "VE",
    "currency": "VES",
    "country_flag": "üáªüá™"
  },
  "addresses": [
    {
      "name": "Sof√≠a Gonz√°lez",
      "gender": "Female",
      "phone_number": "+58 412-1234567",
      "street_address": "123 Avenida Libertador",
      "street_name": "Avenida Libertador",
      "building_number": "123",
      "city": "Caracas",
      "state": "Distrito Capital",
      "postal_code": "1010",
      "coordinates": {
        "latitude": "10.4806",
        "longitude": "-66.9036"
      },
      "timezone": {
        "offset": "-04:00",
        "description": "Venezuela Standard Time"
      },
      "avatar_url": "https://api.dicebear.com/8.x/thumbs/svg?seed=SofiaGonzalez"
    },
    {
      "name": "Diego Rodr√≠guez",
      "gender": "Male",
      "phone_number": "+58 414-2345678",
      "street_address": "45 Calle Sucre",
      "street_name": "Calle Sucre",
      "building_number": "45",
      "city": "Maracaibo",
      "state": "Zulia",
      "postal_code": "4001",
      "coordinates": {
        "latitude": "10.6545",
        "longitude": "-71.6536"
      },
      "timezone": {
        "offset": "-04:00",
        "description": "Venezuela Standard Time"
      },
      "avatar_url": "https://api.dicebear.com/8.x/thumbs/svg?seed=DiegoRodriguez"
    },
    {
      "name": "Valentina Mart√≠nez",
      "gender": "Female",
      "phone_number": "+58 416-3456789",
      "street_address": "78 Avenida Bolivar",
      "street_name": "Avenida Bolivar",
      "building_number": "78",
      "city": "Valencia",
      "state": "Carabobo",
      "postal_code": "2001",
      "coordinates": {
        "latitude": "10.1623",
        "longitude": "-68.0077"
      },
      "timezone": {
        "offset": "-04:00",
        "description": "Venezuela Standard Time"
      },
      "avatar_url": "https://api.dicebear.com/8.x/thumbs/svg?seed=ValentinaMartinez"
    },
    {
      "name": "Javier P√©rez",
      "gender": "Male",
      "phone_number": "+58 424-4567890",
      "street_address": "101 Calle Miranda",
      "street_name": "Calle Miranda",
      "building_number": "101",
      "city": "Barquisimeto",
      "state": "Lara",
      "postal_code": "3001",
      "coordinates": {
        "latitude": "10.0628",
        "longitude": "-69.3451"
      },
      "timezone": {
        "offset": "-04:00",
        "description": "Venezuela Standard Time"
      },
      "avatar_url": "https://api.dicebear.com/8.x/thumbs/svg?seed=JavierPerez"
    },
    {
      "name": "Camila Ram√≠rez",
      "gender": "Female",
      "phone_number": "+58 426-5678901",
      "street_address": "34 Avenida Universidad",
      "street_name": "Avenida Universidad",
      "building_number": "34",
      "city": "Puerto La Cruz",
      "state": "Anzo√°tegui",
      "postal_code": "6023",
      "coordinates": {
        "latitude": "10.2087",
        "longitude": "-64.6201"
      },
      "timezone": {
        "offset": "-04:00",
        "description": "Venezuela Standard Time"
      },
      "avatar_url": "https://api.dicebear.com/8.x/thumbs/svg?seed=CamilaRamirez"
    },
    {
      "name": "Andr√©s Morales",
      "gender": "Male",
      "phone_number": "+58 412-6789012",
      "street_address": "88 Avenida Principal",
      "street_name": "Avenida Principal",
      "building_number": "88",
      "city": "Matur√≠n",
      "state": "Monagas",
      "postal_code": "6201",
      "coordinates": {
        "latitude": "9.7431",
        "longitude": "-63.1836"
      },
      "timezone": {
        "offset": "-04:00",
        "description": "Venezuela Standard Time"
      },
      "avatar_url": "https://api.dicebear.com/8.x/thumbs/svg?seed=AndresMorales"
    },
    {
      "name": "Luc√≠a Herrera",
      "gender": "Female",
      "phone_number": "+58 414-7890123",
      "street_address": "67 Calle Nueva",
      "street_name": "Calle Nueva",
      "building_number": "67",
      "city": "San Crist√≥bal",
      "state": "T√°chira",
      "postal_code": "5001",
      "coordinates": {
        "latitude": "7.7663",
        "longitude": "-72.2250"
      },
      "timezone": {
        "offset": "-04:00",
        "description": "Venezuela Standard Time"
      },
      "avatar_url": "https://api.dicebear.com/8.x/thumbs/svg?seed=LuciaHerrera"
    },
    {
      "name": "Tom√°s Rojas",
      "gender": "Male",
      "phone_number": "+58 416-8901234",
      "street_address": "59 Calle Carabobo",
      "street_name": "Calle Carabobo",
      "building_number": "59",
      "city": "Cuman√°",
      "state": "Sucre",
      "postal_code": "6101",
      "coordinates": {
        "latitude": "10.4603",
        "longitude": "-64.1780"
      },
      "timezone": {
        "offset": "-04:00",
        "description": "Venezuela Standard Time"
      },
      "avatar_url": "https://api.dicebear.com/8.x/thumbs/svg?seed=TomasRojas"
    },
    {
      "name": "Isabela Mendoza",
      "gender": "Female",
      "phone_number": "+58 424-9012345",
      "street_address": "22 Avenida Vargas",
      "street_name": "Avenida Vargas",
      "building_number": "22",
      "city": "M√©rida",
      "state": "M√©rida",
      "postal_code": "5101",
      "coordinates": {
        "latitude": "8.5920",
        "longitude": "-71.1449"
      },
      "timezone": {
        "offset": "-04:00",
        "description": "Venezuela Standard Time"
      },
      "avatar_url": "https://api.dicebear.com/8.x/thumbs/svg?seed=IsabelaMendoza"
    },
    {
      "name": "Daniel Castillo",
      "gender": "Male",
      "phone_number": "+58 426-0123456",
      "street_address": "31 Calle El Sol",
      "street_name": "Calle El Sol",
      "building_number": "31",
      "city": "Ciudad Bol√≠var",
      "state": "Bol√≠var",
      "postal_code": "8001",
      "coordinates": {
        "latitude": "8.1228",
        "longitude": "-62.6119"
      },
      "timezone": {
        "offset": "-04:00",
        "description": "Venezuela Standard Time"
      },
      "avatar_url": "https://api.dicebear.com/8.x/thumbs/svg?seed=DanielCastillo"
    }
  ]
}