{
  "meta": {
    "country": "Kingdom of Belgium",
    "country_code": "BE",
    "currency": "EUR",
    "country_flag": "ðŸ‡§ðŸ‡ª"
  },
  "addresses": [
    {
      "name": "Lucas Dupont",
      "gender": "Male",
      "phone_number": "+32 470 12 34 56",
      "street_address": "123 Rue de la Loi",
      "street_name": "Rue de la Loi",
      "building_number": "123",
      "city": "Brussels",
      "state": "Brussels-Capital",
      "postal_code": "1000",
      "coordinates": {
        "latitude": "50.8466",
        "longitude": "4.3646"
      },
      "timezone": {
        "offset": "+01:00",
        "description": "Europe/Brussels"
      },
      "avatar_url": "https://api.dicebear.com/8.x/thumbs/svg?seed=LucasDupont"
    },
    {
      "name": "Emma Lambert",
      "gender": "Female",
      "phone_number": "+32 478 23 45 67",
      "street_address": "456 Grand Place",
      "street_name": "Grand Place",
      "building_number": "456",
      "city": "Brussels",
      "state": "Brussels-Capital",
      "postal_code": "1000",
      "coordinates": {
        "latitude": "50.8467",
        "longitude": "4.3499"
      },
      "timezone": {
        "offset": "+01:00",
        "description": "Europe/Brussels"
      },
      "avatar_url": "https://api.dicebear.com/8.x/thumbs/svg?seed=EmmaLambert"
    },
    {
      "name": "Thomas Vermeulen",
      "gender": "Male",
      "phone_number": "+32 475 34 56 78",
      "street_address": "789 Meir Street",
      "street_name": "Meir Street",
      "building_number": "789",
      "city": "Antwerp",
      "state": "Antwerp",
      "postal_code": "2000",
      "coordinates": {
        "latitude": "51.2172",
        "longitude": "4.4210"
      },
      "timezone": {
        "offset": "+01:00",
        "description": "Europe/Brussels"
      },
      "avatar_url": "https://api.dicebear.com/8.x/thumbs/svg?seed=ThomasVermeulen"
    },
    {
      "name": "Laura Peeters",
      "gender": "Female",
      "phone_number": "+32 495 45 67 89",
      "street_address": "101 Naamsestraat",
      "street_name": "Naamsestraat",
      "building_number": "101",
      "city": "Leuven",
      "state": "Flemish Brabant",
      "postal_code": "3000",
      "coordinates": {
        "latitude": "50.8786",
        "longitude": "4.7009"
      },
      "timezone": {
        "offset": "+01:00",
        "description": "Europe/Brussels"
      },
      "avatar_url": "https://api.dicebear.com/8.x/thumbs/svg?seed=LauraPeeters"
    },
    {
      "name": "Noah Willems",
      "gender": "Male",
      "phone_number": "+32 465 56 78 90",
      "street_address": "34 Veldstraat",
      "street_name": "Veldstraat",
      "building_number": "34",
      "city": "Ghent",
      "state": "East Flanders",
      "postal_code": "9000",
      "coordinates": {
        "latitude": "51.0535",
        "longitude": "3.7304"
      },
      "timezone": {
        "offset": "+01:00",
        "description": "Europe/Brussels"
      },
      "avatar_url": "https://api.dicebear.com/8.x/thumbs/svg?seed=NoahWillems"
    },
    {
      "name": "Julie Claes",
      "gender": "Female",
      "phone_number": "+32 493 67 89 01",
      "street_address": "12 Avenue Louise",
      "street_name": "Avenue Louise",
      "building_number": "12",
      "city": "Brussels",
      "state": "Brussels-Capital",
      "postal_code": "1050",
      "coordinates": {
        "latitude": "50.8305",
        "longitude": "4.3571"
      },
      "timezone": {
        "offset": "+01:00",
        "description": "Europe/Brussels"
      },
      "avatar_url": "https://api.dicebear.com/8.x/thumbs/svg?seed=JulieClaes"
    },
    {
      "name": "Mathis Dewaele",
      "gender": "Male",
      "phone_number": "+32 488 78 90 12",
      "street_address": "55 Kammenstraat",
      "street_name": "Kammenstraat",
      "building_number": "55",
      "city": "Antwerp",
      "state": "Antwerp",
      "postal_code": "2000",
      "coordinates": {
        "latitude": "51.2169",
        "longitude": "4.4035"
      },
      "timezone": {
        "offset": "+01:00",
        "description": "Europe/Brussels"
      },
      "avatar_url": "https://api.dicebear.com/8.x/thumbs/svg?seed=MathisDewaele"
    },
    {
      "name": "Elise Maes",
      "gender": "Female",
      "phone_number": "+32 486 89 01 23",
      "street_address": "67 Hoogpoort",
      "street_name": "Hoogpoort",
      "building_number": "67",
      "city": "Ghent",
      "state": "East Flanders",
      "postal_code": "9000",
      "coordinates": {
        "latitude": "51.0564",
        "longitude": "3.7247"
      },
      "timezone": {
        "offset": "+01:00",
        "description": "Europe/Brussels"
      },
      "avatar_url": "https://api.dicebear.com/8.x/thumbs/svg?seed=EliseMaes"
    },
    {
      "name": "Victor De Smet",
      "gender": "Male",
      "phone_number": "+32 499 90 12 34",
      "street_address": "23 Martelarenlaan",
      "street_name": "Martelarenlaan",
      "building_number": "23",
      "city": "Leuven",
      "state": "Flemish Brabant",
      "postal_code": "3010",
      "coordinates": {
        "latitude": "50.8823",
        "longitude": "4.7152"
      },
      "timezone": {
        "offset": "+01:00",
        "description": "Europe/Brussels"
      },
      "avatar_url": "https://api.dicebear.com/8.x/thumbs/svg?seed=VictorDeSmet"
    },
    {
      "name": "Manon Janssens",
      "gender": "Female",
      "phone_number": "+32 487 12 23 34",
      "street_address": "88 ChaussÃ©e de Haecht",
      "street_name": "ChaussÃ©e de Haecht",
      "building_number": "88",
      "city": "Brussels",
      "state": "Brussels-Capital",
      "postal_code": "1030",
      "coordinates": {
        "latitude": "50.8655",
        "longitude": "4.3700"
      },
      "timezone": {
        "offset": "+01:00",
        "description": "Europe/Brussels"
      },
      "avatar_url": "https://api.dicebear.com/8.x/thumbs/svg?seed=ManonJanssens"
    }
  ]
}