{
  "meta": {
    "country": "Cameroon",
    "country_code": "CM",
    "currency": "XAF",
    "country_flag": "üá®üá≤"
  },
  "addresses": [
    {
      "name": "Jean-Beno√Æt Mbarga",
      "gender": "Male",
      "phone_number": "+237 6 90 12 34 56",
      "street_address": "123 Rue Koloko",
      "street_name": "Rue Koloko",
      "building_number": "123",
      "city": "Yaound√©",
      "state": "Centre Region",
      "postal_code": "237001",
      "coordinates": {
        "latitude": "3.8480",
        "longitude": "11.5021"
      },
      "timezone": {
        "offset": "+01:00",
        "description": "Africa/Douala"
      },
      "avatar_url": "https://api.dicebear.com/8.x/thumbs/svg?seed=JeanBeno√ÆtMbarga"
    },
    {
      "name": "Estelle Ngono",
      "gender": "Female",
      "phone_number": "+237 6 97 23 45 67",
      "street_address": "45 Avenue du G√©n√©ral de Gaulle",
      "street_name": "Avenue du G√©n√©ral de Gaulle",
      "building_number": "45",
      "city": "Douala",
      "state": "Littoral Region",
      "postal_code": "237002",
      "coordinates": {
        "latitude": "4.0511",
        "longitude": "9.7679"
      },
      "timezone": {
        "offset": "+01:00",
        "description": "Africa/Douala"
      },
      "avatar_url": "https://api.dicebear.com/8.x/thumbs/svg?seed=EstelleNgono"
    },
    {
      "name": "Arnaud Ndongo",
      "gender": "Male",
      "phone_number": "+237 6 95 67 89 01",
      "street_address": "78 Rue de la Libert√©",
      "street_name": "Rue de la Libert√©",
      "building_number": "78",
      "city": "Garoua",
      "state": "North Region",
      "postal_code": "237003",
      "coordinates": {
        "latitude": "9.3004",
        "longitude": "13.3940"
      },
      "timezone": {
        "offset": "+01:00",
        "description": "Africa/Douala"
      },
      "avatar_url": "https://api.dicebear.com/8.x/thumbs/svg?seed=ArnaudNdongo"
    },
    {
      "name": "Clarisse Fotso",
      "gender": "Female",
      "phone_number": "+237 6 94 78 90 12",
      "street_address": "101 Boulevard Ahmadou Ahidjo",
      "street_name": "Boulevard Ahmadou Ahidjo",
      "building_number": "101",
      "city": "Bamenda",
      "state": "Northwest Region",
      "postal_code": "237004",
      "coordinates": {
        "latitude": "5.9631",
        "longitude": "10.1591"
      },
      "timezone": {
        "offset": "+01:00",
        "description": "Africa/Douala"
      },
      "avatar_url": "https://api.dicebear.com/8.x/thumbs/svg?seed=ClarisseFotso"
    },
    {
      "name": "Franck Tchameni",
      "gender": "Male",
      "phone_number": "+237 6 93 56 78 90",
      "street_address": "34 Rue des Palmiers",
      "street_name": "Rue des Palmiers",
      "building_number": "34",
      "city": "Buea",
      "state": "Southwest Region",
      "postal_code": "237005",
      "coordinates": {
        "latitude": "4.1603",
        "longitude": "9.2415"
      },
      "timezone": {
        "offset": "+01:00",
        "description": "Africa/Douala"
      },
      "avatar_url": "https://api.dicebear.com/8.x/thumbs/svg?seed=FranckTchameni"
    },
    {
      "name": "Alice Nlend",
      "gender": "Female",
      "phone_number": "+237 6 92 45 67 89",
      "street_address": "90 Rue Bastos",
      "street_name": "Rue Bastos",
      "building_number": "90",
      "city": "Yaound√©",
      "state": "Centre Region",
      "postal_code": "237006",
      "coordinates": {
        "latitude": "3.8678",
        "longitude": "11.5129"
      },
      "timezone": {
        "offset": "+01:00",
        "description": "Africa/Douala"
      },
      "avatar_url": "https://api.dicebear.com/8.x/thumbs/svg?seed=AliceNlend"
    },
    {
      "name": "Herv√© Kamdem",
      "gender": "Male",
      "phone_number": "+237 6 91 33 44 55",
      "street_address": "56 Boulevard de la R√©publique",
      "street_name": "Boulevard de la R√©publique",
      "building_number": "56",
      "city": "Douala",
      "state": "Littoral Region",
      "postal_code": "237007",
      "coordinates": {
        "latitude": "4.0506",
        "longitude": "9.7897"
      },
      "timezone": {
        "offset": "+01:00",
        "description": "Africa/Douala"
      },
      "avatar_url": "https://api.dicebear.com/8.x/thumbs/svg?seed=Herv√©Kamdem"
    },
    {
      "name": "Brigitte Eyenga",
      "gender": "Female",
      "phone_number": "+237 6 90 98 76 54",
      "street_address": "67 Rue Mokolo",
      "street_name": "Rue Mokolo",
      "building_number": "67",
      "city": "Garoua",
      "state": "North Region",
      "postal_code": "237008",
      "coordinates": {
        "latitude": "9.2923",
        "longitude": "13.3956"
      },
      "timezone": {
        "offset": "+01:00",
        "description": "Africa/Douala"
      },
      "avatar_url": "https://api.dicebear.com/8.x/thumbs/svg?seed=BrigitteEyenga"
    },
    {
      "name": "Didier Fon",
      "gender": "Male",
      "phone_number": "+237 6 99 88 77 66",
      "street_address": "78 Rue Mile 6",
      "street_name": "Rue Mile 6",
      "building_number": "78",
      "city": "Bamenda",
      "state": "Northwest Region",
      "postal_code": "237009",
      "coordinates": {
        "latitude": "5.9700",
        "longitude": "10.1500"
      },
      "timezone": {
        "offset": "+01:00",
        "description": "Africa/Douala"
      },
      "avatar_url": "https://api.dicebear.com/8.x/thumbs/svg?seed=DidierFon"
    },
    {
      "name": "Marina Ewane",
      "gender": "Female",
      "phone_number": "+237 6 98 87 76 65",
      "street_address": "23 Rue Limbe",
      "street_name": "Rue Limbe",
      "building_number": "23",
      "city": "Buea",
      "state": "Southwest Region",
      "postal_code": "237010",
      "coordinates": {
        "latitude": "4.1620",
        "longitude": "9.2428"
      },
      "timezone": {
        "offset": "+01:00",
        "description": "Africa/Douala"
      },
      "avatar_url": "https://api.dicebear.com/8.x/thumbs/svg?seed=MarinaEwane"
    }
  ]
}