{
  "meta": {
    "country": "Czechia",
    "country_code": "CZ",
    "currency": "CZK",
    "country_flag": "🇨🇿"
  },
  "addresses": [
    {
      "name": "Jan Novák",
      "gender": "Male",
      "phone_number": "+420 601 123 456",
      "street_address": "123 Václavské náměstí",
      "street_name": "Václavské náměstí",
      "building_number": "123",
      "city": "Prague",
      "state": "Prague",
      "postal_code": "110 00",
      "coordinates": {
        "latitude": "50.0836",
        "longitude": "14.4349"
      },
      "timezone": {
        "offset": "+01:00",
        "description": "Europe/Prague"
      },
      "avatar_url": "https://api.dicebear.com/8.x/thumbs/svg?seed=JanNovak"
    },
    {
      "name": "Lucie Svobodová",
      "gender": "Female",
      "phone_number": "+420 602 234 567",
      "street_address": "45 Česká ulice",
      "street_name": "Česká ulice",
      "building_number": "45",
      "city": "Brno",
      "state": "South Moravian Region",
      "postal_code": "602 00",
      "coordinates": {
        "latitude": "49.1951",
        "longitude": "16.6068"
      },
      "timezone": {
        "offset": "+01:00",
        "description": "Europe/Prague"
      },
      "avatar_url": "https://api.dicebear.com/8.x/thumbs/svg?seed=LucieSvobodova"
    },
    {
      "name": "Petr Dvořák",
      "gender": "Male",
      "phone_number": "+420 603 345 678",
      "street_address": "78 Hlavní třída",
      "street_name": "Hlavní třída",
      "building_number": "78",
      "city": "Ostrava",
      "state": "Moravian-Silesian Region",
      "postal_code": "702 00",
      "coordinates": {
        "latitude": "49.8346",
        "longitude": "18.2926"
      },
      "timezone": {
        "offset": "+01:00",
        "description": "Europe/Prague"
      },
      "avatar_url": "https://api.dicebear.com/8.x/thumbs/svg?seed=PetrDvorak"
    },
    {
      "name": "Eva Novotná",
      "gender": "Female",
      "phone_number": "+420 604 456 789",
      "street_address": "101 Masarykovo náměstí",
      "street_name": "Masarykovo náměstí",
      "building_number": "101",
      "city": "Olomouc",
      "state": "Olomouc Region",
      "postal_code": "779 00",
      "coordinates": {
        "latitude": "49.5938",
        "longitude": "17.2509"
      },
      "timezone": {
        "offset": "+01:00",
        "description": "Europe/Prague"
      },
      "avatar_url": "https://api.dicebear.com/8.x/thumbs/svg?seed=EvaNovotna"
    },
    {
      "name": "Tomáš Černý",
      "gender": "Male",
      "phone_number": "+420 605 567 890",
      "street_address": "34 Plzeňská",
      "street_name": "Plzeňská",
      "building_number": "34",
      "city": "Plzeň",
      "state": "Plzeň Region",
      "postal_code": "301 00",
      "coordinates": {
        "latitude": "49.7475",
        "longitude": "13.3776"
      },
      "timezone": {
        "offset": "+01:00",
        "description": "Europe/Prague"
      },
      "avatar_url": "https://api.dicebear.com/8.x/thumbs/svg?seed=TomasCerny"
    },
    {
      "name": "Jana Králová",
      "gender": "Female",
      "phone_number": "+420 606 678 901",
      "street_address": "56 Křižíkova",
      "street_name": "Křižíkova",
      "building_number": "56",
      "city": "Prague",
      "state": "Prague",
      "postal_code": "186 00",
      "coordinates": {
        "latitude": "50.0925",
        "longitude": "14.4500"
      },
      "timezone": {
        "offset": "+01:00",
        "description": "Europe/Prague"
      },
      "avatar_url": "https://api.dicebear.com/8.x/thumbs/svg?seed=JanaKralova"
    },
    {
      "name": "Michal Horák",
      "gender": "Male",
      "phone_number": "+420 607 789 012",
      "street_address": "89 Lidická",
      "street_name": "Lidická",
      "building_number": "89",
      "city": "Brno",
      "state": "South Moravian Region",
      "postal_code": "602 00",
      "coordinates": {
        "latitude": "49.1978",
        "longitude": "16.5993"
      },
      "timezone": {
        "offset": "+01:00",
        "description": "Europe/Prague"
      },
      "avatar_url": "https://api.dicebear.com/8.x/thumbs/svg?seed=MichalHorak"
    },
    {
      "name": "Tereza Kučerová",
      "gender": "Female",
      "phone_number": "+420 608 890 123",
      "street_address": "67 Porubská",
      "street_name": "Porubská",
      "building_number": "67",
      "city": "Ostrava",
      "state": "Moravian-Silesian Region",
      "postal_code": "708 00",
      "coordinates": {
        "latitude": "49.8375",
        "longitude": "18.1636"
      },
      "timezone": {
        "offset": "+01:00",
        "description": "Europe/Prague"
      },
      "avatar_url": "https://api.dicebear.com/8.x/thumbs/svg?seed=TerezaKucerova"
    },
    {
      "name": "Václav Procházka",
      "gender": "Male",
      "phone_number": "+420 609 901 234",
      "street_address": "90 Třída Svobody",
      "street_name": "Třída Svobody",
      "building_number": "90",
      "city": "Olomouc",
      "state": "Olomouc Region",
      "postal_code": "772 00",
      "coordinates": {
        "latitude": "49.5953",
        "longitude": "17.2515"
      },
      "timezone": {
        "offset": "+01:00",
        "description": "Europe/Prague"
      },
      "avatar_url": "https://api.dicebear.com/8.x/thumbs/svg?seed=VaclavProchazka"
    },
    {
      "name": "Barbora Benešová",
      "gender": "Female",
      "phone_number": "+420 610 012 345",
      "street_address": "12 Americká",
      "street_name": "Americká",
      "building_number": "12",
      "city": "Plzeň",
      "state": "Plzeň Region",
      "postal_code": "301 00",
      "coordinates": {
        "latitude": "49.7485",
        "longitude": "13.3770"
      },
      "timezone": {
        "offset": "+01:00",
        "description": "Europe/Prague"
      },
      "avatar_url": "https://api.dicebear.com/8.x/thumbs/svg?seed=BarboraBenesova"
    }
  ]
}