{
  "meta": {
    "country": "Cambodia",
    "country_code": "KH",
    "currency": "KHR",
    "country_flag": "ðŸ‡°ðŸ‡­"
  },
  "addresses": [
    {
      "name": "Sok Rithy",
      "gender": "Male",
      "phone_number": "+855 12 345 678",
      "street_address": "123 Preah Norodom Boulevard",
      "street_name": "Preah Norodom Boulevard",
      "building_number": "123",
      "city": "Phnom Penh",
      "state": "Phnom Penh",
      "postal_code": "12000",
      "coordinates": {
        "latitude": "11.562108",
        "longitude": "104.888535"
      },
      "timezone": {
        "offset": "+07:00",
        "description": "Asia/Phnom_Penh"
      },
      "avatar_url": "https://api.dicebear.com/8.x/thumbs/svg?seed=SokRithy"
    },
    {
      "name": "Chan Monyna",
      "gender": "Female",
      "phone_number": "+855 97 234 5678",
      "street_address": "456 Street 240",
      "street_name": "Street 240",
      "building_number": "456",
      "city": "Phnom Penh",
      "state": "Phnom Penh",
      "postal_code": "12000",
      "coordinates": {
        "latitude": "11.562108",
        "longitude": "104.888535"
      },
      "timezone": {
        "offset": "+07:00",
        "description": "Asia/Phnom_Penh"
      },
      "avatar_url": "https://api.dicebear.com/8.x/thumbs/svg?seed=ChanMonyna"
    },
    {
      "name": "Piseth Sokha",
      "gender": "Male",
      "phone_number": "+855 16 123 456",
      "street_address": "789 Sisowath Quay",
      "street_name": "Sisowath Quay",
      "building_number": "789",
      "city": "Phnom Penh",
      "state": "Phnom Penh",
      "postal_code": "12000",
      "coordinates": {
        "latitude": "11.562108",
        "longitude": "104.888535"
      },
      "timezone": {
        "offset": "+07:00",
        "description": "Asia/Phnom_Penh"
      },
      "avatar_url": "https://api.dicebear.com/8.x/thumbs/svg?seed=PisethSokha"
    },
    {
      "name": "Sreyna Touch",
      "gender": "Female",
      "phone_number": "+855 11 456 789",
      "street_address": "101 Monivong Boulevard",
      "street_name": "Monivong Boulevard",
      "building_number": "101",
      "city": "Phnom Penh",
      "state": "Phnom Penh",
      "postal_code": "12000",
      "coordinates": {
        "latitude": "11.562108",
        "longitude": "104.888535"
      },
      "timezone": {
        "offset": "+07:00",
        "description": "Asia/Phnom_Penh"
      },
      "avatar_url": "https://api.dicebear.com/8.x/thumbs/svg?seed=SreynaTouch"
    },
    {
      "name": "Rithika Chenda",
      "gender": "Female",
      "phone_number": "+855 92 765 432",
      "street_address": "34 Russian Boulevard",
      "street_name": "Russian Boulevard",
      "building_number": "34",
      "city": "Phnom Penh",
      "state": "Phnom Penh",
      "postal_code": "12000",
      "coordinates": {
        "latitude": "11.562108",
        "longitude": "104.888535"
      },
      "timezone": {
        "offset": "+07:00",
        "description": "Asia/Phnom_Penh"
      },
      "avatar_url": "https://api.dicebear.com/8.x/thumbs/svg?seed=RithikaChenda"
    },
    {
      "name": "Vannak Meas",
      "gender": "Male",
      "phone_number": "+855 10 987 654",
      "street_address": "88 Kampuchea Krom Blvd",
      "street_name": "Kampuchea Krom Blvd",
      "building_number": "88",
      "city": "Phnom Penh",
      "state": "Phnom Penh",
      "postal_code": "12000",
      "coordinates": {
        "latitude": "11.562108",
        "longitude": "104.888535"
      },
      "timezone": {
        "offset": "+07:00",
        "description": "Asia/Phnom_Penh"
      },
      "avatar_url": "https://api.dicebear.com/8.x/thumbs/svg?seed=VannakMeas"
    },
    {
      "name": "Thida Chum",
      "gender": "Female",
      "phone_number": "+855 93 112 233",
      "street_address": "77 Mao Tse Toung Blvd",
      "street_name": "Mao Tse Toung Blvd",
      "building_number": "77",
      "city": "Phnom Penh",
      "state": "Phnom Penh",
      "postal_code": "12000",
      "coordinates": {
        "latitude": "11.562108",
        "longitude": "104.888535"
      },
      "timezone": {
        "offset": "+07:00",
        "description": "Asia/Phnom_Penh"
      },
      "avatar_url": "https://api.dicebear.com/8.x/thumbs/svg?seed=ThidaChum"
    },
    {
      "name": "Chea Dara",
      "gender": "Male",
      "phone_number": "+855 15 321 654",
      "street_address": "65 Street 63",
      "street_name": "Street 63",
      "building_number": "65",
      "city": "Phnom Penh",
      "state": "Phnom Penh",
      "postal_code": "12000",
      "coordinates": {
        "latitude": "11.562108",
        "longitude": "104.888535"
      },
      "timezone": {
        "offset": "+07:00",
        "description": "Asia/Phnom_Penh"
      },
      "avatar_url": "https://api.dicebear.com/8.x/thumbs/svg?seed=CheaDara"
    },
    {
      "name": "Neary Sam",
      "gender": "Female",
      "phone_number": "+855 13 444 555",
      "street_address": "92 Street 178",
      "street_name": "Street 178",
      "building_number": "92",
      "city": "Phnom Penh",
      "state": "Phnom Penh",
      "postal_code": "12000",
      "coordinates": {
        "latitude": "11.562108",
        "longitude": "104.888535"
      },
      "timezone": {
        "offset": "+07:00",
        "description": "Asia/Phnom_Penh"
      },
      "avatar_url": "https://api.dicebear.com/8.x/thumbs/svg?seed=NearySam"
    },
    {
      "name": "Kosal Leng",
      "gender": "Male",
      "phone_number": "+855 98 666 777",
      "street_address": "150 Norodom Blvd",
      "street_name": "Norodom Blvd",
      "building_number": "150",
      "city": "Phnom Penh",
      "state": "Phnom Penh",
      "postal_code": "12000",
      "coordinates": {
        "latitude": "11.562108",
        "longitude": "104.888535"
      },
      "timezone": {
        "offset": "+07:00",
        "description": "Asia/Phnom_Penh"
      },
      "avatar_url": "https://api.dicebear.com/8.x/thumbs/svg?seed=KosalLeng"
    }
  ]
}