{
  "meta": {
    "country": "Philippines",
    "country_code": "PH",
    "currency": "PHP",
    "country_flag": "ðŸ‡µðŸ‡­"
  },
  "addresses": [
    {
      "name": "Juan Dela Cruz",
      "gender": "Male",
      "phone_number": "+63 917 123 4567",
      "street_address": "123 Ayala Avenue",
      "street_name": "Ayala Avenue",
      "building_number": "123",
      "city": "Makati",
      "state": "Metro Manila",
      "postal_code": "1226",
      "coordinates": {
        "latitude": "14.5547",
        "longitude": "121.0244"
      },
      "timezone": {
        "offset": "+08:00",
        "description": "Philippine Standard Time"
      },
      "avatar_url": "https://api.dicebear.com/8.x/thumbs/svg?seed=JuanDelaCruz"
    },
    {
      "name": "Maria Santos",
      "gender": "Female",
      "phone_number": "+63 918 234 5678",
      "street_address": "45 Roxas Boulevard",
      "street_name": "Roxas Boulevard",
      "building_number": "45",
      "city": "Manila",
      "state": "Metro Manila",
      "postal_code": "1000",
      "coordinates": {
        "latitude": "14.5823",
        "longitude": "120.9797"
      },
      "timezone": {
        "offset": "+08:00",
        "description": "Philippine Standard Time"
      },
      "avatar_url": "https://api.dicebear.com/8.x/thumbs/svg?seed=MariaSantos"
    },
    {
      "name": "Carlos Reyes",
      "gender": "Male",
      "phone_number": "+63 919 345 6789",
      "street_address": "78 Session Road",
      "street_name": "Session Road",
      "building_number": "78",
      "city": "Baguio",
      "state": "Benguet",
      "postal_code": "2600",
      "coordinates": {
        "latitude": "16.4120",
        "longitude": "120.5960"
      },
      "timezone": {
        "offset": "+08:00",
        "description": "Philippine Standard Time"
      },
      "avatar_url": "https://api.dicebear.com/8.x/thumbs/svg?seed=CarlosReyes"
    },
    {
      "name": "Angela Cruz",
      "gender": "Female",
      "phone_number": "+63 920 456 7890",
      "street_address": "101 OsmeÃ±a Boulevard",
      "street_name": "OsmeÃ±a Boulevard",
      "building_number": "101",
      "city": "Cebu City",
      "state": "Cebu",
      "postal_code": "6000",
      "coordinates": {
        "latitude": "10.3157",
        "longitude": "123.8854"
      },
      "timezone": {
        "offset": "+08:00",
        "description": "Philippine Standard Time"
      },
      "avatar_url": "https://api.dicebear.com/8.x/thumbs/svg?seed=AngelaCruz"
    },
    {
      "name": "Mark Lopez",
      "gender": "Male",
      "phone_number": "+63 921 567 8901",
      "street_address": "34 J.P. Laurel Avenue",
      "street_name": "J.P. Laurel Avenue",
      "building_number": "34",
      "city": "Davao City",
      "state": "Davao del Sur",
      "postal_code": "8000",
      "coordinates": {
        "latitude": "7.1907",
        "longitude": "125.4553"
      },
      "timezone": {
        "offset": "+08:00",
        "description": "Philippine Standard Time"
      },
      "avatar_url": "https://api.dicebear.com/8.x/thumbs/svg?seed=MarkLopez"
    },
    {
      "name": "Grace Bautista",
      "gender": "Female",
      "phone_number": "+63 922 678 9012",
      "street_address": "22 Taft Avenue",
      "street_name": "Taft Avenue",
      "building_number": "22",
      "city": "Pasay",
      "state": "Metro Manila",
      "postal_code": "1300",
      "coordinates": {
        "latitude": "14.5378",
        "longitude": "120.9876"
      },
      "timezone": {
        "offset": "+08:00",
        "description": "Philippine Standard Time"
      },
      "avatar_url": "https://api.dicebear.com/8.x/thumbs/svg?seed=GraceBautista"
    },
    {
      "name": "Daniel Mendoza",
      "gender": "Male",
      "phone_number": "+63 923 789 0123",
      "street_address": "11 General Luna Street",
      "street_name": "General Luna Street",
      "building_number": "11",
      "city": "Quezon City",
      "state": "Metro Manila",
      "postal_code": "1100",
      "coordinates": {
        "latitude": "14.6760",
        "longitude": "121.0437"
      },
      "timezone": {
        "offset": "+08:00",
        "description": "Philippine Standard Time"
      },
      "avatar_url": "https://api.dicebear.com/8.x/thumbs/svg?seed=DanielMendoza"
    },
    {
      "name": "Irene Villanueva",
      "gender": "Female",
      "phone_number": "+63 924 890 1234",
      "street_address": "66 E. Rodriguez Avenue",
      "street_name": "E. Rodriguez Avenue",
      "building_number": "66",
      "city": "Caloocan",
      "state": "Metro Manila",
      "postal_code": "1400",
      "coordinates": {
        "latitude": "14.6566",
        "longitude": "120.9842"
      },
      "timezone": {
        "offset": "+08:00",
        "description": "Philippine Standard Time"
      },
      "avatar_url": "https://api.dicebear.com/8.x/thumbs/svg?seed=IreneVillanueva"
    },
    {
      "name": "Victor Lim",
      "gender": "Male",
      "phone_number": "+63 925 901 2345",
      "street_address": "77 Gov. Pack Road",
      "street_name": "Gov. Pack Road",
      "building_number": "77",
      "city": "Baguio",
      "state": "Benguet",
      "postal_code": "2600",
      "coordinates": {
        "latitude": "16.4142",
        "longitude": "120.5969"
      },
      "timezone": {
        "offset": "+08:00",
        "description": "Philippine Standard Time"
      },
      "avatar_url": "https://api.dicebear.com/8.x/thumbs/svg?seed=VictorLim"
    },
    {
      "name": "Diana Ramos",
      "gender": "Female",
      "phone_number": "+63 926 012 3456",
      "street_address": "88 R. Duterte Street",
      "street_name": "R. Duterte Street",
      "building_number": "88",
      "city": "Davao City",
      "state": "Davao del Sur",
      "postal_code": "8000",
      "coordinates": {
        "latitude": "7.1907",
        "longitude": "125.4553"
      },
      "timezone": {
        "offset": "+08:00",
        "description": "Philippine Standard Time"
      },
      "avatar_url": "https://api.dicebear.com/8.x/thumbs/svg?seed=DianaRamos"
    }
  ]
}