{
  "meta": {
    "country": "Qatar",
    "country_code": "QA",
    "currency": "QAR",
    "country_flag": "ðŸ‡¶ðŸ‡¦"
  },
  "addresses": [
    {
      "name": "Mohammed Al Thani",
      "gender": "Male",
      "phone_number": "+974 3312 4567",
      "street_address": "123 Corniche Street",
      "street_name": "Corniche Street",
      "building_number": "123",
      "city": "Doha",
      "state": "Doha",
      "postal_code": "00000",
      "coordinates": {
        "latitude": "25.2854",
        "longitude": "51.5310"
      },
      "timezone": {
        "offset": "+03:00",
        "description": "Arabian Standard Time"
      },
      "avatar_url": "https://api.dicebear.com/8.x/thumbs/svg?seed=MohammedAlThani"
    },
    {
      "name": "Fatima Hassan",
      "gender": "Female",
      "phone_number": "+974 6623 7890",
      "street_address": "456 Al Sadd Street",
      "street_name": "Al Sadd Street",
      "building_number": "456",
      "city": "Doha",
      "state": "Doha",
      "postal_code": "00000",
      "coordinates": {
        "latitude": "25.2809",
        "longitude": "51.5139"
      },
      "timezone": {
        "offset": "+03:00",
        "description": "Arabian Standard Time"
      },
      "avatar_url": "https://api.dicebear.com/8.x/thumbs/svg?seed=FatimaHassan"
    },
    {
      "name": "Khalid Al Kubaisi",
      "gender": "Male",
      "phone_number": "+974 5588 1122",
      "street_address": "789 West Bay",
      "street_name": "West Bay",
      "building_number": "789",
      "city": "Doha",
      "state": "Doha",
      "postal_code": "00000",
      "coordinates": {
        "latitude": "25.2936",
        "longitude": "51.5214"
      },
      "timezone": {
        "offset": "+03:00",
        "description": "Arabian Standard Time"
      },
      "avatar_url": "https://api.dicebear.com/8.x/thumbs/svg?seed=KhalidAlKubaisi"
    },
    {
      "name": "Sara Nasser",
      "gender": "Female",
      "phone_number": "+974 4441 7788",
      "street_address": "101 Al Waab Street",
      "street_name": "Al Waab Street",
      "building_number": "101",
      "city": "Doha",
      "state": "Doha",
      "postal_code": "00000",
      "coordinates": {
        "latitude": "25.2726",
        "longitude": "51.4446"
      },
      "timezone": {
        "offset": "+03:00",
        "description": "Arabian Standard Time"
      },
      "avatar_url": "https://api.dicebear.com/8.x/thumbs/svg?seed=SaraNasser"
    },
    {
      "name": "Abdullah Rahman",
      "gender": "Male",
      "phone_number": "+974 3366 2255",
      "street_address": "34 Al Khor Street",
      "street_name": "Al Khor Street",
      "building_number": "34",
      "city": "Doha",
      "state": "Doha",
      "postal_code": "00000",
      "coordinates": {
        "latitude": "25.2860",
        "longitude": "51.5380"
      },
      "timezone": {
        "offset": "+03:00",
        "description": "Arabian Standard Time"
      },
      "avatar_url": "https://api.dicebear.com/8.x/thumbs/svg?seed=AbdullahRahman"
    },
    {
      "name": "Noor Ali",
      "gender": "Female",
      "phone_number": "+974 7723 4455",
      "street_address": "88 Aspire Zone",
      "street_name": "Aspire Zone",
      "building_number": "88",
      "city": "Doha",
      "state": "Doha",
      "postal_code": "00000",
      "coordinates": {
        "latitude": "25.2521",
        "longitude": "51.4380"
      },
      "timezone": {
        "offset": "+03:00",
        "description": "Arabian Standard Time"
      },
      "avatar_url": "https://api.dicebear.com/8.x/thumbs/svg?seed=NoorAli"
    },
    {
      "name": "Yousef Al Marri",
      "gender": "Male",
      "phone_number": "+974 6999 9988",
      "street_address": "90 Education City",
      "street_name": "Education City",
      "building_number": "90",
      "city": "Doha",
      "state": "Doha",
      "postal_code": "00000",
      "coordinates": {
        "latitude": "25.3139",
        "longitude": "51.4646"
      },
      "timezone": {
        "offset": "+03:00",
        "description": "Arabian Standard Time"
      },
      "avatar_url": "https://api.dicebear.com/8.x/thumbs/svg?seed=YousefAlMarri"
    },
    {
      "name": "Mariam Jassim",
      "gender": "Female",
      "phone_number": "+974 5502 1133",
      "street_address": "66 Lusail Boulevard",
      "street_name": "Lusail Boulevard",
      "building_number": "66",
      "city": "Doha",
      "state": "Doha",
      "postal_code": "00000",
      "coordinates": {
        "latitude": "25.3333",
        "longitude": "51.5333"
      },
      "timezone": {
        "offset": "+03:00",
        "description": "Arabian Standard Time"
      },
      "avatar_url": "https://api.dicebear.com/8.x/thumbs/svg?seed=MariamJassim"
    },
    {
      "name": "Hamad Salem",
      "gender": "Male",
      "phone_number": "+974 6011 1222",
      "street_address": "77 Al Rayyan Road",
      "street_name": "Al Rayyan Road",
      "building_number": "77",
      "city": "Doha",
      "state": "Doha",
      "postal_code": "00000",
      "coordinates": {
        "latitude": "25.2597",
        "longitude": "51.4556"
      },
      "timezone": {
        "offset": "+03:00",
        "description": "Arabian Standard Time"
      },
      "avatar_url": "https://api.dicebear.com/8.x/thumbs/svg?seed=HamadSalem"
    },
    {
      "name": "Layla Mohammed",
      "gender": "Female",
      "phone_number": "+974 4477 8899",
      "street_address": "22 Msheireb Street",
      "street_name": "Msheireb Street",
      "building_number": "22",
      "city": "Doha",
      "state": "Doha",
      "postal_code": "00000",
      "coordinates": {
        "latitude": "25.2852",
        "longitude": "51.5316"
      },
      "timezone": {
        "offset": "+03:00",
        "description": "Arabian Standard Time"
      },
      "avatar_url": "https://api.dicebear.com/8.x/thumbs/svg?seed=LaylaMohammed"
    }
  ]
}