{
  "meta": {
    "country": "Singapore",
    "country_code": "SG",
    "currency": "SGD",
    "country_flag": "ðŸ‡¸ðŸ‡¬"
  },
  "addresses": [
    {
      "name": "Daniel Tan",
      "gender": "Male",
      "phone_number": "+65 9123 4567",
      "street_address": "10 Orchard Road",
      "street_name": "Orchard Road",
      "building_number": "10",
      "city": "Singapore",
      "state": "Singapore",
      "postal_code": "238841",
      "coordinates": {
        "latitude": "1.3048",
        "longitude": "103.8318"
      },
      "timezone": {
        "offset": "+08:00",
        "description": "Singapore Standard Time"
      },
      "avatar_url": "https://api.dicebear.com/8.x/thumbs/svg?seed=DanielTan"
    },
    {
      "name": "Amanda Lim",
      "gender": "Female",
      "phone_number": "+65 9234 5678",
      "street_address": "45 Marina Bay Sands",
      "street_name": "Marina Bay Sands",
      "building_number": "45",
      "city": "Singapore",
      "state": "Singapore",
      "postal_code": "018956",
      "coordinates": {
        "latitude": "1.2834",
        "longitude": "103.8607"
      },
      "timezone": {
        "offset": "+08:00",
        "description": "Singapore Standard Time"
      },
      "avatar_url": "https://api.dicebear.com/8.x/thumbs/svg?seed=AmandaLim"
    },
    {
      "name": "Marcus Lee",
      "gender": "Male",
      "phone_number": "+65 9345 6789",
      "street_address": "789 Bugis Street",
      "street_name": "Bugis Street",
      "building_number": "789",
      "city": "Singapore",
      "state": "Singapore",
      "postal_code": "188025",
      "coordinates": {
        "latitude": "1.3005",
        "longitude": "103.8570"
      },
      "timezone": {
        "offset": "+08:00",
        "description": "Singapore Standard Time"
      },
      "avatar_url": "https://api.dicebear.com/8.x/thumbs/svg?seed=MarcusLee"
    },
    {
      "name": "Cheryl Ng",
      "gender": "Female",
      "phone_number": "+65 9456 7890",
      "street_address": "34 Clarke Quay",
      "street_name": "Clarke Quay",
      "building_number": "34",
      "city": "Singapore",
      "state": "Singapore",
      "postal_code": "059824",
      "coordinates": {
        "latitude": "1.2892",
        "longitude": "103.8465"
      },
      "timezone": {
        "offset": "+08:00",
        "description": "Singapore Standard Time"
      },
      "avatar_url": "https://api.dicebear.com/8.x/thumbs/svg?seed=CherylNg"
    },
    {
      "name": "Kelvin Goh",
      "gender": "Male",
      "phone_number": "+65 9567 8901",
      "street_address": "12 Sentosa Gateway",
      "street_name": "Sentosa Gateway",
      "building_number": "12",
      "city": "Singapore",
      "state": "Singapore",
      "postal_code": "098138",
      "coordinates": {
        "latitude": "1.2494",
        "longitude": "103.8303"
      },
      "timezone": {
        "offset": "+08:00",
        "description": "Singapore Standard Time"
      },
      "avatar_url": "https://api.dicebear.com/8.x/thumbs/svg?seed=KelvinGoh"
    },
    {
      "name": "Rachel Yeo",
      "gender": "Female",
      "phone_number": "+65 9678 9012",
      "street_address": "56 Raffles Place",
      "street_name": "Raffles Place",
      "building_number": "56",
      "city": "Singapore",
      "state": "Singapore",
      "postal_code": "048623",
      "coordinates": {
        "latitude": "1.2830",
        "longitude": "103.8510"
      },
      "timezone": {
        "offset": "+08:00",
        "description": "Singapore Standard Time"
      },
      "avatar_url": "https://api.dicebear.com/8.x/thumbs/svg?seed=RachelYeo"
    },
    {
      "name": "Benjamin Koh",
      "gender": "Male",
      "phone_number": "+65 9789 0123",
      "street_address": "101 Serangoon Road",
      "street_name": "Serangoon Road",
      "building_number": "101",
      "city": "Singapore",
      "state": "Singapore",
      "postal_code": "218000",
      "coordinates": {
        "latitude": "1.3500",
        "longitude": "103.8700"
      },
      "timezone": {
        "offset": "+08:00",
        "description": "Singapore Standard Time"
      },
      "avatar_url": "https://api.dicebear.com/8.x/thumbs/svg?seed=BenjaminKoh"
    },
    {
      "name": "Joanne Teo",
      "gender": "Female",
      "phone_number": "+65 9890 1234",
      "street_address": "88 Tiong Bahru Road",
      "street_name": "Tiong Bahru Road",
      "building_number": "88",
      "city": "Singapore",
      "state": "Singapore",
      "postal_code": "168819",
      "coordinates": {
        "latitude": "1.2850",
        "longitude": "103.8200"
      },
      "timezone": {
        "offset": "+08:00",
        "description": "Singapore Standard Time"
      },
      "avatar_url": "https://api.dicebear.com/8.x/thumbs/svg?seed=JoanneTeo"
    },
    {
      "name": "Darren Chua",
      "gender": "Male",
      "phone_number": "+65 9001 2345",
      "street_address": "77 Tampines Avenue",
      "street_name": "Tampines Avenue",
      "building_number": "77",
      "city": "Singapore",
      "state": "Singapore",
      "postal_code": "529644",
      "coordinates": {
        "latitude": "1.3506",
        "longitude": "103.9454"
      },
      "timezone": {
        "offset": "+08:00",
        "description": "Singapore Standard Time"
      },
      "avatar_url": "https://api.dicebear.com/8.x/thumbs/svg?seed=DarrenChua"
    },
    {
      "name": "Melissa Tan",
      "gender": "Female",
      "phone_number": "+65 9112 3456",
      "street_address": "32 Bukit Timah Road",
      "street_name": "Bukit Timah Road",
      "building_number": "32",
      "city": "Singapore",
      "state": "Singapore",
      "postal_code": "229837",
      "coordinates": {
        "latitude": "1.3378",
        "longitude": "103.8055"
      },
      "timezone": {
        "offset": "+08:00",
        "description": "Singapore Standard Time"
      },
      "avatar_url": "https://api.dicebear.com/8.x/thumbs/svg?seed=MelissaTan"
    }
  ]
}