{
  "meta": {
    "country": "Uganda",
    "country_code": "UG",
    "currency": "UGX",
    "country_flag": "ðŸ‡ºðŸ‡¬"
  },
  "addresses": [
    {
      "name": "Grace Nakimera",
      "gender": "Female",
      "phone_number": "+256 772 123456",
      "street_address": "123 Kampala Road",
      "street_name": "Kampala Road",
      "building_number": "123",
      "city": "Kampala",
      "state": "Central Region",
      "postal_code": "256",
      "coordinates": {
        "latitude": "0.3136",
        "longitude": "32.5811"
      },
      "timezone": {
        "offset": "+03:00",
        "description": "East Africa Time"
      },
      "avatar_url": "https://api.dicebear.com/8.x/thumbs/svg?seed=GraceNakimera"
    },
    {
      "name": "Peter Okello",
      "gender": "Male",
      "phone_number": "+256 701 234567",
      "street_address": "45 Gulu Main Street",
      "street_name": "Gulu Main Street",
      "building_number": "45",
      "city": "Gulu",
      "state": "Northern Region",
      "postal_code": "256",
      "coordinates": {
        "latitude": "2.7724",
        "longitude": "32.2881"
      },
      "timezone": {
        "offset": "+03:00",
        "description": "East Africa Time"
      },
      "avatar_url": "https://api.dicebear.com/8.x/thumbs/svg?seed=PeterOkello"
    },
    {
      "name": "Joan Kabonesa",
      "gender": "Female",
      "phone_number": "+256 782 345678",
      "street_address": "78 Kabale Street",
      "street_name": "Kabale Street",
      "building_number": "78",
      "city": "Kabale",
      "state": "Western Region",
      "postal_code": "256",
      "coordinates": {
        "latitude": "-1.2489",
        "longitude": "30.0052"
      },
      "timezone": {
        "offset": "+03:00",
        "description": "East Africa Time"
      },
      "avatar_url": "https://api.dicebear.com/8.x/thumbs/svg?seed=JoanKabonesa"
    },
    {
      "name": "David Musoke",
      "gender": "Male",
      "phone_number": "+256 752 456789",
      "street_address": "101 Jinja Road",
      "street_name": "Jinja Road",
      "building_number": "101",
      "city": "Jinja",
      "state": "Eastern Region",
      "postal_code": "256",
      "coordinates": {
        "latitude": "0.44",
        "longitude": "33.2031"
      },
      "timezone": {
        "offset": "+03:00",
        "description": "East Africa Time"
      },
      "avatar_url": "https://api.dicebear.com/8.x/thumbs/svg?seed=DavidMusoke"
    },
    {
      "name": "Sarah Namutebi",
      "gender": "Female",
      "phone_number": "+256 783 567890",
      "street_address": "34 Entebbe Street",
      "street_name": "Entebbe Street",
      "building_number": "34",
      "city": "Entebbe",
      "state": "Central Region",
      "postal_code": "256",
      "coordinates": {
        "latitude": "0.05",
        "longitude": "32.46"
      },
      "timezone": {
        "offset": "+03:00",
        "description": "East Africa Time"
      },
      "avatar_url": "https://api.dicebear.com/8.x/thumbs/svg?seed=SarahNamutebi"
    },
    {
      "name": "Ronald Ssekandi",
      "gender": "Male",
      "phone_number": "+256 704 678901",
      "street_address": "66 Makerere Hill Road",
      "street_name": "Makerere Hill Road",
      "building_number": "66",
      "city": "Kampala",
      "state": "Central Region",
      "postal_code": "256",
      "coordinates": {
        "latitude": "0.3156",
        "longitude": "32.5797"
      },
      "timezone": {
        "offset": "+03:00",
        "description": "East Africa Time"
      },
      "avatar_url": "https://api.dicebear.com/8.x/thumbs/svg?seed=RonaldSsekandi"
    },
    {
      "name": "Agnes Alobo",
      "gender": "Female",
      "phone_number": "+256 764 789012",
      "street_address": "88 Lira Road",
      "street_name": "Lira Road",
      "building_number": "88",
      "city": "Lira",
      "state": "Northern Region",
      "postal_code": "256",
      "coordinates": {
        "latitude": "2.2497",
        "longitude": "32.8996"
      },
      "timezone": {
        "offset": "+03:00",
        "description": "East Africa Time"
      },
      "avatar_url": "https://api.dicebear.com/8.x/thumbs/svg?seed=AgnesAlobo"
    },
    {
      "name": "Sam Kintu",
      "gender": "Male",
      "phone_number": "+256 776 890123",
      "street_address": "55 Fort Portal Road",
      "street_name": "Fort Portal Road",
      "building_number": "55",
      "city": "Fort Portal",
      "state": "Western Region",
      "postal_code": "256",
      "coordinates": {
        "latitude": "0.6611",
        "longitude": "30.2758"
      },
      "timezone": {
        "offset": "+03:00",
        "description": "East Africa Time"
      },
      "avatar_url": "https://api.dicebear.com/8.x/thumbs/svg?seed=SamKintu"
    },
    {
      "name": "Beatrice Akello",
      "gender": "Female",
      "phone_number": "+256 705 901234",
      "street_address": "23 Mbale Avenue",
      "street_name": "Mbale Avenue",
      "building_number": "23",
      "city": "Mbale",
      "state": "Eastern Region",
      "postal_code": "256",
      "coordinates": {
        "latitude": "1.0821",
        "longitude": "34.1756"
      },
      "timezone": {
        "offset": "+03:00",
        "description": "East Africa Time"
      },
      "avatar_url": "https://api.dicebear.com/8.x/thumbs/svg?seed=BeatriceAkello"
    },
    {
      "name": "Robert Muwonge",
      "gender": "Male",
      "phone_number": "+256 785 012345",
      "street_address": "70 Masaka Road",
      "street_name": "Masaka Road",
      "building_number": "70",
      "city": "Masaka",
      "state": "Central Region",
      "postal_code": "256",
      "coordinates": {
        "latitude": "-0.3125",
        "longitude": "31.7131"
      },
      "timezone": {
        "offset": "+03:00",
        "description": "East Africa Time"
      },
      "avatar_url": "https://api.dicebear.com/8.x/thumbs/svg?seed=RobertMuwonge"
    }
  ]
}