{
  "meta": {
    "country": "United States",
    "country_code": "US",
    "currency": "USD",
    "country_flag": "ðŸ‡ºðŸ‡¸"
  },
  "addresses": [
    {
      "name": "Emma Johnson",
      "gender": "Female",
      "phone_number": "+1 212-555-0101",
      "street_address": "123 Main Street",
      "street_name": "Main Street",
      "building_number": "123",
      "city": "New York",
      "state": "New York",
      "postal_code": "10001",
      "coordinates": {
        "latitude": "40.7128",
        "longitude": "-74.0060"
      },
      "timezone": {
        "offset": "-05:00",
        "description": "Eastern Standard Time"
      },
      "avatar_url": "https://api.dicebear.com/8.x/thumbs/svg?seed=EmmaJohnson"
    },
    {
      "name": "Liam Smith",
      "gender": "Male",
      "phone_number": "+1 323-555-0102",
      "street_address": "456 Hollywood Boulevard",
      "street_name": "Hollywood Boulevard",
      "building_number": "456",
      "city": "Los Angeles",
      "state": "California",
      "postal_code": "90028",
      "coordinates": {
        "latitude": "34.0928",
        "longitude": "-118.3287"
      },
      "timezone": {
        "offset": "-08:00",
        "description": "Pacific Standard Time"
      },
      "avatar_url": "https://api.dicebear.com/8.x/thumbs/svg?seed=LiamSmith"
    },
    {
      "name": "Olivia Brown",
      "gender": "Female",
      "phone_number": "+1 312-555-0103",
      "street_address": "789 Michigan Avenue",
      "street_name": "Michigan Avenue",
      "building_number": "789",
      "city": "Chicago",
      "state": "Illinois",
      "postal_code": "60611",
      "coordinates": {
        "latitude": "41.8917",
        "longitude": "-87.6240"
      },
      "timezone": {
        "offset": "-06:00",
        "description": "Central Standard Time"
      },
      "avatar_url": "https://api.dicebear.com/8.x/thumbs/svg?seed=OliviaBrown"
    },
    {
      "name": "Noah Davis",
      "gender": "Male",
      "phone_number": "+1 404-555-0104",
      "street_address": "101 Peachtree Street",
      "street_name": "Peachtree Street",
      "building_number": "101",
      "city": "Atlanta",
      "state": "Georgia",
      "postal_code": "30303",
      "coordinates": {
        "latitude": "33.7490",
        "longitude": "-84.3880"
      },
      "timezone": {
        "offset": "-05:00",
        "description": "Eastern Standard Time"
      },
      "avatar_url": "https://api.dicebear.com/8.x/thumbs/svg?seed=NoahDavis"
    },
    {
      "name": "Ava Wilson",
      "gender": "Female",
      "phone_number": "+1 504-555-0105",
      "street_address": "34 Bourbon Street",
      "street_name": "Bourbon Street",
      "building_number": "34",
      "city": "New Orleans",
      "state": "Louisiana",
      "postal_code": "70116",
      "coordinates": {
        "latitude": "29.9547",
        "longitude": "-90.0751"
      },
      "timezone": {
        "offset": "-06:00",
        "description": "Central Standard Time"
      },
      "avatar_url": "https://api.dicebear.com/8.x/thumbs/svg?seed=AvaWilson"
    },
    {
      "name": "Ethan Martinez",
      "gender": "Male",
      "phone_number": "+1 617-555-0106",
      "street_address": "78 Beacon Street",
      "street_name": "Beacon Street",
      "building_number": "78",
      "city": "Boston",
      "state": "Massachusetts",
      "postal_code": "02108",
      "coordinates": {
        "latitude": "42.3554",
        "longitude": "-71.0656"
      },
      "timezone": {
        "offset": "-05:00",
        "description": "Eastern Standard Time"
      },
      "avatar_url": "https://api.dicebear.com/8.x/thumbs/svg?seed=EthanMartinez"
    },
    {
      "name": "Sophia Anderson",
      "gender": "Female",
      "phone_number": "+1 206-555-0107",
      "street_address": "90 Pike Street",
      "street_name": "Pike Street",
      "building_number": "90",
      "city": "Seattle",
      "state": "Washington",
      "postal_code": "98101",
      "coordinates": {
        "latitude": "47.6097",
        "longitude": "-122.3331"
      },
      "timezone": {
        "offset": "-08:00",
        "description": "Pacific Standard Time"
      },
      "avatar_url": "https://api.dicebear.com/8.x/thumbs/svg?seed=SophiaAnderson"
    },
    {
      "name": "Mason Taylor",
      "gender": "Male",
      "phone_number": "+1 512-555-0108",
      "street_address": "150 Congress Avenue",
      "street_name": "Congress Avenue",
      "building_number": "150",
      "city": "Austin",
      "state": "Texas",
      "postal_code": "78701",
      "coordinates": {
        "latitude": "30.2711",
        "longitude": "-97.7437"
      },
      "timezone": {
        "offset": "-06:00",
        "description": "Central Standard Time"
      },
      "avatar_url": "https://api.dicebear.com/8.x/thumbs/svg?seed=MasonTaylor"
    },
    {
      "name": "Isabella Moore",
      "gender": "Female",
      "phone_number": "+1 215-555-0109",
      "street_address": "200 Market Street",
      "street_name": "Market Street",
      "building_number": "200",
      "city": "Philadelphia",
      "state": "Pennsylvania",
      "postal_code": "19106",
      "coordinates": {
        "latitude": "39.9526",
        "longitude": "-75.1652"
      },
      "timezone": {
        "offset": "-05:00",
        "description": "Eastern Standard Time"
      },
      "avatar_url": "https://api.dicebear.com/8.x/thumbs/svg?seed=IsabellaMoore"
    },
    {
      "name": "Logan Thomas",
      "gender": "Male",
      "phone_number": "+1 303-555-0110",
      "street_address": "65 Broadway",
      "street_name": "Broadway",
      "building_number": "65",
      "city": "Denver",
      "state": "Colorado",
      "postal_code": "80203",
      "coordinates": {
        "latitude": "39.7392",
        "longitude": "-104.9903"
      },
      "timezone": {
        "offset": "-07:00",
        "description": "Mountain Standard Time"
      },
      "avatar_url": "https://api.dicebear.com/8.x/thumbs/svg?seed=LoganThomas"
    }
  ]
}