{
  "meta": {
    "country": "South Africa",
    "country_code": "ZA",
    "currency": "ZAR",
    "country_flag": "ðŸ‡¿ðŸ‡¦"
  },
  "addresses": [
    {
      "name": "Thabo Mokoena",
      "gender": "Male",
      "phone_number": "+27 71 234 5678",
      "street_address": "123 Long Street",
      "street_name": "Long Street",
      "building_number": "123",
      "city": "Cape Town",
      "state": "Western Cape",
      "postal_code": "8001",
      "coordinates": {
        "latitude": "-33.9249",
        "longitude": "18.4241"
      },
      "timezone": {
        "offset": "+02:00",
        "description": "South Africa Standard Time"
      },
      "avatar_url": "https://api.dicebear.com/8.x/thumbs/svg?seed=ThaboMokoena"
    },
    {
      "name": "Nomsa Dlamini",
      "gender": "Female",
      "phone_number": "+27 82 345 6789",
      "street_address": "45 Commissioner Street",
      "street_name": "Commissioner Street",
      "building_number": "45",
      "city": "Johannesburg",
      "state": "Gauteng",
      "postal_code": "2001",
      "coordinates": {
        "latitude": "-26.2041",
        "longitude": "28.0473"
      },
      "timezone": {
        "offset": "+02:00",
        "description": "South Africa Standard Time"
      },
      "avatar_url": "https://api.dicebear.com/8.x/thumbs/svg?seed=NomsaDlamini"
    },
    {
      "name": "Sipho Khumalo",
      "gender": "Male",
      "phone_number": "+27 83 456 7890",
      "street_address": "78 Florida Road",
      "street_name": "Florida Road",
      "building_number": "78",
      "city": "Durban",
      "state": "KwaZulu-Natal",
      "postal_code": "4001",
      "coordinates": {
        "latitude": "-29.8587",
        "longitude": "31.0218"
      },
      "timezone": {
        "offset": "+02:00",
        "description": "South Africa Standard Time"
      },
      "avatar_url": "https://api.dicebear.com/8.x/thumbs/svg?seed=SiphoKhumalo"
    },
    {
      "name": "Zanele Sithole",
      "gender": "Female",
      "phone_number": "+27 74 987 6543",
      "street_address": "101 Church Street",
      "street_name": "Church Street",
      "building_number": "101",
      "city": "Pretoria",
      "state": "Gauteng",
      "postal_code": "0002",
      "coordinates": {
        "latitude": "-25.7479",
        "longitude": "28.2293"
      },
      "timezone": {
        "offset": "+02:00",
        "description": "South Africa Standard Time"
      },
      "avatar_url": "https://api.dicebear.com/8.x/thumbs/svg?seed=ZaneleSithole"
    },
    {
      "name": "Mandla Ngcobo",
      "gender": "Male",
      "phone_number": "+27 76 543 2109",
      "street_address": "34 Marine Drive",
      "street_name": "Marine Drive",
      "building_number": "34",
      "city": "Port Elizabeth",
      "state": "Eastern Cape",
      "postal_code": "6001",
      "coordinates": {
        "latitude": "-33.9608",
        "longitude": "25.6022"
      },
      "timezone": {
        "offset": "+02:00",
        "description": "South Africa Standard Time"
      },
      "avatar_url": "https://api.dicebear.com/8.x/thumbs/svg?seed=MandlaNgcobo"
    },
    {
      "name": "Lerato Mthembu",
      "gender": "Female",
      "phone_number": "+27 79 102 9384",
      "street_address": "56 Nelson Mandela Avenue",
      "street_name": "Nelson Mandela Avenue",
      "building_number": "56",
      "city": "Bloemfontein",
      "state": "Free State",
      "postal_code": "9301",
      "coordinates": {
        "latitude": "-29.0852",
        "longitude": "26.1596"
      },
      "timezone": {
        "offset": "+02:00",
        "description": "South Africa Standard Time"
      },
      "avatar_url": "https://api.dicebear.com/8.x/thumbs/svg?seed=LeratoMthembu"
    },
    {
      "name": "Tshepo Mahlangu",
      "gender": "Male",
      "phone_number": "+27 72 334 5566",
      "street_address": "89 Oxford Street",
      "street_name": "Oxford Street",
      "building_number": "89",
      "city": "East London",
      "state": "Eastern Cape",
      "postal_code": "5201",
      "coordinates": {
        "latitude": "-33.0153",
        "longitude": "27.9116"
      },
      "timezone": {
        "offset": "+02:00",
        "description": "South Africa Standard Time"
      },
      "avatar_url": "https://api.dicebear.com/8.x/thumbs/svg?seed=TshepoMahlangu"
    },
    {
      "name": "Ayanda Zulu",
      "gender": "Female",
      "phone_number": "+27 78 765 4321",
      "street_address": "23 Victoria Road",
      "street_name": "Victoria Road",
      "building_number": "23",
      "city": "Pietermaritzburg",
      "state": "KwaZulu-Natal",
      "postal_code": "3201",
      "coordinates": {
        "latitude": "-29.6000",
        "longitude": "30.3833"
      },
      "timezone": {
        "offset": "+02:00",
        "description": "South Africa Standard Time"
      },
      "avatar_url": "https://api.dicebear.com/8.x/thumbs/svg?seed=AyandaZulu"
    },
    {
      "name": "Kabelo Molefe",
      "gender": "Male",
      "phone_number": "+27 73 111 2223",
      "street_address": "67 Main Street",
      "street_name": "Main Street",
      "building_number": "67",
      "city": "Polokwane",
      "state": "Limpopo",
      "postal_code": "0700",
      "coordinates": {
        "latitude": "-23.8957",
        "longitude": "29.4689"
      },
      "timezone": {
        "offset": "+02:00",
        "description": "South Africa Standard Time"
      },
      "avatar_url": "https://api.dicebear.com/8.x/thumbs/svg?seed=KabeloMolefe"
    },
    {
      "name": "Naledi Morake",
      "gender": "Female",
      "phone_number": "+27 77 888 9990",
      "street_address": "90 Church Square",
      "street_name": "Church Square",
      "building_number": "90",
      "city": "Rustenburg",
      "state": "North West",
      "postal_code": "0300",
      "coordinates": {
        "latitude": "-25.6667",
        "longitude": "27.2439"
      },
      "timezone": {
        "offset": "+02:00",
        "description": "South Africa Standard Time"
      },
      "avatar_url": "https://api.dicebear.com/8.x/thumbs/svg?seed=NalediMorake"
    }
  ]
}