{
  "meta": {
    "country": "Islamic Republic of Afghanistan",
    "country_code": "AF",
    "country_flag": "ðŸ‡¦ðŸ‡«",
    "currency": "AFN"
  },
  "addresses": [
    {
      "name": "Ahmad Zahir",
      "gender": "Male",
      "phone_number": "+93 70 123 4567",
      "street_address": "123 Darulaman Road",
      "street_name": "Darulaman Road",
      "building_number": "123",
      "city": "Kabul",
      "state": "Kabul Province",
      "postal_code": "1001",
      "coordinates": {
        "latitude": "34.5553",
        "longitude": "69.2075"
      },
      "timezone": {
        "offset": "+04:30",
        "description": "Asia/Kabul"
      },
      "avatar_url": "https://api.dicebear.com/8.x/thumbs/svg?seed=AhmadZahir"
    },
    {
      "name": "Laila Noori",
      "gender": "Female",
      "phone_number": "+93 78 234 5678",
      "street_address": "45 Herat Bazaar Street",
      "street_name": "Herat Bazaar Street",
      "building_number": "45",
      "city": "Herat",
      "state": "Herat Province",
      "postal_code": "3001",
      "coordinates": {
        "latitude": "34.3529",
        "longitude": "62.2040"
      },
      "timezone": {
        "offset": "+04:30",
        "description": "Asia/Kabul"
      },
      "avatar_url": "https://api.dicebear.com/8.x/thumbs/svg?seed=LailaNoori"
    },
    {
      "name": "Mohammad Farid",
      "gender": "Male",
      "phone_number": "+93 77 345 6789",
      "street_address": "78 Kandahar Ring Road",
      "street_name": "Kandahar Ring Road",
      "building_number": "78",
      "city": "Kandahar",
      "state": "Kandahar Province",
      "postal_code": "2001",
      "coordinates": {
        "latitude": "31.6289",
        "longitude": "65.7372"
      },
      "timezone": {
        "offset": "+04:30",
        "description": "Asia/Kabul"
      },
      "avatar_url": "https://api.dicebear.com/8.x/thumbs/svg?seed=MohammadFarid"
    },
    {
      "name": "Nadia Rahmani",
      "gender": "Female",
      "phone_number": "+93 75 456 7890",
      "street_address": "101 Jalalabad Main Road",
      "street_name": "Jalalabad Main Road",
      "building_number": "101",
      "city": "Jalalabad",
      "state": "Nangarhar Province",
      "postal_code": "2601",
      "coordinates": {
        "latitude": "34.4341",
        "longitude": "70.4476"
      },
      "timezone": {
        "offset": "+04:30",
        "description": "Asia/Kabul"
      },
      "avatar_url": "https://api.dicebear.com/8.x/thumbs/svg?seed=NadiaRahmani"
    },
    {
      "name": "Hamidullah Waziri",
      "gender": "Male",
      "phone_number": "+93 72 567 8901",
      "street_address": "34 Mazar-e-Sharif Central Street",
      "street_name": "Mazar-e-Sharif Central Street",
      "building_number": "34",
      "city": "Mazar-e-Sharif",
      "state": "Balkh Province",
      "postal_code": "1701",
      "coordinates": {
        "latitude": "36.7090",
        "longitude": "67.1109"
      },
      "timezone": {
        "offset": "+04:30",
        "description": "Asia/Kabul"
      },
      "avatar_url": "https://api.dicebear.com/8.x/thumbs/svg?seed=HamidullahWaziri"
    },
    {
      "name": "Fatima Nazari",
      "gender": "Female",
      "phone_number": "+93 76 678 9012",
      "street_address": "88 Karte Parwan Road",
      "street_name": "Karte Parwan Road",
      "building_number": "88",
      "city": "Kabul",
      "state": "Kabul Province",
      "postal_code": "1002",
      "coordinates": {
        "latitude": "34.5553",
        "longitude": "69.2075"
      },
      "timezone": {
        "offset": "+04:30",
        "description": "Asia/Kabul"
      },
      "avatar_url": "https://api.dicebear.com/8.x/thumbs/svg?seed=FatimaNazari"
    },
    {
      "name": "Zabihullah Ahmadi",
      "gender": "Male",
      "phone_number": "+93 73 789 0123",
      "street_address": "67 Pashtunistan Road",
      "street_name": "Pashtunistan Road",
      "building_number": "67",
      "city": "Kandahar",
      "state": "Kandahar Province",
      "postal_code": "2003",
      "coordinates": {
        "latitude": "31.6289",
        "longitude": "65.7372"
      },
      "timezone": {
        "offset": "+04:30",
        "description": "Asia/Kabul"
      },
      "avatar_url": "https://api.dicebear.com/8.x/thumbs/svg?seed=ZabihullahAhmadi"
    },
    {
      "name": "Maryam Sadat",
      "gender": "Female",
      "phone_number": "+93 79 890 1234",
      "street_address": "22 Pul-e-Surkh Road",
      "street_name": "Pul-e-Surkh Road",
      "building_number": "22",
      "city": "Kabul",
      "state": "Kabul Province",
      "postal_code": "1004",
      "coordinates": {
        "latitude": "34.5553",
        "longitude": "69.2075"
      },
      "timezone": {
        "offset": "+04:30",
        "description": "Asia/Kabul"
      },
      "avatar_url": "https://api.dicebear.com/8.x/thumbs/svg?seed=MaryamSadat"
    },
    {
      "name": "Jawad Khogyani",
      "gender": "Male",
      "phone_number": "+93 71 901 2345",
      "street_address": "40 Behsud Road",
      "street_name": "Behsud Road",
      "building_number": "40",
      "city": "Jalalabad",
      "state": "Nangarhar Province",
      "postal_code": "2602",
      "coordinates": {
        "latitude": "34.4341",
        "longitude": "70.4476"
      },
      "timezone": {
        "offset": "+04:30",
        "description": "Asia/Kabul"
      },
      "avatar_url": "https://api.dicebear.com/8.x/thumbs/svg?seed=JawadKhogyani"
    },
    {
      "name": "Shabana Wardak",
      "gender": "Female",
      "phone_number": "+93 70 912 3456",
      "street_address": "29 Bagrami Street",
      "street_name": "Bagrami Street",
      "building_number": "29",
      "city": "Kabul",
      "state": "Kabul Province",
      "postal_code": "1003",
      "coordinates": {
        "latitude": "34.5553",
        "longitude": "69.2075"
      },
      "timezone": {
        "offset": "+04:30",
        "description": "Asia/Kabul"
      },
      "avatar_url": "https://api.dicebear.com/8.x/thumbs/svg?seed=ShabanaWardak"
    }
  ]
}