{
  "meta": {
    "country": "Republic of Armenia",
    "country_code": "AM",
    "country_flag": "ðŸ‡¦ðŸ‡²",
    "currency": "AMD"
  },
  "addresses": [
    {
      "name": "Arman Petrosyan",
      "gender": "Male",
      "phone_number": "+374 91 123 456",
      "street_address": "12 Northern Avenue",
      "street_name": "Northern Avenue",
      "building_number": "12",
      "city": "Yerevan",
      "state": "Yerevan",
      "postal_code": "0001",
      "coordinates": {
        "latitude": "40.1792",
        "longitude": "44.4991"
      },
      "timezone": {
        "offset": "+04:00",
        "description": "Asia/Yerevan"
      },
      "avatar_url": "https://api.dicebear.com/8.x/thumbs/svg?seed=ArmanPetrosyan"
    },
    {
      "name": "Ani Harutyunyan",
      "gender": "Female",
      "phone_number": "+374 94 234 567",
      "street_address": "45 Tigran Mets Avenue",
      "street_name": "Tigran Mets Avenue",
      "building_number": "45",
      "city": "Yerevan",
      "state": "Yerevan",
      "postal_code": "0018",
      "coordinates": {
        "latitude": "40.1750",
        "longitude": "44.5152"
      },
      "timezone": {
        "offset": "+04:00",
        "description": "Asia/Yerevan"
      },
      "avatar_url": "https://api.dicebear.com/8.x/thumbs/svg?seed=AniHarutyunyan"
    },
    {
      "name": "Gevorg Sargsyan",
      "gender": "Male",
      "phone_number": "+374 55 345 678",
      "street_address": "78 Abovyan Street",
      "street_name": "Abovyan Street",
      "building_number": "78",
      "city": "Gyumri",
      "state": "Shirak",
      "postal_code": "3101",
      "coordinates": {
        "latitude": "40.7894",
        "longitude": "43.8475"
      },
      "timezone": {
        "offset": "+04:00",
        "description": "Asia/Yerevan"
      },
      "avatar_url": "https://api.dicebear.com/8.x/thumbs/svg?seed=GevorgSargsyan"
    },
    {
      "name": "Lilit Hakobyan",
      "gender": "Female",
      "phone_number": "+374 77 456 789",
      "street_address": "101 Aram Khachaturian Street",
      "street_name": "Aram Khachaturian Street",
      "building_number": "101",
      "city": "Vanadzor",
      "state": "Lori",
      "postal_code": "2002",
      "coordinates": {
        "latitude": "40.8144",
        "longitude": "44.4939"
      },
      "timezone": {
        "offset": "+04:00",
        "description": "Asia/Yerevan"
      },
      "avatar_url": "https://api.dicebear.com/8.x/thumbs/svg?seed=LilitHakobyan"
    },
    {
      "name": "Hayk Melikyan",
      "gender": "Male",
      "phone_number": "+374 99 567 890",
      "street_address": "34 Mesrop Mashtots Avenue",
      "street_name": "Mesrop Mashtots Avenue",
      "building_number": "34",
      "city": "Yerevan",
      "state": "Yerevan",
      "postal_code": "0009",
      "coordinates": {
        "latitude": "40.1790",
        "longitude": "44.5058"
      },
      "timezone": {
        "offset": "+04:00",
        "description": "Asia/Yerevan"
      },
      "avatar_url": "https://api.dicebear.com/8.x/thumbs/svg?seed=HaykMelikyan"
    },
    {
      "name": "Nare Grigoryan",
      "gender": "Female",
      "phone_number": "+374 91 678 901",
      "street_address": "56 Komitas Avenue",
      "street_name": "Komitas Avenue",
      "building_number": "56",
      "city": "Yerevan",
      "state": "Yerevan",
      "postal_code": "0012",
      "coordinates": {
        "latitude": "40.2041",
        "longitude": "44.4995"
      },
      "timezone": {
        "offset": "+04:00",
        "description": "Asia/Yerevan"
      },
      "avatar_url": "https://api.dicebear.com/8.x/thumbs/svg?seed=NareGrigoryan"
    },
    {
      "name": "Tigran Vardanyan",
      "gender": "Male",
      "phone_number": "+374 94 789 012",
      "street_address": "89 Tumanyan Street",
      "street_name": "Tumanyan Street",
      "building_number": "89",
      "city": "Gyumri",
      "state": "Shirak",
      "postal_code": "3105",
      "coordinates": {
        "latitude": "40.7894",
        "longitude": "43.8475"
      },
      "timezone": {
        "offset": "+04:00",
        "description": "Asia/Yerevan"
      },
      "avatar_url": "https://api.dicebear.com/8.x/thumbs/svg?seed=TigranVardanyan"
    },
    {
      "name": "Mariam Avetisyan",
      "gender": "Female",
      "phone_number": "+374 55 890 123",
      "street_address": "73 Baghramyan Avenue",
      "street_name": "Baghramyan Avenue",
      "building_number": "73",
      "city": "Yerevan",
      "state": "Yerevan",
      "postal_code": "0025",
      "coordinates": {
        "latitude": "40.1800",
        "longitude": "44.4891"
      },
      "timezone": {
        "offset": "+04:00",
        "description": "Asia/Yerevan"
      },
      "avatar_url": "https://api.dicebear.com/8.x/thumbs/svg?seed=MariamAvetisyan"
    },
    {
      "name": "Arsen Danielyan",
      "gender": "Male",
      "phone_number": "+374 77 901 234",
      "street_address": "48 Mashtots Avenue",
      "street_name": "Mashtots Avenue",
      "building_number": "48",
      "city": "Vanadzor",
      "state": "Lori",
      "postal_code": "2004",
      "coordinates": {
        "latitude": "40.8144",
        "longitude": "44.4939"
      },
      "timezone": {
        "offset": "+04:00",
        "description": "Asia/Yerevan"
      },
      "avatar_url": "https://api.dicebear.com/8.x/thumbs/svg?seed=ArsenDanielyan"
    },
    {
      "name": "Lusine Sahakyan",
      "gender": "Female",
      "phone_number": "+374 99 912 345",
      "street_address": "15 Charents Street",
      "street_name": "Charents Street",
      "building_number": "15",
      "city": "Hrazdan",
      "state": "Kotayk",
      "postal_code": "2301",
      "coordinates": {
        "latitude": "40.5320",
        "longitude": "44.7700"
      },
      "timezone": {
        "offset": "+04:00",
        "description": "Asia/Yerevan"
      },
      "avatar_url": "https://api.dicebear.com/8.x/thumbs/svg?seed=LusineSahakyan"
    }
  ]
}