{
  "meta": {
    "country": "Republic of Bulgaria",
    "country_code": "BG",
    "currency": "BGN",
    "country_flag": "ðŸ‡§ðŸ‡¬"
  },
  "addresses": [
    {
      "name": "Georgi Ivanov",
      "gender": "Male",
      "phone_number": "+359 88 123 4567",
      "street_address": "123 Tsar Osvoboditel Boulevard",
      "street_name": "Tsar Osvoboditel Boulevard",
      "building_number": "123",
      "city": "Sofia",
      "state": "Sofia City Province",
      "postal_code": "1000",
      "coordinates": {
        "latitude": "42.6952",
        "longitude": "23.3327"
      },
      "timezone": {
        "offset": "+02:00",
        "description": "Europe/Sofia"
      },
      "avatar_url": "https://api.dicebear.com/8.x/thumbs/svg?seed=GeorgiIvanov"
    },
    {
      "name": "Elena Dimitrova",
      "gender": "Female",
      "phone_number": "+359 89 234 5678",
      "street_address": "45 Vasil Levski Street",
      "street_name": "Vasil Levski Street",
      "building_number": "45",
      "city": "Plovdiv",
      "state": "Plovdiv Province",
      "postal_code": "4000",
      "coordinates": {
        "latitude": "42.1354",
        "longitude": "24.7453"
      },
      "timezone": {
        "offset": "+02:00",
        "description": "Europe/Sofia"
      },
      "avatar_url": "https://api.dicebear.com/8.x/thumbs/svg?seed=ElenaDimitrova"
    },
    {
      "name": "Dimitar Petrov",
      "gender": "Male",
      "phone_number": "+359 87 345 6789",
      "street_address": "78 Slivnitsa Boulevard",
      "street_name": "Slivnitsa Boulevard",
      "building_number": "78",
      "city": "Varna",
      "state": "Varna Province",
      "postal_code": "9000",
      "coordinates": {
        "latitude": "43.2141",
        "longitude": "27.9147"
      },
      "timezone": {
        "offset": "+02:00",
        "description": "Europe/Sofia"
      },
      "avatar_url": "https://api.dicebear.com/8.x/thumbs/svg?seed=DimitarPetrov"
    },
    {
      "name": "Ivanka Georgieva",
      "gender": "Female",
      "phone_number": "+359 88 456 7890",
      "street_address": "101 Aleksandrovska Street",
      "street_name": "Aleksandrovska Street",
      "building_number": "101",
      "city": "Burgas",
      "state": "Burgas Province",
      "postal_code": "8000",
      "coordinates": {
        "latitude": "42.5048",
        "longitude": "27.4626"
      },
      "timezone": {
        "offset": "+02:00",
        "description": "Europe/Sofia"
      },
      "avatar_url": "https://api.dicebear.com/8.x/thumbs/svg?seed=IvankaGeorgieva"
    },
    {
      "name": "Nikolay Stoyanov",
      "gender": "Male",
      "phone_number": "+359 89 567 8901",
      "street_address": "34 Hristo Botev Boulevard",
      "street_name": "Hristo Botev Boulevard",
      "building_number": "34",
      "city": "Ruse",
      "state": "Ruse Province",
      "postal_code": "7000",
      "coordinates": {
        "latitude": "43.8456",
        "longitude": "25.9530"
      },
      "timezone": {
        "offset": "+02:00",
        "description": "Europe/Sofia"
      },
      "avatar_url": "https://api.dicebear.com/8.x/thumbs/svg?seed=NikolayStoyanov"
    },
    {
      "name": "Raya Vasileva",
      "gender": "Female",
      "phone_number": "+359 88 678 9012",
      "street_address": "56 Patriarch Evtimiy Boulevard",
      "street_name": "Patriarch Evtimiy Boulevard",
      "building_number": "56",
      "city": "Sofia",
      "state": "Sofia City Province",
      "postal_code": "1000",
      "coordinates": {
        "latitude": "42.6898",
        "longitude": "23.3235"
      },
      "timezone": {
        "offset": "+02:00",
        "description": "Europe/Sofia"
      },
      "avatar_url": "https://api.dicebear.com/8.x/thumbs/svg?seed=RayaVasileva"
    },
    {
      "name": "Stefan Todorov",
      "gender": "Male",
      "phone_number": "+359 87 789 0123",
      "street_address": "22 Ivan Vazov Street",
      "street_name": "Ivan Vazov Street",
      "building_number": "22",
      "city": "Varna",
      "state": "Varna Province",
      "postal_code": "9000",
      "coordinates": {
        "latitude": "43.2085",
        "longitude": "27.9155"
      },
      "timezone": {
        "offset": "+02:00",
        "description": "Europe/Sofia"
      },
      "avatar_url": "https://api.dicebear.com/8.x/thumbs/svg?seed=StefanTodorov"
    },
    {
      "name": "Mila Koleva",
      "gender": "Female",
      "phone_number": "+359 89 890 1234",
      "street_address": "89 Knyaz Boris I Boulevard",
      "street_name": "Knyaz Boris I Boulevard",
      "building_number": "89",
      "city": "Plovdiv",
      "state": "Plovdiv Province",
      "postal_code": "4000",
      "coordinates": {
        "latitude": "42.1376",
        "longitude": "24.7458"
      },
      "timezone": {
        "offset": "+02:00",
        "description": "Europe/Sofia"
      },
      "avatar_url": "https://api.dicebear.com/8.x/thumbs/svg?seed=MilaKoleva"
    },
    {
      "name": "Petar Iliev",
      "gender": "Male",
      "phone_number": "+359 88 901 2345",
      "street_address": "67 Aleksandar Stamboliyski Boulevard",
      "street_name": "Aleksandar Stamboliyski Boulevard",
      "building_number": "67",
      "city": "Burgas",
      "state": "Burgas Province",
      "postal_code": "8000",
      "coordinates": {
        "latitude": "42.5074",
        "longitude": "27.4629"
      },
      "timezone": {
        "offset": "+02:00",
        "description": "Europe/Sofia"
      },
      "avatar_url": "https://api.dicebear.com/8.x/thumbs/svg?seed=PetarIliev"
    },
    {
      "name": "Tsvetelina Marinova",
      "gender": "Female",
      "phone_number": "+359 87 912 3456",
      "street_address": "90 Dondukov Boulevard",
      "street_name": "Dondukov Boulevard",
      "building_number": "90",
      "city": "Ruse",
      "state": "Ruse Province",
      "postal_code": "7000",
      "coordinates": {
        "latitude": "43.8449",
        "longitude": "25.9560"
      },
      "timezone": {
        "offset": "+02:00",
        "description": "Europe/Sofia"
      },
      "avatar_url": "https://api.dicebear.com/8.x/thumbs/svg?seed=TsvetelinaMarinova"
    }
  ]
}