{
  "meta": {
    "country": "India",
    "country_code": "IN",
    "currency": "INR",
    "country_flag": "ðŸ‡®ðŸ‡³"
  },
  "addresses": [
    {
      "name": "Rajesh Kumar",
      "gender": "Male",
      "phone_number": "+91 98101 23456",
      "street_address": "120 MG Road",
      "street_name": "MG Road",
      "building_number": "120",
      "city": "Mumbai",
      "state": "Maharashtra",
      "postal_code": "400001",
      "coordinates": {
        "latitude": "19.0728",
        "longitude": "72.8826"
      },
      "timezone": {
        "offset": "+05:30",
        "description": "Asia/Kolkata"
      },
      "avatar_url": "https://api.dicebear.com/8.x/thumbs/svg?seed=RajeshKumar"
    },
    {
      "name": "Priya Menon",
      "gender": "Female",
      "phone_number": "+91 98450 34567",
      "street_address": "45 Brigade Road",
      "street_name": "Brigade Road",
      "building_number": "45",
      "city": "Bangalore",
      "state": "Karnataka",
      "postal_code": "560001",
      "coordinates": {
        "latitude": "12.9716",
        "longitude": "77.5946"
      },
      "timezone": {
        "offset": "+05:30",
        "description": "Asia/Kolkata"
      },
      "avatar_url": "https://api.dicebear.com/8.x/thumbs/svg?seed=PriyaMenon"
    },
    {
      "name": "Arjun Das",
      "gender": "Male",
      "phone_number": "+91 98300 45678",
      "street_address": "789 Park Street",
      "street_name": "Park Street",
      "building_number": "789",
      "city": "Kolkata",
      "state": "West Bengal",
      "postal_code": "700016",
      "coordinates": {
        "latitude": "22.5726",
        "longitude": "88.3639"
      },
      "timezone": {
        "offset": "+05:30",
        "description": "Asia/Kolkata"
      },
      "avatar_url": "https://api.dicebear.com/8.x/thumbs/svg?seed=ArjunDas"
    },
    {
      "name": "Neha Verma",
      "gender": "Female",
      "phone_number": "+91 98180 56789",
      "street_address": "34 Connaught Place",
      "street_name": "Connaught Place",
      "building_number": "34",
      "city": "New Delhi",
      "state": "Delhi",
      "postal_code": "110001",
      "coordinates": {
        "latitude": "28.6353",
        "longitude": "77.22496"
      },
      "timezone": {
        "offset": "+05:30",
        "description": "Asia/Kolkata"
      },
      "avatar_url": "https://api.dicebear.com/8.x/thumbs/svg?seed=NehaVerma"
    },
    {
      "name": "Vikram Iyer",
      "gender": "Male",
      "phone_number": "+91 94444 67890",
      "street_address": "12 Anna Salai",
      "street_name": "Anna Salai",
      "building_number": "12",
      "city": "Chennai",
      "state": "Tamil Nadu",
      "postal_code": "600002",
      "coordinates": {
        "latitude": "13.0624",
        "longitude": "80.2512"
      },
      "timezone": {
        "offset": "+05:30",
        "description": "Asia/Kolkata"
      },
      "avatar_url": "https://api.dicebear.com/8.x/thumbs/svg?seed=VikramIyer"
    },
    {
      "name": "Anjali Sharma",
      "gender": "Female",
      "phone_number": "+91 97200 11122",
      "street_address": "88 SG Highway",
      "street_name": "SG Highway",
      "building_number": "88",
      "city": "Ahmedabad",
      "state": "Gujarat",
      "postal_code": "380054",
      "coordinates": {
        "latitude": "23.0739",
        "longitude": "72.5873"
      },
      "timezone": {
        "offset": "+05:30",
        "description": "Asia/Kolkata"
      },
      "avatar_url": "https://api.dicebear.com/8.x/thumbs/svg?seed=AnjaliSharma"
    },
    {
      "name": "Siddharth Mehta",
      "gender": "Male",
      "phone_number": "+91 90290 22334",
      "street_address": "67 Law Garden Road",
      "street_name": "Law Garden Road",
      "building_number": "67",
      "city": "Ahmedabad",
      "state": "Gujarat",
      "postal_code": "380006",
      "coordinates": {
        "latitude": "23.0295",
        "longitude": "72.5879"
      },
      "timezone": {
        "offset": "+05:30",
        "description": "Asia/Kolkata"
      },
      "avatar_url": "https://api.dicebear.com/8.x/thumbs/svg?seed=SiddharthMehta"
    },
    {
      "name": "Kavita Reddy",
      "gender": "Female",
      "phone_number": "+91 88888 44444",
      "street_address": "56 Banjara Hills",
      "street_name": "Banjara Hills",
      "building_number": "56",
      "city": "Hyderabad",
      "state": "Telangana",
      "postal_code": "500034",
      "coordinates": {
        "latitude": "17.4170",
        "longitude": "78.4489"
      },
      "timezone": {
        "offset": "+05:30",
        "description": "Asia/Kolkata"
      },
      "avatar_url": "https://api.dicebear.com/8.x/thumbs/svg?seed=KavitaReddy"
    },
    {
      "name": "Rohan Bhatt",
      "gender": "Male",
      "phone_number": "+91 90909 55555",
      "street_address": "89 Koregaon Park",
      "street_name": "Koregaon Park",
      "building_number": "89",
      "city": "Pune",
      "state": "Maharashtra",
      "postal_code": "411001",
      "coordinates": {
        "latitude": "18.5196",
        "longitude": "73.8553"
      },
      "timezone": {
        "offset": "+05:30",
        "description": "Asia/Kolkata"
      },
      "avatar_url": "https://api.dicebear.com/8.x/thumbs/svg?seed=RohanBhatt"
    },
    {
      "name": "Sneha Joshi",
      "gender": "Female",
      "phone_number": "+91 78787 66666",
      "street_address": "23 FC Road",
      "street_name": "FC Road",
      "building_number": "23",
      "city": "Pune",
      "state": "Maharashtra",
      "postal_code": "411005",
      "coordinates": {
        "latitude": "18.5150",
        "longitude": "73.8419"
      },
      "timezone": {
        "offset": "+05:30",
        "description": "Asia/Kolkata"
      },
      "avatar_url": "https://api.dicebear.com/8.x/thumbs/svg?seed=SnehaJoshi"
    }
  ]
}