{
  "meta": {
    "country": "Iceland",
    "country_code": "IS",
    "currency": "ISK",
    "country_flag": "🇮🇸"
  },
  "addresses": [
    {
      "name": "Jón Einarsson",
      "gender": "Male",
      "phone_number": "+354 691 1234",
      "street_address": "123 Laugavegur",
      "street_name": "Laugavegur",
      "building_number": "123",
      "city": "Reykjavík",
      "state": "Capital Region",
      "postal_code": "101",
      "coordinates": {
        "latitude": "64.1446",
        "longitude": "-21.9266"
      },
      "timezone": {
        "offset": "+00:00",
        "description": "Atlantic/Reykjavik"
      },
      "avatar_url": "https://api.dicebear.com/8.x/thumbs/svg?seed=JonEinarsson"
    },
    {
      "name": "Anna Guðmundsdóttir",
      "gender": "Female",
      "phone_number": "+354 692 5678",
      "street_address": "45 Hafnargata",
      "street_name": "Hafnargata",
      "building_number": "45",
      "city": "Keflavík",
      "state": "Southern Peninsula",
      "postal_code": "230",
      "coordinates": {
        "latitude": "63.9986",
        "longitude": "-22.5500"
      },
      "timezone": {
        "offset": "+00:00",
        "description": "Atlantic/Reykjavik"
      },
      "avatar_url": "https://api.dicebear.com/8.x/thumbs/svg?seed=AnnaGudmundsdottir"
    },
    {
      "name": "Bjarni Sigurðsson",
      "gender": "Male",
      "phone_number": "+354 693 9012",
      "street_address": "78 Kaupvangsstræti",
      "street_name": "Kaupvangsstræti",
      "building_number": "78",
      "city": "Akureyri",
      "state": "Northeast Region",
      "postal_code": "600",
      "coordinates": {
        "latitude": "65.6839",
        "longitude": "-18.1105"
      },
      "timezone": {
        "offset": "+00:00",
        "description": "Atlantic/Reykjavik"
      },
      "avatar_url": "https://api.dicebear.com/8.x/thumbs/svg?seed=BjarniSigurdsson"
    },
    {
      "name": "Elísabet Ólafsdóttir",
      "gender": "Female",
      "phone_number": "+354 694 3456",
      "street_address": "101 Skólavörðustígur",
      "street_name": "Skólavörðustígur",
      "building_number": "101",
      "city": "Reykjavík",
      "state": "Capital Region",
      "postal_code": "101",
      "coordinates": {
        "latitude": "64.1439",
        "longitude": "-21.9277"
      },
      "timezone": {
        "offset": "+00:00",
        "description": "Atlantic/Reykjavik"
      },
      "avatar_url": "https://api.dicebear.com/8.x/thumbs/svg?seed=ElisabetOlafsdottir"
    },
    {
      "name": "Guðmundur Haraldsson",
      "gender": "Male",
      "phone_number": "+354 695 7890",
      "street_address": "34 Austurvegur",
      "street_name": "Austurvegur",
      "building_number": "34",
      "city": "Selfoss",
      "state": "South Iceland",
      "postal_code": "800",
      "coordinates": {
        "latitude": "63.9333",
        "longitude": "-20.9989"
      },
      "timezone": {
        "offset": "+00:00",
        "description": "Atlantic/Reykjavik"
      },
      "avatar_url": "https://api.dicebear.com/8.x/thumbs/svg?seed=GudmundurHaraldsson"
    },
    {
      "name": "Katrín Björnsdóttir",
      "gender": "Female",
      "phone_number": "+354 696 1357",
      "street_address": "56 Hringbraut",
      "street_name": "Hringbraut",
      "building_number": "56",
      "city": "Reykjavík",
      "state": "Capital Region",
      "postal_code": "101",
      "coordinates": {
        "latitude": "64.1389",
        "longitude": "-21.9506"
      },
      "timezone": {
        "offset": "+00:00",
        "description": "Atlantic/Reykjavik"
      },
      "avatar_url": "https://api.dicebear.com/8.x/thumbs/svg?seed=KatrinBjornsdottir"
    },
    {
      "name": "Aron Þórsson",
      "gender": "Male",
      "phone_number": "+354 697 2468",
      "street_address": "89 Suðurgata",
      "street_name": "Suðurgata",
      "building_number": "89",
      "city": "Akranes",
      "state": "West Iceland",
      "postal_code": "300",
      "coordinates": {
        "latitude": "64.3210",
        "longitude": "-22.0712"
      },
      "timezone": {
        "offset": "+00:00",
        "description": "Atlantic/Reykjavik"
      },
      "avatar_url": "https://api.dicebear.com/8.x/thumbs/svg?seed=AronThorsson"
    },
    {
      "name": "Ragna Jónsdóttir",
      "gender": "Female",
      "phone_number": "+354 698 3579",
      "street_address": "67 Skúlagata",
      "street_name": "Skúlagata",
      "building_number": "67",
      "city": "Reykjavík",
      "state": "Capital Region",
      "postal_code": "105",
      "coordinates": {
        "latitude": "64.1475",
        "longitude": "-21.9184"
      },
      "timezone": {
        "offset": "+00:00",
        "description": "Atlantic/Reykjavik"
      },
      "avatar_url": "https://api.dicebear.com/8.x/thumbs/svg?seed=RagnaJonsdottir"
    },
    {
      "name": "Einar Kristjánsson",
      "gender": "Male",
      "phone_number": "+354 699 4680",
      "street_address": "22 Austurstræti",
      "street_name": "Austurstræti",
      "building_number": "22",
      "city": "Reykjavík",
      "state": "Capital Region",
      "postal_code": "101",
      "coordinates": {
        "latitude": "64.1460",
        "longitude": "-21.9385"
      },
      "timezone": {
        "offset": "+00:00",
        "description": "Atlantic/Reykjavik"
      },
      "avatar_url": "https://api.dicebear.com/8.x/thumbs/svg?seed=EinarKristjansson"
    },
    {
      "name": "Birna Sveinsdóttir",
      "gender": "Female",
      "phone_number": "+354 690 5791",
      "street_address": "10 Tryggvagata",
      "street_name": "Tryggvagata",
      "building_number": "10",
      "city": "Reykjavík",
      "state": "Capital Region",
      "postal_code": "101",
      "coordinates": {
        "latitude": "64.1480",
        "longitude": "-21.9405"
      },
      "timezone": {
        "offset": "+00:00",
        "description": "Atlantic/Reykjavik"
      },
      "avatar_url": "https://api.dicebear.com/8.x/thumbs/svg?seed=BirnaSveinsdottir"
    }
  ]
}