{
  "meta": {
    "country": "Poland",
    "country_code": "PL",
    "currency": "PLN",
    "country_flag": "叼"
  },
  "addresses": [
    {
      "name": "Jakub Nowak",
      "gender": "Male",
      "phone_number": "+48 501 234 567",
      "street_address": "123 Nowy wiat",
      "street_name": "Nowy wiat",
      "building_number": "123",
      "city": "Warsaw",
      "state": "Masovian",
      "postal_code": "00-001",
      "coordinates": {
        "latitude": "52.2297",
        "longitude": "21.0122"
      },
      "timezone": {
        "offset": "+01:00",
        "description": "Central European Time"
      },
      "avatar_url": "https://api.dicebear.com/8.x/thumbs/svg?seed=JakubNowak"
    },
    {
      "name": "Anna Kowalska",
      "gender": "Female",
      "phone_number": "+48 502 345 678",
      "street_address": "456 Rynek G贸wny",
      "street_name": "Rynek G贸wny",
      "building_number": "456",
      "city": "Krak贸w",
      "state": "Lesser Poland",
      "postal_code": "31-042",
      "coordinates": {
        "latitude": "50.0647",
        "longitude": "19.9450"
      },
      "timezone": {
        "offset": "+01:00",
        "description": "Central European Time"
      },
      "avatar_url": "https://api.dicebear.com/8.x/thumbs/svg?seed=AnnaKowalska"
    },
    {
      "name": "Piotr Zieliski",
      "gender": "Male",
      "phone_number": "+48 503 456 789",
      "street_address": "789 Piotrkowska",
      "street_name": "Piotrkowska",
      "building_number": "789",
      "city": "贸d藕",
      "state": "贸d藕",
      "postal_code": "90-001",
      "coordinates": {
        "latitude": "51.7592",
        "longitude": "19.4550"
      },
      "timezone": {
        "offset": "+01:00",
        "description": "Central European Time"
      },
      "avatar_url": "https://api.dicebear.com/8.x/thumbs/svg?seed=PiotrZielinski"
    },
    {
      "name": "Magdalena W贸jcik",
      "gender": "Female",
      "phone_number": "+48 504 567 890",
      "street_address": "101 Duga",
      "street_name": "Duga",
      "building_number": "101",
      "city": "Gdask",
      "state": "Pomeranian",
      "postal_code": "80-001",
      "coordinates": {
        "latitude": "54.3520",
        "longitude": "18.6466"
      },
      "timezone": {
        "offset": "+01:00",
        "description": "Central European Time"
      },
      "avatar_url": "https://api.dicebear.com/8.x/thumbs/svg?seed=MagdalenaWojcik"
    },
    {
      "name": "Tomasz Kaczmarek",
      "gender": "Male",
      "phone_number": "+48 505 678 901",
      "street_address": "34 Stary Rynek",
      "street_name": "Stary Rynek",
      "building_number": "34",
      "city": "Pozna",
      "state": "Greater Poland",
      "postal_code": "61-772",
      "coordinates": {
        "latitude": "52.4084",
        "longitude": "16.9342"
      },
      "timezone": {
        "offset": "+01:00",
        "description": "Central European Time"
      },
      "avatar_url": "https://api.dicebear.com/8.x/thumbs/svg?seed=TomaszKaczmarek"
    },
    {
      "name": "Alicja Dbrowska",
      "gender": "Female",
      "phone_number": "+48 506 789 012",
      "street_address": "88 Plac Zbawiciela",
      "street_name": "Plac Zbawiciela",
      "building_number": "88",
      "city": "Warsaw",
      "state": "Masovian",
      "postal_code": "00-680",
      "coordinates": {
        "latitude": "52.2184",
        "longitude": "21.0200"
      },
      "timezone": {
        "offset": "+01:00",
        "description": "Central European Time"
      },
      "avatar_url": "https://api.dicebear.com/8.x/thumbs/svg?seed=AlicjaDabrowska"
    },
    {
      "name": "Micha Lewandowski",
      "gender": "Male",
      "phone_number": "+48 507 890 123",
      "street_address": "66 Ulica Floriaska",
      "street_name": "Ulica Floriaska",
      "building_number": "66",
      "city": "Krak贸w",
      "state": "Lesser Poland",
      "postal_code": "31-019",
      "coordinates": {
        "latitude": "50.0656",
        "longitude": "19.9449"
      },
      "timezone": {
        "offset": "+01:00",
        "description": "Central European Time"
      },
      "avatar_url": "https://api.dicebear.com/8.x/thumbs/svg?seed=MichalLewandowski"
    },
    {
      "name": "Ewa Kwiatkowska",
      "gender": "Female",
      "phone_number": "+48 508 901 234",
      "street_address": "55 Ulica Tumska",
      "street_name": "Ulica Tumska",
      "building_number": "55",
      "city": "Pock",
      "state": "Masovian",
      "postal_code": "09-400",
      "coordinates": {
        "latitude": "52.5468",
        "longitude": "19.7064"
      },
      "timezone": {
        "offset": "+01:00",
        "description": "Central European Time"
      },
      "avatar_url": "https://api.dicebear.com/8.x/thumbs/svg?seed=EwaKwiatkowska"
    },
    {
      "name": "Kacper Mazur",
      "gender": "Male",
      "phone_number": "+48 509 012 345",
      "street_address": "77 Ulica Kociuszki",
      "street_name": "Ulica Kociuszki",
      "building_number": "77",
      "city": "Wrocaw",
      "state": "Lower Silesian",
      "postal_code": "50-441",
      "coordinates": {
        "latitude": "51.1079",
        "longitude": "17.0385"
      },
      "timezone": {
        "offset": "+01:00",
        "description": "Central European Time"
      },
      "avatar_url": "https://api.dicebear.com/8.x/thumbs/svg?seed=KacperMazur"
    },
    {
      "name": "Zofia Grabowska",
      "gender": "Female",
      "phone_number": "+48 510 123 456",
      "street_address": "99 Plac Wolnoci",
      "street_name": "Plac Wolnoci",
      "building_number": "99",
      "city": "Lublin",
      "state": "Lublin",
      "postal_code": "20-002",
      "coordinates": {
        "latitude": "51.2465",
        "longitude": "22.5684"
      },
      "timezone": {
        "offset": "+01:00",
        "description": "Central European Time"
      },
      "avatar_url": "https://api.dicebear.com/8.x/thumbs/svg?seed=ZofiaGrabowska"
    }
  ]
}