{
  "meta": {
    "country": "Anguilla",
    "country_code": "AI",
    "country_flag": "ðŸ‡¦ðŸ‡®",
    "currency": "XCD"
  },
  "addresses": [
    {
      "name": "Liam Brooks",
      "gender": "Male",
      "phone_number": "+1 264 235 1234",
      "street_address": "12 Shoal Bay East",
      "street_name": "Shoal Bay East",
      "building_number": "12",
      "city": "The Valley",
      "state": "Anguilla",
      "postal_code": "AI-2640",
      "coordinates": {
        "latitude": "18.2170",
        "longitude": "-63.0578"
      },
      "timezone": {
        "offset": "-04:00",
        "description": "America/Anguilla"
      },
      "avatar_url": "https://api.dicebear.com/8.x/thumbs/svg?seed=LiamBrooks"
    },
    {
      "name": "Isla Harrigan",
      "gender": "Female",
      "phone_number": "+1 264 772 4567",
      "street_address": "34 Sandy Ground Road",
      "street_name": "Sandy Ground Road",
      "building_number": "34",
      "city": "Sandy Ground",
      "state": "Anguilla",
      "postal_code": "AI-2640",
      "coordinates": {
        "latitude": "18.2043",
        "longitude": "-63.1103"
      },
      "timezone": {
        "offset": "-04:00",
        "description": "America/Anguilla"
      },
      "avatar_url": "https://api.dicebear.com/8.x/thumbs/svg?seed=IslaHarrigan"
    },
    {
      "name": "Noah Richardson",
      "gender": "Male",
      "phone_number": "+1 264 498 7890",
      "street_address": "56 West End Bay Drive",
      "street_name": "West End Bay Drive",
      "building_number": "56",
      "city": "West End Village",
      "state": "Anguilla",
      "postal_code": "AI-2640",
      "coordinates": {
        "latitude": "18.1833",
        "longitude": "-63.1500"
      },
      "timezone": {
        "offset": "-04:00",
        "description": "America/Anguilla"
      },
      "avatar_url": "https://api.dicebear.com/8.x/thumbs/svg?seed=NoahRichardson"
    },
    {
      "name": "Olivia Lake",
      "gender": "Female",
      "phone_number": "+1 264 581 3456",
      "street_address": "78 Rendezvous Bay Street",
      "street_name": "Rendezvous Bay Street",
      "building_number": "78",
      "city": "Rendezvous",
      "state": "Anguilla",
      "postal_code": "AI-2640",
      "coordinates": {
        "latitude": "18.1897",
        "longitude": "-63.1234"
      },
      "timezone": {
        "offset": "-04:00",
        "description": "America/Anguilla"
      },
      "avatar_url": "https://api.dicebear.com/8.x/thumbs/svg?seed=OliviaLake"
    },
    {
      "name": "Ethan Gumbs",
      "gender": "Male",
      "phone_number": "+1 264 729 9876",
      "street_address": "90 Meads Bay Road",
      "street_name": "Meads Bay Road",
      "building_number": "90",
      "city": "Meads Bay",
      "state": "Anguilla",
      "postal_code": "AI-2640",
      "coordinates": {
        "latitude": "18.1867",
        "longitude": "-63.1507"
      },
      "timezone": {
        "offset": "-04:00",
        "description": "America/Anguilla"
      },
      "avatar_url": "https://api.dicebear.com/8.x/thumbs/svg?seed=EthanGumbs"
    },
    {
      "name": "Chloe Fleming",
      "gender": "Female",
      "phone_number": "+1 264 588 1122",
      "street_address": "23 Blowing Point Road",
      "street_name": "Blowing Point Road",
      "building_number": "23",
      "city": "Blowing Point",
      "state": "Anguilla",
      "postal_code": "AI-2640",
      "coordinates": {
        "latitude": "18.1797",
        "longitude": "-63.0968"
      },
      "timezone": {
        "offset": "-04:00",
        "description": "America/Anguilla"
      },
      "avatar_url": "https://api.dicebear.com/8.x/thumbs/svg?seed=ChloeFleming"
    },
    {
      "name": "Jayden Hodge",
      "gender": "Male",
      "phone_number": "+1 264 623 3344",
      "street_address": "64 Long Bay Road",
      "street_name": "Long Bay Road",
      "building_number": "64",
      "city": "Long Bay",
      "state": "Anguilla",
      "postal_code": "AI-2640",
      "coordinates": {
        "latitude": "18.1890",
        "longitude": "-63.1442"
      },
      "timezone": {
        "offset": "-04:00",
        "description": "America/Anguilla"
      },
      "avatar_url": "https://api.dicebear.com/8.x/thumbs/svg?seed=JaydenHodge"
    },
    {
      "name": "Amara Bryan",
      "gender": "Female",
      "phone_number": "+1 264 534 5566",
      "street_address": "15 Island Harbour Lane",
      "street_name": "Island Harbour Lane",
      "building_number": "15",
      "city": "Island Harbour",
      "state": "Anguilla",
      "postal_code": "AI-2640",
      "coordinates": {
        "latitude": "18.2502",
        "longitude": "-63.0091"
      },
      "timezone": {
        "offset": "-04:00",
        "description": "America/Anguilla"
      },
      "avatar_url": "https://api.dicebear.com/8.x/thumbs/svg?seed=AmaraBryan"
    },
    {
      "name": "Nathan Connor",
      "gender": "Male",
      "phone_number": "+1 264 467 7788",
      "street_address": "78 Forest Bay Track",
      "street_name": "Forest Bay Track",
      "building_number": "78",
      "city": "Forest Bay",
      "state": "Anguilla",
      "postal_code": "AI-2640",
      "coordinates": {
        "latitude": "18.2284",
        "longitude": "-63.0476"
      },
      "timezone": {
        "offset": "-04:00",
        "description": "America/Anguilla"
      },
      "avatar_url": "https://api.dicebear.com/8.x/thumbs/svg?seed=NathanConnor"
    },
    {
      "name": "Sophia Webster",
      "gender": "Female",
      "phone_number": "+1 264 689 9900",
      "street_address": "31 Little Harbour Drive",
      "street_name": "Little Harbour Drive",
      "building_number": "31",
      "city": "Little Harbour",
      "state": "Anguilla",
      "postal_code": "AI-2640",
      "coordinates": {
        "latitude": "18.2041",
        "longitude": "-63.0962"
      },
      "timezone": {
        "offset": "-04:00",
        "description": "America/Anguilla"
      },
      "avatar_url": "https://api.dicebear.com/8.x/thumbs/svg?seed=SophiaWebster"
    }
  ]
}