{
  "meta": {
    "country": "Albania",
    "country_code": "AL",
    "country_flag": "ðŸ‡¦ðŸ‡±",
    "currency": "ALL"
  },
  "addresses": [
    {
      "name": "Erion Hoxha",
      "gender": "Male",
      "phone_number": "+355 69 123 4567",
      "street_address": "123 Rruga e DurrÃ«sit",
      "street_name": "Rruga e DurrÃ«sit",
      "building_number": "123",
      "city": "Tirana",
      "state": "Tirana County",
      "postal_code": "1001",
      "coordinates": {
        "latitude": "41.3275",
        "longitude": "19.8189"
      },
      "timezone": {
        "offset": "+01:00",
        "description": "Europe/Tirane"
      },
      "avatar_url": "https://api.dicebear.com/8.x/thumbs/svg?seed=ErionHoxha"
    },
    {
      "name": "Arta Dervishi",
      "gender": "Female",
      "phone_number": "+355 68 234 5678",
      "street_address": "45 Rruga Taulantia",
      "street_name": "Rruga Taulantia",
      "building_number": "45",
      "city": "DurrÃ«s",
      "state": "DurrÃ«s County",
      "postal_code": "2001",
      "coordinates": {
        "latitude": "41.3231",
        "longitude": "19.4414"
      },
      "timezone": {
        "offset": "+01:00",
        "description": "Europe/Tirane"
      },
      "avatar_url": "https://api.dicebear.com/8.x/thumbs/svg?seed=ArtaDervishi"
    },
    {
      "name": "Ilir Meta",
      "gender": "Male",
      "phone_number": "+355 69 345 6789",
      "street_address": "78 Rruga Ismail Qemali",
      "street_name": "Rruga Ismail Qemali",
      "building_number": "78",
      "city": "VlorÃ«",
      "state": "VlorÃ« County",
      "postal_code": "9401",
      "coordinates": {
        "latitude": "40.4667",
        "longitude": "19.4897"
      },
      "timezone": {
        "offset": "+01:00",
        "description": "Europe/Tirane"
      },
      "avatar_url": "https://api.dicebear.com/8.x/thumbs/svg?seed=IlirMeta"
    },
    {
      "name": "Elira Bushati",
      "gender": "Female",
      "phone_number": "+355 67 456 7890",
      "street_address": "101 Rruga Fan Noli",
      "street_name": "Rruga Fan Noli",
      "building_number": "101",
      "city": "ShkodÃ«r",
      "state": "ShkodÃ«r County",
      "postal_code": "4001",
      "coordinates": {
        "latitude": "42.0683",
        "longitude": "19.5126"
      },
      "timezone": {
        "offset": "+01:00",
        "description": "Europe/Tirane"
      },
      "avatar_url": "https://api.dicebear.com/8.x/thumbs/svg?seed=EliraBushati"
    },
    {
      "name": "Besnik Leka",
      "gender": "Male",
      "phone_number": "+355 66 567 8901",
      "street_address": "34 Rruga e Elbasanit",
      "street_name": "Rruga e Elbasanit",
      "building_number": "34",
      "city": "Elbasan",
      "state": "Elbasan County",
      "postal_code": "3001",
      "coordinates": {
        "latitude": "41.1125",
        "longitude": "20.0822"
      },
      "timezone": {
        "offset": "+01:00",
        "description": "Europe/Tirane"
      },
      "avatar_url": "https://api.dicebear.com/8.x/thumbs/svg?seed=BesnikLeka"
    }
  ]
}