{
  "meta": {
    "country": "Bhutan",
    "country_code": "BT",
    "currency": "BTN",
    "country_flag": "ðŸ‡§ðŸ‡¹"
  },
  "addresses": [
    {
      "name": "Tandin Dorji",
      "gender": "Male",
      "phone_number": "+975 17 123456",
      "street_address": "12 Norzin Lam",
      "street_name": "Norzin Lam",
      "building_number": "12",
      "city": "Thimphu",
      "state": "Thimphu District",
      "postal_code": "11001",
      "coordinates": {
        "latitude": "27.4728",
        "longitude": "89.6390"
      },
      "timezone": {
        "offset": "+06:00",
        "description": "Asia/Thimphu"
      },
      "avatar_url": "https://api.dicebear.com/8.x/thumbs/svg?seed=TandinDorji"
    },
    {
      "name": "Sonam Choden",
      "gender": "Female",
      "phone_number": "+975 77 654321",
      "street_address": "45 Chang Lam",
      "street_name": "Chang Lam",
      "building_number": "45",
      "city": "Thimphu",
      "state": "Thimphu District",
      "postal_code": "11002",
      "coordinates": {
        "latitude": "27.4739",
        "longitude": "89.6405"
      },
      "timezone": {
        "offset": "+06:00",
        "description": "Asia/Thimphu"
      },
      "avatar_url": "https://api.dicebear.com/8.x/thumbs/svg?seed=SonamChoden"
    },
    {
      "name": "Kinley Tshering",
      "gender": "Male",
      "phone_number": "+975 16 987654",
      "street_address": "78 Phuntsholing-Gedu Road",
      "street_name": "Phuntsholing-Gedu Road",
      "building_number": "78",
      "city": "Phuntsholing",
      "state": "Chukha District",
      "postal_code": "21001",
      "coordinates": {
        "latitude": "26.8516",
        "longitude": "89.3884"
      },
      "timezone": {
        "offset": "+06:00",
        "description": "Asia/Thimphu"
      },
      "avatar_url": "https://api.dicebear.com/8.x/thumbs/svg?seed=KinleyTshering"
    },
    {
      "name": "Pem Zam",
      "gender": "Female",
      "phone_number": "+975 17 456789",
      "street_address": "101 Bajo Town",
      "street_name": "Bajo Town",
      "building_number": "101",
      "city": "Wangdue Phodrang",
      "state": "Wangdue Phodrang District",
      "postal_code": "13001",
      "coordinates": {
        "latitude": "27.4851",
        "longitude": "89.8995"
      },
      "timezone": {
        "offset": "+06:00",
        "description": "Asia/Thimphu"
      },
      "avatar_url": "https://api.dicebear.com/8.x/thumbs/svg?seed=PemZam"
    },
    {
      "name": "Jigme Wangchuk",
      "gender": "Male",
      "phone_number": "+975 77 112233",
      "street_address": "34 Trashigang Highway",
      "street_name": "Trashigang Highway",
      "building_number": "34",
      "city": "Trashigang",
      "state": "Trashigang District",
      "postal_code": "42001",
      "coordinates": {
        "latitude": "27.3316",
        "longitude": "91.5529"
      },
      "timezone": {
        "offset": "+06:00",
        "description": "Asia/Thimphu"
      },
      "avatar_url": "https://api.dicebear.com/8.x/thumbs/svg?seed=JigmeWangchuk"
    },
    {
      "name": "Karma Dema",
      "gender": "Female",
      "phone_number": "+975 18 998877",
      "street_address": "88 Norzin Lam",
      "street_name": "Norzin Lam",
      "building_number": "88",
      "city": "Thimphu",
      "state": "Thimphu District",
      "postal_code": "11003",
      "coordinates": {
        "latitude": "27.4735",
        "longitude": "89.6397"
      },
      "timezone": {
        "offset": "+06:00",
        "description": "Asia/Thimphu"
      },
      "avatar_url": "https://api.dicebear.com/8.x/thumbs/svg?seed=KarmaDema"
    },
    {
      "name": "Tshering Tobgay",
      "gender": "Male",
      "phone_number": "+975 19 445566",
      "street_address": "59 Babesa Road",
      "street_name": "Babesa Road",
      "building_number": "59",
      "city": "Thimphu",
      "state": "Thimphu District",
      "postal_code": "11004",
      "coordinates": {
        "latitude": "27.4435",
        "longitude": "89.6402"
      },
      "timezone": {
        "offset": "+06:00",
        "description": "Asia/Thimphu"
      },
      "avatar_url": "https://api.dicebear.com/8.x/thumbs/svg?seed=TsheringTobgay"
    },
    {
      "name": "Thinley Lhamo",
      "gender": "Female",
      "phone_number": "+975 75 334455",
      "street_address": "77 Lhuntse Highway",
      "street_name": "Lhuntse Highway",
      "building_number": "77",
      "city": "Lhuntse",
      "state": "Lhuntse District",
      "postal_code": "53001",
      "coordinates": {
        "latitude": "27.6677",
        "longitude": "91.1830"
      },
      "timezone": {
        "offset": "+06:00",
        "description": "Asia/Thimphu"
      },
      "avatar_url": "https://api.dicebear.com/8.x/thumbs/svg?seed=ThinleyLhamo"
    },
    {
      "name": "Dorji Gyeltshen",
      "gender": "Male",
      "phone_number": "+975 71 223344",
      "street_address": "92 Trongsa Road",
      "street_name": "Trongsa Road",
      "building_number": "92",
      "city": "Trongsa",
      "state": "Trongsa District",
      "postal_code": "34001",
      "coordinates": {
        "latitude": "27.5023",
        "longitude": "90.5089"
      },
      "timezone": {
        "offset": "+06:00",
        "description": "Asia/Thimphu"
      },
      "avatar_url": "https://api.dicebear.com/8.x/thumbs/svg?seed=DorjiGyeltshen"
    },
    {
      "name": "Dechen Wangmo",
      "gender": "Female",
      "phone_number": "+975 13 556677",
      "street_address": "65 Paro Chhu Street",
      "street_name": "Paro Chhu Street",
      "building_number": "65",
      "city": "Paro",
      "state": "Paro District",
      "postal_code": "12001",
      "coordinates": {
        "latitude": "27.4305",
        "longitude": "89.4162"
      },
      "timezone": {
        "offset": "+06:00",
        "description": "Asia/Thimphu"
      },
      "avatar_url": "https://api.dicebear.com/8.x/thumbs/svg?seed=DechenWangmo"
    }
  ]
}