{
  "meta": {
    "country": "Chile",
    "country_code": "CL",
    "currency": "CLP",
    "country_flag": "🇨🇱"
  },
  "addresses": [
    {
      "name": "Sebastián Rojas",
      "gender": "Male",
      "phone_number": "+56 9 6123 4567",
      "street_address": "123 Avenida Providencia",
      "street_name": "Avenida Providencia",
      "building_number": "123",
      "city": "Santiago",
      "state": "Región Metropolitana",
      "postal_code": "7500000",
      "coordinates": {
        "latitude": "-33.4372",
        "longitude": "-70.6506"
      },
      "timezone": {
        "offset": "-04:00",
        "description": "America/Santiago"
      },
      "avatar_url": "https://api.dicebear.com/8.x/thumbs/svg?seed=SebastiánRojas"
    },
    {
      "name": "Valentina Pérez",
      "gender": "Female",
      "phone_number": "+56 9 7123 4567",
      "street_address": "45 Calle Condell",
      "street_name": "Calle Condell",
      "building_number": "45",
      "city": "Valparaíso",
      "state": "Región de Valparaíso",
      "postal_code": "2340000",
      "coordinates": {
        "latitude": "-33.0472",
        "longitude": "-71.6127"
      },
      "timezone": {
        "offset": "-04:00",
        "description": "America/Santiago"
      },
      "avatar_url": "https://api.dicebear.com/8.x/thumbs/svg?seed=ValentinaPérez"
    },
    {
      "name": "Matías González",
      "gender": "Male",
      "phone_number": "+56 9 8123 4567",
      "street_address": "78 Avenida Alemania",
      "street_name": "Avenida Alemania",
      "building_number": "78",
      "city": "Temuco",
      "state": "Región de La Araucanía",
      "postal_code": "4810000",
      "coordinates": {
        "latitude": "-38.7359",
        "longitude": "-72.5904"
      },
      "timezone": {
        "offset": "-04:00",
        "description": "America/Santiago"
      },
      "avatar_url": "https://api.dicebear.com/8.x/thumbs/svg?seed=MatíasGonzález"
    },
    {
      "name": "Fernanda Soto",
      "gender": "Female",
      "phone_number": "+56 9 9123 4567",
      "street_address": "101 Calle Balmaceda",
      "street_name": "Calle Balmaceda",
      "building_number": "101",
      "city": "Antofagasta",
      "state": "Región de Antofagasta",
      "postal_code": "1240000",
      "coordinates": {
        "latitude": "-23.6500",
        "longitude": "-70.4000"
      },
      "timezone": {
        "offset": "-04:00",
        "description": "America/Santiago"
      },
      "avatar_url": "https://api.dicebear.com/8.x/thumbs/svg?seed=FernandaSoto"
    },
    {
      "name": "Tomás Herrera",
      "gender": "Male",
      "phone_number": "+56 9 6222 3344",
      "street_address": "34 Avenida España",
      "street_name": "Avenida España",
      "building_number": "34",
      "city": "Concepción",
      "state": "Región del Biobío",
      "postal_code": "4030000",
      "coordinates": {
        "latitude": "-36.8270",
        "longitude": "-73.0503"
      },
      "timezone": {
        "offset": "-04:00",
        "description": "America/Santiago"
      },
      "avatar_url": "https://api.dicebear.com/8.x/thumbs/svg?seed=TomásHerrera"
    },
    {
      "name": "Isidora Morales",
      "gender": "Female",
      "phone_number": "+56 9 6333 4455",
      "street_address": "89 Calle Los Leones",
      "street_name": "Calle Los Leones",
      "building_number": "89",
      "city": "Santiago",
      "state": "Región Metropolitana",
      "postal_code": "7510000",
      "coordinates": {
        "latitude": "-33.4331",
        "longitude": "-70.6172"
      },
      "timezone": {
        "offset": "-04:00",
        "description": "America/Santiago"
      },
      "avatar_url": "https://api.dicebear.com/8.x/thumbs/svg?seed=IsidoraMorales"
    },
    {
      "name": "Diego Fuentes",
      "gender": "Male",
      "phone_number": "+56 9 6444 5566",
      "street_address": "67 Avenida Pedro Montt",
      "street_name": "Avenida Pedro Montt",
      "building_number": "67",
      "city": "Valparaíso",
      "state": "Región de Valparaíso",
      "postal_code": "2350000",
      "coordinates": {
        "latitude": "-33.0458",
        "longitude": "-71.6197"
      },
      "timezone": {
        "offset": "-04:00",
        "description": "America/Santiago"
      },
      "avatar_url": "https://api.dicebear.com/8.x/thumbs/svg?seed=DiegoFuentes"
    },
    {
      "name": "Camila Araya",
      "gender": "Female",
      "phone_number": "+56 9 6555 6677",
      "street_address": "54 Calle Caupolicán",
      "street_name": "Calle Caupolicán",
      "building_number": "54",
      "city": "Temuco",
      "state": "Región de La Araucanía",
      "postal_code": "4820000",
      "coordinates": {
        "latitude": "-38.7383",
        "longitude": "-72.5908"
      },
      "timezone": {
        "offset": "-04:00",
        "description": "America/Santiago"
      },
      "avatar_url": "https://api.dicebear.com/8.x/thumbs/svg?seed=CamilaAraya"
    },
    {
      "name": "Ignacio Reyes",
      "gender": "Male",
      "phone_number": "+56 9 6666 7788",
      "street_address": "98 Avenida O'Higgins",
      "street_name": "Avenida O'Higgins",
      "building_number": "98",
      "city": "Antofagasta",
      "state": "Región de Antofagasta",
      "postal_code": "1250000",
      "coordinates": {
        "latitude": "-23.6510",
        "longitude": "-70.3955"
      },
      "timezone": {
        "offset": "-04:00",
        "description": "America/Santiago"
      },
      "avatar_url": "https://api.dicebear.com/8.x/thumbs/svg?seed=IgnacioReyes"
    },
    {
      "name": "Josefa Vargas",
      "gender": "Female",
      "phone_number": "+56 9 6777 8899",
      "street_address": "43 Calle San Martín",
      "street_name": "Calle San Martín",
      "building_number": "43",
      "city": "Concepción",
      "state": "Región del Biobío",
      "postal_code": "4040000",
      "coordinates": {
        "latitude": "-36.8201",
        "longitude": "-73.0444"
      },
      "timezone": {
        "offset": "-04:00",
        "description": "America/Santiago"
      },
      "avatar_url": "https://api.dicebear.com/8.x/thumbs/svg?seed=JosefaVargas"
    }
  ]
}