{
  "meta": {
    "country": "Greece",
    "country_code": "GR",
    "currency": "EUR",
    "country_flag": "ðŸ‡¬ðŸ‡·"
  },
  "addresses": [
    {
      "name": "Giorgos Papadopoulos",
      "gender": "Male",
      "phone_number": "+30 690 123 4567",
      "street_address": "123 Ermou Street",
      "street_name": "Ermou Street",
      "building_number": "123",
      "city": "Athens",
      "state": "Attica",
      "postal_code": "10563",
      "coordinates": {
        "latitude": "37.9838",
        "longitude": "23.7275"
      },
      "timezone": {
        "offset": "+02:00",
        "description": "Europe/Athens"
      },
      "avatar_url": "https://api.dicebear.com/8.x/thumbs/svg?seed=GiorgosPapadopoulos"
    },
    {
      "name": "Maria Ioannou",
      "gender": "Female",
      "phone_number": "+30 698 234 5678",
      "street_address": "45 Tsimiski Street",
      "street_name": "Tsimiski Street",
      "building_number": "45",
      "city": "Thessaloniki",
      "state": "Central Macedonia",
      "postal_code": "54623",
      "coordinates": {
        "latitude": "40.6401",
        "longitude": "22.9444"
      },
      "timezone": {
        "offset": "+02:00",
        "description": "Europe/Athens"
      },
      "avatar_url": "https://api.dicebear.com/8.x/thumbs/svg?seed=MariaIoannou"
    },
    {
      "name": "Nikos Georgiou",
      "gender": "Male",
      "phone_number": "+30 697 345 6789",
      "street_address": "78 Papandreou Avenue",
      "street_name": "Papandreou Avenue",
      "building_number": "78",
      "city": "Heraklion",
      "state": "Crete",
      "postal_code": "71306",
      "coordinates": {
        "latitude": "35.3387",
        "longitude": "25.1442"
      },
      "timezone": {
        "offset": "+02:00",
        "description": "Europe/Athens"
      },
      "avatar_url": "https://api.dicebear.com/8.x/thumbs/svg?seed=NikosGeorgiou"
    },
    {
      "name": "Eleni Konstantinou",
      "gender": "Female",
      "phone_number": "+30 694 456 7890",
      "street_address": "101 Solonos Street",
      "street_name": "Solonos Street",
      "building_number": "101",
      "city": "Patras",
      "state": "Western Greece",
      "postal_code": "26223",
      "coordinates": {
        "latitude": "38.2466",
        "longitude": "21.7346"
      },
      "timezone": {
        "offset": "+02:00",
        "description": "Europe/Athens"
      },
      "avatar_url": "https://api.dicebear.com/8.x/thumbs/svg?seed=EleniKonstantinou"
    },
    {
      "name": "Dimitris Vasileiou",
      "gender": "Male",
      "phone_number": "+30 693 567 8901",
      "street_address": "34 Venizelou Street",
      "street_name": "Venizelou Street",
      "building_number": "34",
      "city": "Larissa",
      "state": "Thessaly",
      "postal_code": "41221",
      "coordinates": {
        "latitude": "39.6390",
        "longitude": "22.4190"
      },
      "timezone": {
        "offset": "+02:00",
        "description": "Europe/Athens"
      },
      "avatar_url": "https://api.dicebear.com/8.x/thumbs/svg?seed=DimitrisVasileiou"
    },
    {
      "name": "Sofia Nikolakopoulou",
      "gender": "Female",
      "phone_number": "+30 698 998 7766",
      "street_address": "88 Kifisias Avenue",
      "street_name": "Kifisias Avenue",
      "building_number": "88",
      "city": "Marousi",
      "state": "Attica",
      "postal_code": "15125",
      "coordinates": {
        "latitude": "38.0612",
        "longitude": "23.8103"
      },
      "timezone": {
        "offset": "+02:00",
        "description": "Europe/Athens"
      },
      "avatar_url": "https://api.dicebear.com/8.x/thumbs/svg?seed=SofiaNikolakopoulou"
    },
    {
      "name": "Andreas Theodorou",
      "gender": "Male",
      "phone_number": "+30 692 888 1122",
      "street_address": "200 Egnatia Street",
      "street_name": "Egnatia Street",
      "building_number": "200",
      "city": "Thessaloniki",
      "state": "Central Macedonia",
      "postal_code": "54636",
      "coordinates": {
        "latitude": "40.6401",
        "longitude": "22.9444"
      },
      "timezone": {
        "offset": "+02:00",
        "description": "Europe/Athens"
      },
      "avatar_url": "https://api.dicebear.com/8.x/thumbs/svg?seed=AndreasTheodorou"
    },
    {
      "name": "Katerina Mavridou",
      "gender": "Female",
      "phone_number": "+30 691 777 3344",
      "street_address": "67 Dimokratias Avenue",
      "street_name": "Dimokratias Avenue",
      "building_number": "67",
      "city": "Chania",
      "state": "Crete",
      "postal_code": "73100",
      "coordinates": {
        "latitude": "35.5138",
        "longitude": "24.0180"
      },
      "timezone": {
        "offset": "+02:00",
        "description": "Europe/Athens"
      },
      "avatar_url": "https://api.dicebear.com/8.x/thumbs/svg?seed=KaterinaMavridou"
    },
    {
      "name": "Christos Antoniou",
      "gender": "Male",
      "phone_number": "+30 690 112 2334",
      "street_address": "52 Ethnikis Antistaseos",
      "street_name": "Ethnikis Antistaseos",
      "building_number": "52",
      "city": "Volos",
      "state": "Thessaly",
      "postal_code": "38221",
      "coordinates": {
        "latitude": "39.3612",
        "longitude": "22.9429"
      },
      "timezone": {
        "offset": "+02:00",
        "description": "Europe/Athens"
      },
      "avatar_url": "https://api.dicebear.com/8.x/thumbs/svg?seed=ChristosAntoniou"
    },
    {
      "name": "Ioanna Karagianni",
      "gender": "Female",
      "phone_number": "+30 695 445 6677",
      "street_address": "13 Mitropoleos Street",
      "street_name": "Mitropoleos Street",
      "building_number": "13",
      "city": "Athens",
      "state": "Attica",
      "postal_code": "10557",
      "coordinates": {
        "latitude": "37.9838",
        "longitude": "23.7275"
      },
      "timezone": {
        "offset": "+02:00",
        "description": "Europe/Athens"
      },
      "avatar_url": "https://api.dicebear.com/8.x/thumbs/svg?seed=IoannaKaragianni"
    }
  ]
}