{
  "meta": {
    "country": "Italy",
    "country_code": "IT",
    "currency": "EUR",
    "country_flag": "ðŸ‡®ðŸ‡¹"
  },
  "addresses": [
    {
      "name": "Luca Moretti",
      "gender": "Male",
      "phone_number": "+39 345 123 4567",
      "street_address": "Via del Corso 12",
      "street_name": "Via del Corso",
      "building_number": "12",
      "city": "Rome",
      "state": "Lazio",
      "postal_code": "00186",
      "coordinates": {
        "latitude": "41.9028",
        "longitude": "12.4964"
      },
      "timezone": {
        "offset": "+01:00",
        "description": "Europe/Rome"
      },
      "avatar_url": "https://api.dicebear.com/8.x/thumbs/svg?seed=LucaMoretti"
    },
    {
      "name": "Giulia Rossi",
      "gender": "Female",
      "phone_number": "+39 347 234 5678",
      "street_address": "Piazza del Duomo 45",
      "street_name": "Piazza del Duomo",
      "building_number": "45",
      "city": "Milan",
      "state": "Lombardy",
      "postal_code": "20122",
      "coordinates": {
        "latitude": "45.4642",
        "longitude": "9.1900"
      },
      "timezone": {
        "offset": "+01:00",
        "description": "Europe/Rome"
      },
      "avatar_url": "https://api.dicebear.com/8.x/thumbs/svg?seed=GiuliaRossi"
    },
    {
      "name": "Marco Bianchi",
      "gender": "Male",
      "phone_number": "+39 348 345 6789",
      "street_address": "Via Tornabuoni 78",
      "street_name": "Via Tornabuoni",
      "building_number": "78",
      "city": "Florence",
      "state": "Tuscany",
      "postal_code": "50123",
      "coordinates": {
        "latitude": "43.7696",
        "longitude": "11.2558"
      },
      "timezone": {
        "offset": "+01:00",
        "description": "Europe/Rome"
      },
      "avatar_url": "https://api.dicebear.com/8.x/thumbs/svg?seed=MarcoBianchi"
    },
    {
      "name": "Sara Conti",
      "gender": "Female",
      "phone_number": "+39 349 456 7890",
      "street_address": "Calle Larga 101",
      "street_name": "Calle Larga",
      "building_number": "101",
      "city": "Venice",
      "state": "Veneto",
      "postal_code": "30125",
      "coordinates": {
        "latitude": "45.4408",
        "longitude": "12.3155"
      },
      "timezone": {
        "offset": "+01:00",
        "description": "Europe/Rome"
      },
      "avatar_url": "https://api.dicebear.com/8.x/thumbs/svg?seed=SaraConti"
    },
    {
      "name": "Francesco Romano",
      "gender": "Male",
      "phone_number": "+39 350 567 8901",
      "street_address": "Via Partenope 234",
      "street_name": "Via Partenope",
      "building_number": "234",
      "city": "Naples",
      "state": "Campania",
      "postal_code": "80121",
      "coordinates": {
        "latitude": "40.8518",
        "longitude": "14.2681"
      },
      "timezone": {
        "offset": "+01:00",
        "description": "Europe/Rome"
      },
      "avatar_url": "https://api.dicebear.com/8.x/thumbs/svg?seed=FrancescoRomano"
    },
    {
      "name": "Chiara De Luca",
      "gender": "Female",
      "phone_number": "+39 351 678 9012",
      "street_address": "Via Roma 15",
      "street_name": "Via Roma",
      "building_number": "15",
      "city": "Turin",
      "state": "Piedmont",
      "postal_code": "10121",
      "coordinates": {
        "latitude": "45.0703",
        "longitude": "7.6869"
      },
      "timezone": {
        "offset": "+01:00",
        "description": "Europe/Rome"
      },
      "avatar_url": "https://api.dicebear.com/8.x/thumbs/svg?seed=ChiaraDeLuca"
    },
    {
      "name": "Alessandro Gallo",
      "gender": "Male",
      "phone_number": "+39 352 789 0123",
      "street_address": "Viale Dante 67",
      "street_name": "Viale Dante",
      "building_number": "67",
      "city": "Parma",
      "state": "Emilia-Romagna",
      "postal_code": "43121",
      "coordinates": {
        "latitude": "44.8015",
        "longitude": "10.3279"
      },
      "timezone": {
        "offset": "+01:00",
        "description": "Europe/Rome"
      },
      "avatar_url": "https://api.dicebear.com/8.x/thumbs/svg?seed=AlessandroGallo"
    },
    {
      "name": "Martina Ferri",
      "gender": "Female",
      "phone_number": "+39 353 890 1234",
      "street_address": "Corso Vittorio Emanuele 89",
      "street_name": "Corso Vittorio Emanuele",
      "building_number": "89",
      "city": "Bari",
      "state": "Apulia",
      "postal_code": "70121",
      "coordinates": {
        "latitude": "41.1171",
        "longitude": "16.8719"
      },
      "timezone": {
        "offset": "+01:00",
        "description": "Europe/Rome"
      },
      "avatar_url": "https://api.dicebear.com/8.x/thumbs/svg?seed=MartinaFerri"
    },
    {
      "name": "Giorgio Esposito",
      "gender": "Male",
      "phone_number": "+39 354 901 2345",
      "street_address": "Via Etnea 100",
      "street_name": "Via Etnea",
      "building_number": "100",
      "city": "Catania",
      "state": "Sicily",
      "postal_code": "95131",
      "coordinates": {
        "latitude": "37.5079",
        "longitude": "15.0830"
      },
      "timezone": {
        "offset": "+01:00",
        "description": "Europe/Rome"
      },
      "avatar_url": "https://api.dicebear.com/8.x/thumbs/svg?seed=GiorgioEsposito"
    },
    {
      "name": "Valentina Greco",
      "gender": "Female",
      "phone_number": "+39 355 012 3456",
      "street_address": "Via Mazzini 22",
      "street_name": "Via Mazzini",
      "building_number": "22",
      "city": "Verona",
      "state": "Veneto",
      "postal_code": "37121",
      "coordinates": {
        "latitude": "45.4384",
        "longitude": "10.9916"
      },
      "timezone": {
        "offset": "+01:00",
        "description": "Europe/Rome"
      },
      "avatar_url": "https://api.dicebear.com/8.x/thumbs/svg?seed=ValentinaGreco"
    }
  ]
}