{
  "meta": {
    "country": "South Korea",
    "country_code": "KR",
    "currency": "KRW",
    "country_flag": "ðŸ‡°ðŸ‡·"
  },
  "addresses": [
    {
      "name": "Minho Kim",
      "gender": "Male",
      "phone_number": "+82 10-1234-5678",
      "street_address": "123 Teheran-ro",
      "street_name": "Teheran-ro",
      "building_number": "123",
      "city": "Seoul",
      "state": "Seoul Special City",
      "postal_code": "06134",
      "coordinates": {
        "latitude": "37.5010",
        "longitude": "127.0396"
      },
      "timezone": {
        "offset": "+09:00",
        "description": "Asia/Seoul"
      },
      "avatar_url": "https://api.dicebear.com/8.x/thumbs/svg?seed=MinhoKim"
    },
    {
      "name": "Jisoo Park",
      "gender": "Female",
      "phone_number": "+82 10-9876-5432",
      "street_address": "45 Gwanganhaebyeon-ro",
      "street_name": "Gwanganhaebyeon-ro",
      "building_number": "45",
      "city": "Busan",
      "state": "Busan Metropolitan City",
      "postal_code": "48287",
      "coordinates": {
        "latitude": "35.1539",
        "longitude": "129.1186"
      },
      "timezone": {
        "offset": "+09:00",
        "description": "Asia/Seoul"
      },
      "avatar_url": "https://api.dicebear.com/8.x/thumbs/svg?seed=JisooPark"
    },
    {
      "name": "Donghyun Lee",
      "gender": "Male",
      "phone_number": "+82 10-2468-1357",
      "street_address": "78 Dunsan-daero",
      "street_name": "Dunsan-daero",
      "building_number": "78",
      "city": "Daejeon",
      "state": "Daejeon Metropolitan City",
      "postal_code": "35241",
      "coordinates": {
        "latitude": "36.3504",
        "longitude": "127.3845"
      },
      "timezone": {
        "offset": "+09:00",
        "description": "Asia/Seoul"
      },
      "avatar_url": "https://api.dicebear.com/8.x/thumbs/svg?seed=DonghyunLee"
    },
    {
      "name": "Soojin Choi",
      "gender": "Female",
      "phone_number": "+82 10-1122-3344",
      "street_address": "101 Jeju-si Jungang-ro",
      "street_name": "Jungang-ro",
      "building_number": "101",
      "city": "Jeju",
      "state": "Jeju Special Self-Governing Province",
      "postal_code": "63122",
      "coordinates": {
        "latitude": "33.4996",
        "longitude": "126.5312"
      },
      "timezone": {
        "offset": "+09:00",
        "description": "Asia/Seoul"
      },
      "avatar_url": "https://api.dicebear.com/8.x/thumbs/svg?seed=SoojinChoi"
    },
    {
      "name": "Jihun Yoon",
      "gender": "Male",
      "phone_number": "+82 10-5566-7788",
      "street_address": "34 Dongseong-ro",
      "street_name": "Dongseong-ro",
      "building_number": "34",
      "city": "Daegu",
      "state": "Daegu Metropolitan City",
      "postal_code": "41933",
      "coordinates": {
        "latitude": "35.8714",
        "longitude": "128.6014"
      },
      "timezone": {
        "offset": "+09:00",
        "description": "Asia/Seoul"
      },
      "avatar_url": "https://api.dicebear.com/8.x/thumbs/svg?seed=JihunYoon"
    },
    {
      "name": "Haeun Seo",
      "gender": "Female",
      "phone_number": "+82 10-7890-1234",
      "street_address": "88 Sejong-daero",
      "street_name": "Sejong-daero",
      "building_number": "88",
      "city": "Seoul",
      "state": "Seoul Special City",
      "postal_code": "04519",
      "coordinates": {
        "latitude": "37.5665",
        "longitude": "126.9780"
      },
      "timezone": {
        "offset": "+09:00",
        "description": "Asia/Seoul"
      },
      "avatar_url": "https://api.dicebear.com/8.x/thumbs/svg?seed=HaeunSeo"
    },
    {
      "name": "Jaemin Han",
      "gender": "Male",
      "phone_number": "+82 10-3344-5566",
      "street_address": "66 Gwangbok-ro",
      "street_name": "Gwangbok-ro",
      "building_number": "66",
      "city": "Busan",
      "state": "Busan Metropolitan City",
      "postal_code": "48942",
      "coordinates": {
        "latitude": "35.1796",
        "longitude": "129.0756"
      },
      "timezone": {
        "offset": "+09:00",
        "description": "Asia/Seoul"
      },
      "avatar_url": "https://api.dicebear.com/8.x/thumbs/svg?seed=JaeminHan"
    },
    {
      "name": "Yuna Lim",
      "gender": "Female",
      "phone_number": "+82 10-6655-7788",
      "street_address": "77 Jungang-daero",
      "street_name": "Jungang-daero",
      "building_number": "77",
      "city": "Ulsan",
      "state": "Ulsan Metropolitan City",
      "postal_code": "44675",
      "coordinates": {
        "latitude": "35.5384",
        "longitude": "129.3167"
      },
      "timezone": {
        "offset": "+09:00",
        "description": "Asia/Seoul"
      },
      "avatar_url": "https://api.dicebear.com/8.x/thumbs/svg?seed=YunaLim"
    },
    {
      "name": "Seojin Hwang",
      "gender": "Male",
      "phone_number": "+82 10-2233-4455",
      "street_address": "90 Sangam-ro",
      "street_name": "Sangam-ro",
      "building_number": "90",
      "city": "Seoul",
      "state": "Seoul Special City",
      "postal_code": "03925",
      "coordinates": {
        "latitude": "37.5765",
        "longitude": "126.8900"
      },
      "timezone": {
        "offset": "+09:00",
        "description": "Asia/Seoul"
      },
      "avatar_url": "https://api.dicebear.com/8.x/thumbs/svg?seed=SeojinHwang"
    },
    {
      "name": "Nari Kwon",
      "gender": "Female",
      "phone_number": "+82 10-9988-7766",
      "street_address": "55 Myeongdong-gil",
      "street_name": "Myeongdong-gil",
      "building_number": "55",
      "city": "Seoul",
      "state": "Seoul Special City",
      "postal_code": "04538",
      "coordinates": {
        "latitude": "37.5600",
        "longitude": "126.9850"
      },
      "timezone": {
        "offset": "+09:00",
        "description": "Asia/Seoul"
      },
      "avatar_url": "https://api.dicebear.com/8.x/thumbs/svg?seed=NariKwon"
    }
  ]
}