{
  "meta": {
    "country": "Turkiye",
    "country_code": "TR",
    "currency": "TRY",
    "country_flag": "ðŸ‡¹ðŸ‡·"
  },
  "addresses": [
    {
      "name": "Ahmet Demir",
      "gender": "Male",
      "phone_number": "+90 532 123 4567",
      "street_address": "123 Istiklal Caddesi",
      "street_name": "Istiklal Caddesi",
      "building_number": "123",
      "city": "Istanbul",
      "state": "Istanbul",
      "postal_code": "34430",
      "coordinates": {
        "latitude": "41.0350",
        "longitude": "28.9850"
      },
      "timezone": {
        "offset": "+03:00",
        "description": "Turkey Time"
      },
      "avatar_url": "https://api.dicebear.com/8.x/thumbs/svg?seed=AhmetDemir"
    },
    {
      "name": "Elif YÄ±ldÄ±z",
      "gender": "Female",
      "phone_number": "+90 533 234 5678",
      "street_address": "456 Ataturk Bulvari",
      "street_name": "Ataturk Bulvari",
      "building_number": "456",
      "city": "Ankara",
      "state": "Ankara",
      "postal_code": "06680",
      "coordinates": {
        "latitude": "39.9334",
        "longitude": "32.8597"
      },
      "timezone": {
        "offset": "+03:00",
        "description": "Turkey Time"
      },
      "avatar_url": "https://api.dicebear.com/8.x/thumbs/svg?seed=ElifYildiz"
    },
    {
      "name": "Mehmet Kaya",
      "gender": "Male",
      "phone_number": "+90 534 345 6789",
      "street_address": "789 Kordon Boyu",
      "street_name": "Kordon Boyu",
      "building_number": "789",
      "city": "Izmir",
      "state": "Izmir",
      "postal_code": "35220",
      "coordinates": {
        "latitude": "38.4192",
        "longitude": "27.1287"
      },
      "timezone": {
        "offset": "+03:00",
        "description": "Turkey Time"
      },
      "avatar_url": "https://api.dicebear.com/8.x/thumbs/svg?seed=MehmetKaya"
    },
    {
      "name": "Zeynep Acar",
      "gender": "Female",
      "phone_number": "+90 535 456 7890",
      "street_address": "101 Cumhuriyet Caddesi",
      "street_name": "Cumhuriyet Caddesi",
      "building_number": "101",
      "city": "Antalya",
      "state": "Antalya",
      "postal_code": "07050",
      "coordinates": {
        "latitude": "36.8969",
        "longitude": "30.7133"
      },
      "timezone": {
        "offset": "+03:00",
        "description": "Turkey Time"
      },
      "avatar_url": "https://api.dicebear.com/8.x/thumbs/svg?seed=ZeynepAcar"
    },
    {
      "name": "Emre Åžahin",
      "gender": "Male",
      "phone_number": "+90 536 567 8901",
      "street_address": "34 Sahil Yolu",
      "street_name": "Sahil Yolu",
      "building_number": "34",
      "city": "Bodrum",
      "state": "Mugla",
      "postal_code": "48400",
      "coordinates": {
        "latitude": "37.0344",
        "longitude": "27.4305"
      },
      "timezone": {
        "offset": "+03:00",
        "description": "Turkey Time"
      },
      "avatar_url": "https://api.dicebear.com/8.x/thumbs/svg?seed=EmreSahin"
    },
    {
      "name": "Aylin Karaca",
      "gender": "Female",
      "phone_number": "+90 537 678 9012",
      "street_address": "88 BarÄ±ÅŸ ManÃ§o Caddesi",
      "street_name": "BarÄ±ÅŸ ManÃ§o Caddesi",
      "building_number": "88",
      "city": "Bursa",
      "state": "Bursa",
      "postal_code": "16050",
      "coordinates": {
        "latitude": "40.1828",
        "longitude": "29.0665"
      },
      "timezone": {
        "offset": "+03:00",
        "description": "Turkey Time"
      },
      "avatar_url": "https://api.dicebear.com/8.x/thumbs/svg?seed=AylinKaraca"
    },
    {
      "name": "Burak GÃ¼l",
      "gender": "Male",
      "phone_number": "+90 538 789 0123",
      "street_address": "55 Mevlana Caddesi",
      "street_name": "Mevlana Caddesi",
      "building_number": "55",
      "city": "Konya",
      "state": "Konya",
      "postal_code": "42030",
      "coordinates": {
        "latitude": "37.8746",
        "longitude": "32.4932"
      },
      "timezone": {
        "offset": "+03:00",
        "description": "Turkey Time"
      },
      "avatar_url": "https://api.dicebear.com/8.x/thumbs/svg?seed=BurakGul"
    },
    {
      "name": "Derya Ã–zdemir",
      "gender": "Female",
      "phone_number": "+90 539 890 1234",
      "street_address": "21 KaragÃ¶z Sk.",
      "street_name": "KaragÃ¶z Sk.",
      "building_number": "21",
      "city": "Gaziantep",
      "state": "Gaziantep",
      "postal_code": "27010",
      "coordinates": {
        "latitude": "37.0662",
        "longitude": "37.3833"
      },
      "timezone": {
        "offset": "+03:00",
        "description": "Turkey Time"
      },
      "avatar_url": "https://api.dicebear.com/8.x/thumbs/svg?seed=DeryaOzdemir"
    },
    {
      "name": "Yusuf Erdem",
      "gender": "Male",
      "phone_number": "+90 540 901 2345",
      "street_address": "77 Ä°stasyon Caddesi",
      "street_name": "Ä°stasyon Caddesi",
      "building_number": "77",
      "city": "EskiÅŸehir",
      "state": "EskiÅŸehir",
      "postal_code": "26010",
      "coordinates": {
        "latitude": "39.7767",
        "longitude": "30.5206"
      },
      "timezone": {
        "offset": "+03:00",
        "description": "Turkey Time"
      },
      "avatar_url": "https://api.dicebear.com/8.x/thumbs/svg?seed=YusufErdem"
    },
    {
      "name": "Selin Arslan",
      "gender": "Female",
      "phone_number": "+90 541 012 3456",
      "street_address": "90 Gazi Mustafa Kemal BulvarÄ±",
      "street_name": "Gazi Mustafa Kemal BulvarÄ±",
      "building_number": "90",
      "city": "Mersin",
      "state": "Mersin",
      "postal_code": "33010",
      "coordinates": {
        "latitude": "36.8121",
        "longitude": "34.6415"
      },
      "timezone": {
        "offset": "+03:00",
        "description": "Turkey Time"
      },
      "avatar_url": "https://api.dicebear.com/8.x/thumbs/svg?seed=SelinArslan"
    }
  ]
}