{
  "meta": {
    "country": "Tanzania",
    "country_code": "TZ",
    "currency": "TZS",
    "country_flag": "ðŸ‡¹ðŸ‡¿"
  },
  "addresses": [
    {
      "name": "Amina Mwinyi",
      "gender": "Female",
      "phone_number": "+255 712 345 678",
      "street_address": "123 Samora Avenue",
      "street_name": "Samora Avenue",
      "building_number": "123",
      "city": "Dar es Salaam",
      "state": "Dar es Salaam Region",
      "postal_code": "14100",
      "coordinates": {
        "latitude": "-6.7924",
        "longitude": "39.2083"
      },
      "timezone": {
        "offset": "+03:00",
        "description": "East Africa Time"
      },
      "avatar_url": "https://api.dicebear.com/8.x/thumbs/svg?seed=AminaMwinyi"
    },
    {
      "name": "Joseph Nyerere",
      "gender": "Male",
      "phone_number": "+255 713 456 789",
      "street_address": "45 Nyerere Road",
      "street_name": "Nyerere Road",
      "building_number": "45",
      "city": "Dodoma",
      "state": "Dodoma Region",
      "postal_code": "41100",
      "coordinates": {
        "latitude": "-6.1725",
        "longitude": "35.7394"
      },
      "timezone": {
        "offset": "+03:00",
        "description": "East Africa Time"
      },
      "avatar_url": "https://api.dicebear.com/8.x/thumbs/svg?seed=JosephNyerere"
    },
    {
      "name": "Neema John",
      "gender": "Female",
      "phone_number": "+255 714 567 890",
      "street_address": "78 Livingstone Street",
      "street_name": "Livingstone Street",
      "building_number": "78",
      "city": "Arusha",
      "state": "Arusha Region",
      "postal_code": "23100",
      "coordinates": {
        "latitude": "-3.3869",
        "longitude": "36.6820"
      },
      "timezone": {
        "offset": "+03:00",
        "description": "East Africa Time"
      },
      "avatar_url": "https://api.dicebear.com/8.x/thumbs/svg?seed=NeemaJohn"
    },
    {
      "name": "Daudi Mwanga",
      "gender": "Male",
      "phone_number": "+255 715 678 901",
      "street_address": "101 Malawi Road",
      "street_name": "Malawi Road",
      "building_number": "101",
      "city": "Mbeya",
      "state": "Mbeya Region",
      "postal_code": "53100",
      "coordinates": {
        "latitude": "-8.9090",
        "longitude": "33.4500"
      },
      "timezone": {
        "offset": "+03:00",
        "description": "East Africa Time"
      },
      "avatar_url": "https://api.dicebear.com/8.x/thumbs/svg?seed=DaudiMwanga"
    },
    {
      "name": "Zainabu Salim",
      "gender": "Female",
      "phone_number": "+255 716 789 012",
      "street_address": "34 Kiponda Street",
      "street_name": "Kiponda Street",
      "building_number": "34",
      "city": "Zanzibar",
      "state": "Zanzibar Urban/West Region",
      "postal_code": "71100",
      "coordinates": {
        "latitude": "-6.1659",
        "longitude": "39.2026"
      },
      "timezone": {
        "offset": "+03:00",
        "description": "East Africa Time"
      },
      "avatar_url": "https://api.dicebear.com/8.x/thumbs/svg?seed=ZainabuSalim"
    },
    {
      "name": "Juma Hassan",
      "gender": "Male",
      "phone_number": "+255 717 890 123",
      "street_address": "56 Uhuru Street",
      "street_name": "Uhuru Street",
      "building_number": "56",
      "city": "Tanga",
      "state": "Tanga Region",
      "postal_code": "21100",
      "coordinates": {
        "latitude": "-5.0704",
        "longitude": "39.0988"
      },
      "timezone": {
        "offset": "+03:00",
        "description": "East Africa Time"
      },
      "avatar_url": "https://api.dicebear.com/8.x/thumbs/svg?seed=JumaHassan"
    },
    {
      "name": "Rehema Mussa",
      "gender": "Female",
      "phone_number": "+255 718 901 234",
      "street_address": "67 Nkrumah Street",
      "street_name": "Nkrumah Street",
      "building_number": "67",
      "city": "Morogoro",
      "state": "Morogoro Region",
      "postal_code": "67100",
      "coordinates": {
        "latitude": "-6.8278",
        "longitude": "37.6591"
      },
      "timezone": {
        "offset": "+03:00",
        "description": "East Africa Time"
      },
      "avatar_url": "https://api.dicebear.com/8.x/thumbs/svg?seed=RehemaMussa"
    },
    {
      "name": "Steven Mwakalinga",
      "gender": "Male",
      "phone_number": "+255 719 012 345",
      "street_address": "89 Mwalimu Nyerere Street",
      "street_name": "Mwalimu Nyerere Street",
      "building_number": "89",
      "city": "Moshi",
      "state": "Kilimanjaro Region",
      "postal_code": "25100",
      "coordinates": {
        "latitude": "-3.3392",
        "longitude": "37.3406"
      },
      "timezone": {
        "offset": "+03:00",
        "description": "East Africa Time"
      },
      "avatar_url": "https://api.dicebear.com/8.x/thumbs/svg?seed=StevenMwakalinga"
    },
    {
      "name": "Fatuma Mbwana",
      "gender": "Female",
      "phone_number": "+255 720 123 456",
      "street_address": "91 Majengo Street",
      "street_name": "Majengo Street",
      "building_number": "91",
      "city": "Tabora",
      "state": "Tabora Region",
      "postal_code": "45100",
      "coordinates": {
        "latitude": "-5.0076",
        "longitude": "32.8041"
      },
      "timezone": {
        "offset": "+03:00",
        "description": "East Africa Time"
      },
      "avatar_url": "https://api.dicebear.com/8.x/thumbs/svg?seed=FatumaMbwana"
    },
    {
      "name": "Emmanuel Maganga",
      "gender": "Male",
      "phone_number": "+255 721 234 567",
      "street_address": "77 Kilwa Road",
      "street_name": "Kilwa Road",
      "building_number": "77",
      "city": "Lindi",
      "state": "Lindi Region",
      "postal_code": "65100",
      "coordinates": {
        "latitude": "-10.0356",
        "longitude": "39.7126"
      },
      "timezone": {
        "offset": "+03:00",
        "description": "East Africa Time"
      },
      "avatar_url": "https://api.dicebear.com/8.x/thumbs/svg?seed=EmmanuelMaganga"
    }
  ]
}