{
  "meta": {
    "country": "Argentina",
    "country_code": "AR",
    "country_flag": "游뷣릖",
    "currency": "ARS"
  },
  "addresses": [
    {
      "name": "Mart칤n G칩mez",
      "gender": "Male",
      "phone_number": "+54 9 11 2345 6789",
      "street_address": "Av. Rivadavia 1234",
      "street_name": "Av. Rivadavia",
      "building_number": "1234",
      "city": "Buenos Aires",
      "state": "Autonomous City of Buenos Aires",
      "postal_code": "C1033AAX",
      "coordinates": {
        "latitude": "-34.6076",
        "longitude": "-58.3816"
      },
      "timezone": {
        "offset": "-03:00",
        "description": "America/Argentina/Buenos_Aires"
      },
      "avatar_url": "https://api.dicebear.com/8.x/thumbs/svg?seed=MartinGomez"
    },
    {
      "name": "Luc칤a Fern치ndez",
      "gender": "Female",
      "phone_number": "+54 9 11 3456 7890",
      "street_address": "Calle Florida 456",
      "street_name": "Calle Florida",
      "building_number": "456",
      "city": "Buenos Aires",
      "state": "Autonomous City of Buenos Aires",
      "postal_code": "C1005AAX",
      "coordinates": {
        "latitude": "-34.6037",
        "longitude": "-58.3772"
      },
      "timezone": {
        "offset": "-03:00",
        "description": "America/Argentina/Buenos_Aires"
      },
      "avatar_url": "https://api.dicebear.com/8.x/thumbs/svg?seed=LuciaFernandez"
    },
    {
      "name": "Diego Mart칤nez",
      "gender": "Male",
      "phone_number": "+54 9 11 4567 8901",
      "street_address": "Av. Corrientes 789",
      "street_name": "Av. Corrientes",
      "building_number": "789",
      "city": "Buenos Aires",
      "state": "Autonomous City of Buenos Aires",
      "postal_code": "C1043AAX",
      "coordinates": {
        "latitude": "-34.6040",
        "longitude": "-58.3935"
      },
      "timezone": {
        "offset": "-03:00",
        "description": "America/Argentina/Buenos_Aires"
      },
      "avatar_url": "https://api.dicebear.com/8.x/thumbs/svg?seed=DiegoMartinez"
    },
    {
      "name": "Camila Ruiz",
      "gender": "Female",
      "phone_number": "+54 9 11 5678 9012",
      "street_address": "Calle Lavalle 101",
      "street_name": "Calle Lavalle",
      "building_number": "101",
      "city": "Buenos Aires",
      "state": "Autonomous City of Buenos Aires",
      "postal_code": "C1047AAX",
      "coordinates": {
        "latitude": "-34.6031",
        "longitude": "-58.3840"
      },
      "timezone": {
        "offset": "-03:00",
        "description": "America/Argentina/Buenos_Aires"
      },
      "avatar_url": "https://api.dicebear.com/8.x/thumbs/svg?seed=CamilaRuiz"
    },
    {
      "name": "Juli치n Torres",
      "gender": "Male",
      "phone_number": "+54 9 11 6789 0123",
      "street_address": "Av. Santa Fe 2345",
      "street_name": "Av. Santa Fe",
      "building_number": "2345",
      "city": "Buenos Aires",
      "state": "Autonomous City of Buenos Aires",
      "postal_code": "C1123AAX",
      "coordinates": {
        "latitude": "-34.5875",
        "longitude": "-58.4080"
      },
      "timezone": {
        "offset": "-03:00",
        "description": "America/Argentina/Buenos_Aires"
      },
      "avatar_url": "https://api.dicebear.com/8.x/thumbs/svg?seed=JulianTorres"
    },
    {
      "name": "Valentina Sosa",
      "gender": "Female",
      "phone_number": "+54 9 11 7890 1234",
      "street_address": "101 Av. Callao",
      "street_name": "Av. Callao",
      "building_number": "101",
      "city": "Buenos Aires",
      "state": "Autonomous City of Buenos Aires",
      "postal_code": "C1022AAX",
      "coordinates": {
        "latitude": "-34.5960",
        "longitude": "-58.3922"
      },
      "timezone": {
        "offset": "-03:00",
        "description": "America/Argentina/Buenos_Aires"
      },
      "avatar_url": "https://api.dicebear.com/8.x/thumbs/svg?seed=ValentinaSosa"
    },
    {
      "name": "Mateo L칩pez",
      "gender": "Male",
      "phone_number": "+54 9 11 8901 2345",
      "street_address": "77 Calle Defensa",
      "street_name": "Calle Defensa",
      "building_number": "77",
      "city": "Buenos Aires",
      "state": "Autonomous City of Buenos Aires",
      "postal_code": "C1065AAX",
      "coordinates": {
        "latitude": "-34.6174",
        "longitude": "-58.3686"
      },
      "timezone": {
        "offset": "-03:00",
        "description": "America/Argentina/Buenos_Aires"
      },
      "avatar_url": "https://api.dicebear.com/8.x/thumbs/svg?seed=MateoLopez"
    },
    {
      "name": "Sof칤a Pereyra",
      "gender": "Female",
      "phone_number": "+54 9 11 9012 3456",
      "street_address": "59 Av. de Mayo",
      "street_name": "Av. de Mayo",
      "building_number": "59",
      "city": "Buenos Aires",
      "state": "Autonomous City of Buenos Aires",
      "postal_code": "C1084AAX",
      "coordinates": {
        "latitude": "-34.6090",
        "longitude": "-58.3825"
      },
      "timezone": {
        "offset": "-03:00",
        "description": "America/Argentina/Buenos_Aires"
      },
      "avatar_url": "https://api.dicebear.com/8.x/thumbs/svg?seed=SofiaPereyra"
    },
    {
      "name": "Tom치s Herrera",
      "gender": "Male",
      "phone_number": "+54 9 11 1123 4567",
      "street_address": "36 Av. Belgrano",
      "street_name": "Av. Belgrano",
      "building_number": "36",
      "city": "Buenos Aires",
      "state": "Autonomous City of Buenos Aires",
      "postal_code": "C1092AAX",
      "coordinates": {
        "latitude": "-34.6141",
        "longitude": "-58.3817"
      },
      "timezone": {
        "offset": "-03:00",
        "description": "America/Argentina/Buenos_Aires"
      },
      "avatar_url": "https://api.dicebear.com/8.x/thumbs/svg?seed=TomasHerrera"
    },
    {
      "name": "Josefina Molina",
      "gender": "Female",
      "phone_number": "+54 9 11 2234 5678",
      "street_address": "14 Calle Esmeralda",
      "street_name": "Calle Esmeralda",
      "building_number": "14",
      "city": "Buenos Aires",
      "state": "Autonomous City of Buenos Aires",
      "postal_code": "C1007AAX",
      "coordinates": {
        "latitude": "-34.6003",
        "longitude": "-58.3761"
      },
      "timezone": {
        "offset": "-03:00",
        "description": "America/Argentina/Buenos_Aires"
      },
      "avatar_url": "https://api.dicebear.com/8.x/thumbs/svg?seed=JosefinaMolina"
    }
  ]
}