{
  "meta": {
    "country": "Canada",
    "country_code": "CA",
    "currency": "CAD",
    "country_flag": "ðŸ‡¨ðŸ‡¦"
  },
  "addresses": [
    {
      "name": "Ethan Walker",
      "gender": "Male",
      "phone_number": "+1 613-555-0123",
      "street_address": "24 Sussex Drive",
      "street_name": "Sussex Drive",
      "building_number": "24",
      "city": "Ottawa",
      "state": "Ontario",
      "postal_code": "K1M 1M4",
      "coordinates": {
        "latitude": "45.4435",
        "longitude": "-75.6898"
      },
      "timezone": {
        "offset": "-05:00",
        "description": "America/Toronto"
      },
      "avatar_url": "https://api.dicebear.com/8.x/thumbs/svg?seed=EthanWalker"
    },
    {
      "name": "Sophie Clarke",
      "gender": "Female",
      "phone_number": "+1 416-555-4567",
      "street_address": "100 Queen Street",
      "street_name": "Queen Street",
      "building_number": "100",
      "city": "Toronto",
      "state": "Ontario",
      "postal_code": "M5H 2N2",
      "coordinates": {
        "latitude": "43.6529",
        "longitude": "-79.3833"
      },
      "timezone": {
        "offset": "-05:00",
        "description": "America/Toronto"
      },
      "avatar_url": "https://api.dicebear.com/8.x/thumbs/svg?seed=SophieClarke"
    },
    {
      "name": "Liam Bennett",
      "gender": "Male",
      "phone_number": "+1 604-555-7890",
      "street_address": "789 Robson Street",
      "street_name": "Robson Street",
      "building_number": "789",
      "city": "Vancouver",
      "state": "British Columbia",
      "postal_code": "V6B 6A1",
      "coordinates": {
        "latitude": "49.2802",
        "longitude": "-123.1197"
      },
      "timezone": {
        "offset": "-08:00",
        "description": "America/Vancouver"
      },
      "avatar_url": "https://api.dicebear.com/8.x/thumbs/svg?seed=LiamBennett"
    },
    {
      "name": "Ava Dubois",
      "gender": "Female",
      "phone_number": "+1 514-555-2345",
      "street_address": "101 Saint Catherine Street",
      "street_name": "Saint Catherine Street",
      "building_number": "101",
      "city": "Montreal",
      "state": "Quebec",
      "postal_code": "H2X 1K4",
      "coordinates": {
        "latitude": "45.5091",
        "longitude": "-73.5619"
      },
      "timezone": {
        "offset": "-05:00",
        "description": "America/Montreal"
      },
      "avatar_url": "https://api.dicebear.com/8.x/thumbs/svg?seed=AvaDubois"
    },
    {
      "name": "Noah Sinclair",
      "gender": "Male",
      "phone_number": "+1 780-555-3456",
      "street_address": "234 Jasper Avenue",
      "street_name": "Jasper Avenue",
      "building_number": "234",
      "city": "Edmonton",
      "state": "Alberta",
      "postal_code": "T5J 1Y6",
      "coordinates": {
        "latitude": "53.5413",
        "longitude": "-113.4941"
      },
      "timezone": {
        "offset": "-07:00",
        "description": "America/Edmonton"
      },
      "avatar_url": "https://api.dicebear.com/8.x/thumbs/svg?seed=NoahSinclair"
    },
    {
      "name": "Mia Thompson",
      "gender": "Female",
      "phone_number": "+1 902-555-6789",
      "street_address": "98 Spring Garden Road",
      "street_name": "Spring Garden Road",
      "building_number": "98",
      "city": "Halifax",
      "state": "Nova Scotia",
      "postal_code": "B3J 3R7",
      "coordinates": {
        "latitude": "44.6434",
        "longitude": "-63.5740"
      },
      "timezone": {
        "offset": "-04:00",
        "description": "America/Halifax"
      },
      "avatar_url": "https://api.dicebear.com/8.x/thumbs/svg?seed=MiaThompson"
    },
    {
      "name": "Jackson Reid",
      "gender": "Male",
      "phone_number": "+1 403-555-1122",
      "street_address": "12 Stephen Avenue",
      "street_name": "Stephen Avenue",
      "building_number": "12",
      "city": "Calgary",
      "state": "Alberta",
      "postal_code": "T2P 3N4",
      "coordinates": {
        "latitude": "51.0450",
        "longitude": "-114.0719"
      },
      "timezone": {
        "offset": "-07:00",
        "description": "America/Edmonton"
      },
      "avatar_url": "https://api.dicebear.com/8.x/thumbs/svg?seed=JacksonReid"
    },
    {
      "name": "Isabella Roy",
      "gender": "Female",
      "phone_number": "+1 819-555-3344",
      "street_address": "77 Laurier Street",
      "street_name": "Laurier Street",
      "building_number": "77",
      "city": "Gatineau",
      "state": "Quebec",
      "postal_code": "J8X 3W1",
      "coordinates": {
        "latitude": "45.4254",
        "longitude": "-75.7070"
      },
      "timezone": {
        "offset": "-05:00",
        "description": "America/Toronto"
      },
      "avatar_url": "https://api.dicebear.com/8.x/thumbs/svg?seed=IsabellaRoy"
    },
    {
      "name": "Benjamin Lee",
      "gender": "Male",
      "phone_number": "+1 204-555-5566",
      "street_address": "56 Portage Avenue",
      "street_name": "Portage Avenue",
      "building_number": "56",
      "city": "Winnipeg",
      "state": "Manitoba",
      "postal_code": "R3B 2E9",
      "coordinates": {
        "latitude": "49.8920",
        "longitude": "-97.1436"
      },
      "timezone": {
        "offset": "-06:00",
        "description": "America/Winnipeg"
      },
      "avatar_url": "https://api.dicebear.com/8.x/thumbs/svg?seed=BenjaminLee"
    },
    {
      "name": "Charlotte Martin",
      "gender": "Female",
      "phone_number": "+1 306-555-7788",
      "street_address": "33 Broadway Avenue",
      "street_name": "Broadway Avenue",
      "building_number": "33",
      "city": "Regina",
      "state": "Saskatchewan",
      "postal_code": "S4P 1X8",
      "coordinates": {
        "latitude": "50.4501",
        "longitude": "-104.6178"
      },
      "timezone": {
        "offset": "-06:00",
        "description": "America/Regina"
      },
      "avatar_url": "https://api.dicebear.com/8.x/thumbs/svg?seed=CharlotteMartin"
    }
  ]
}