{
  "meta": {
    "country": "Ghana",
    "country_code": "GH",
    "currency": "GHS",
    "country_flag": "ðŸ‡¬ðŸ‡­"
  },
  "addresses": [
    {
      "name": "Kwame Mensah",
      "gender": "Male",
      "phone_number": "+233 24 123 4567",
      "street_address": "123 Independence Avenue",
      "street_name": "Independence Avenue",
      "building_number": "123",
      "city": "Accra",
      "state": "Greater Accra",
      "postal_code": "GA100",
      "coordinates": {
        "latitude": "5.6037",
        "longitude": "-0.1870"
      },
      "timezone": {
        "offset": "+00:00",
        "description": "Africa/Accra"
      },
      "avatar_url": "https://api.dicebear.com/8.x/thumbs/svg?seed=KwameMensah"
    },
    {
      "name": "Akosua Owusu",
      "gender": "Female",
      "phone_number": "+233 54 765 4321",
      "street_address": "45 Liberation Road",
      "street_name": "Liberation Road",
      "building_number": "45",
      "city": "Accra",
      "state": "Greater Accra",
      "postal_code": "GA107",
      "coordinates": {
        "latitude": "5.6150",
        "longitude": "-0.2050"
      },
      "timezone": {
        "offset": "+00:00",
        "description": "Africa/Accra"
      },
      "avatar_url": "https://api.dicebear.com/8.x/thumbs/svg?seed=AkosuaOwusu"
    },
    {
      "name": "Yaw Boateng",
      "gender": "Male",
      "phone_number": "+233 20 234 5678",
      "street_address": "78 Bantama High Street",
      "street_name": "Bantama High Street",
      "building_number": "78",
      "city": "Kumasi",
      "state": "Ashanti Region",
      "postal_code": "AK100",
      "coordinates": {
        "latitude": "6.6885",
        "longitude": "-1.6244"
      },
      "timezone": {
        "offset": "+00:00",
        "description": "Africa/Accra"
      },
      "avatar_url": "https://api.dicebear.com/8.x/thumbs/svg?seed=YawBoateng"
    },
    {
      "name": "Adwoa Agyeman",
      "gender": "Female",
      "phone_number": "+233 27 987 6543",
      "street_address": "101 Sekondi Road",
      "street_name": "Sekondi Road",
      "building_number": "101",
      "city": "Takoradi",
      "state": "Western Region",
      "postal_code": "WR200",
      "coordinates": {
        "latitude": "4.8966",
        "longitude": "-1.7608"
      },
      "timezone": {
        "offset": "+00:00",
        "description": "Africa/Accra"
      },
      "avatar_url": "https://api.dicebear.com/8.x/thumbs/svg?seed=AdwoaAgyeman"
    },
    {
      "name": "Kojo Badu",
      "gender": "Male",
      "phone_number": "+233 26 111 2233",
      "street_address": "34 Tamale Main Street",
      "street_name": "Tamale Main Street",
      "building_number": "34",
      "city": "Tamale",
      "state": "Northern Region",
      "postal_code": "NR300",
      "coordinates": {
        "latitude": "9.4070",
        "longitude": "-0.8533"
      },
      "timezone": {
        "offset": "+00:00",
        "description": "Africa/Accra"
      },
      "avatar_url": "https://api.dicebear.com/8.x/thumbs/svg?seed=KojoBadu"
    },
    {
      "name": "Abena Dapaah",
      "gender": "Female",
      "phone_number": "+233 24 678 9012",
      "street_address": "56 Ridge Road",
      "street_name": "Ridge Road",
      "building_number": "56",
      "city": "Cape Coast",
      "state": "Central Region",
      "postal_code": "CR150",
      "coordinates": {
        "latitude": "5.1051",
        "longitude": "-1.2466"
      },
      "timezone": {
        "offset": "+00:00",
        "description": "Africa/Accra"
      },
      "avatar_url": "https://api.dicebear.com/8.x/thumbs/svg?seed=AbenaDapaah"
    },
    {
      "name": "Kofi Asante",
      "gender": "Male",
      "phone_number": "+233 55 321 6789",
      "street_address": "88 Ho Municipal Road",
      "street_name": "Ho Municipal Road",
      "building_number": "88",
      "city": "Ho",
      "state": "Volta Region",
      "postal_code": "VR250",
      "coordinates": {
        "latitude": "6.6000",
        "longitude": "0.4700"
      },
      "timezone": {
        "offset": "+00:00",
        "description": "Africa/Accra"
      },
      "avatar_url": "https://api.dicebear.com/8.x/thumbs/svg?seed=KofiAsante"
    },
    {
      "name": "Efua Appiah",
      "gender": "Female",
      "phone_number": "+233 28 654 3210",
      "street_address": "21 Bolgatanga Central",
      "street_name": "Bolgatanga Central",
      "building_number": "21",
      "city": "Bolgatanga",
      "state": "Upper East Region",
      "postal_code": "UER350",
      "coordinates": {
        "latitude": "10.7870",
        "longitude": "-0.8513"
      },
      "timezone": {
        "offset": "+00:00",
        "description": "Africa/Accra"
      },
      "avatar_url": "https://api.dicebear.com/8.x/thumbs/svg?seed=EfuaAppiah"
    },
    {
      "name": "Nana Yaw Antwi",
      "gender": "Male",
      "phone_number": "+233 50 789 4561",
      "street_address": "90 Sunyani Ring Road",
      "street_name": "Sunyani Ring Road",
      "building_number": "90",
      "city": "Sunyani",
      "state": "Bono Region",
      "postal_code": "BR400",
      "coordinates": {
        "latitude": "7.3386",
        "longitude": "-2.3265"
      },
      "timezone": {
        "offset": "+00:00",
        "description": "Africa/Accra"
      },
      "avatar_url": "https://api.dicebear.com/8.x/thumbs/svg?seed=NanaYawAntwi"
    },
    {
      "name": "Akua Serwaa",
      "gender": "Female",
      "phone_number": "+233 23 345 6789",
      "street_address": "17 Wa High Street",
      "street_name": "Wa High Street",
      "building_number": "17",
      "city": "Wa",
      "state": "Upper West Region",
      "postal_code": "UWR500",
      "coordinates": {
        "latitude": "10.0600",
        "longitude": "-2.5000"
      },
      "timezone": {
        "offset": "+00:00",
        "description": "Africa/Accra"
      },
      "avatar_url": "https://api.dicebear.com/8.x/thumbs/svg?seed=AkuaSerwaa"
    }
  ]
}