{
  "meta": {
    "country": "Greenland",
    "country_code": "GL",
    "currency": "DKK",
    "country_flag": "ðŸ‡¬ðŸ‡±"
  },
  "addresses": [
    {
      "name": "Mikkel Petersen",
      "gender": "Male",
      "phone_number": "+299 52 11 22",
      "street_address": "123 Aqqusinersuaq",
      "street_name": "Aqqusinersuaq",
      "building_number": "123",
      "city": "Nuuk",
      "state": "Sermersooq",
      "postal_code": "3900",
      "coordinates": {
        "latitude": "64.1830",
        "longitude": "-51.7216"
      },
      "timezone": {
        "offset": "-03:00",
        "description": "America/Godthab"
      },
      "avatar_url": "https://api.dicebear.com/8.x/thumbs/svg?seed=MikkelPetersen"
    },
    {
      "name": "Sara Frederiksen",
      "gender": "Female",
      "phone_number": "+299 54 33 44",
      "street_address": "45 Aqqartarfik",
      "street_name": "Aqqartarfik",
      "building_number": "45",
      "city": "Sisimiut",
      "state": "Qeqqata",
      "postal_code": "3911",
      "coordinates": {
        "latitude": "66.9390",
        "longitude": "-53.6730"
      },
      "timezone": {
        "offset": "-03:00",
        "description": "America/Godthab"
      },
      "avatar_url": "https://api.dicebear.com/8.x/thumbs/svg?seed=SaraFrederiksen"
    },
    {
      "name": "Nikolaj Kleist",
      "gender": "Male",
      "phone_number": "+299 58 66 77",
      "street_address": "78 Napparsimaviup Aqq.",
      "street_name": "Napparsimaviup Aqq.",
      "building_number": "78",
      "city": "Ilulissat",
      "state": "Avannaata",
      "postal_code": "3952",
      "coordinates": {
        "latitude": "69.2167",
        "longitude": "-51.1000"
      },
      "timezone": {
        "offset": "-03:00",
        "description": "America/Godthab"
      },
      "avatar_url": "https://api.dicebear.com/8.x/thumbs/svg?seed=NikolajKleist"
    },
    {
      "name": "Ivalo Kristiansen",
      "gender": "Female",
      "phone_number": "+299 59 88 99",
      "street_address": "101 Kujallerpaat",
      "street_name": "Kujallerpaat",
      "building_number": "101",
      "city": "Qaqortoq",
      "state": "Kujalleq",
      "postal_code": "3920",
      "coordinates": {
        "latitude": "60.7167",
        "longitude": "-46.0333"
      },
      "timezone": {
        "offset": "-03:00",
        "description": "America/Godthab"
      },
      "avatar_url": "https://api.dicebear.com/8.x/thumbs/svg?seed=IvaloKristiansen"
    },
    {
      "name": "Andreas Egede",
      "gender": "Male",
      "phone_number": "+299 56 12 34",
      "street_address": "34 Umiarsualivik",
      "street_name": "Umiarsualivik",
      "building_number": "34",
      "city": "Maniitsoq",
      "state": "Qeqqata",
      "postal_code": "3912",
      "coordinates": {
        "latitude": "65.4167",
        "longitude": "-52.9000"
      },
      "timezone": {
        "offset": "-03:00",
        "description": "America/Godthab"
      },
      "avatar_url": "https://api.dicebear.com/8.x/thumbs/svg?seed=AndreasEgede"
    },
    {
      "name": "Ane HansdÃ³ttir",
      "gender": "Female",
      "phone_number": "+299 51 23 45",
      "street_address": "200 Inussivik Road",
      "street_name": "Inussivik Road",
      "building_number": "200",
      "city": "Nuuk",
      "state": "Sermersooq",
      "postal_code": "3900",
      "coordinates": {
        "latitude": "64.1830",
        "longitude": "-51.7216"
      },
      "timezone": {
        "offset": "-03:00",
        "description": "America/Godthab"
      },
      "avatar_url": "https://api.dicebear.com/8.x/thumbs/svg?seed=AneHansdÃ³ttir"
    },
    {
      "name": "Jonas Rosing",
      "gender": "Male",
      "phone_number": "+299 53 12 78",
      "street_address": "89 Kangillinnguit",
      "street_name": "Kangillinnguit",
      "building_number": "89",
      "city": "Nuuk",
      "state": "Sermersooq",
      "postal_code": "3900",
      "coordinates": {
        "latitude": "64.1830",
        "longitude": "-51.7216"
      },
      "timezone": {
        "offset": "-03:00",
        "description": "America/Godthab"
      },
      "avatar_url": "https://api.dicebear.com/8.x/thumbs/svg?seed=JonasRosing"
    },
    {
      "name": "Elisabeth Steenholdt",
      "gender": "Female",
      "phone_number": "+299 57 90 21",
      "street_address": "67 Ilinniarfissuaq",
      "street_name": "Ilinniarfissuaq",
      "building_number": "67",
      "city": "Ilulissat",
      "state": "Avannaata",
      "postal_code": "3952",
      "coordinates": {
        "latitude": "69.2167",
        "longitude": "-51.1000"
      },
      "timezone": {
        "offset": "-03:00",
        "description": "America/Godthab"
      },
      "avatar_url": "https://api.dicebear.com/8.x/thumbs/svg?seed=ElisabethSteenholdt"
    },
    {
      "name": "Klaus Lundblad",
      "gender": "Male",
      "phone_number": "+299 60 55 99",
      "street_address": "150 Qeqertarsuaq Street",
      "street_name": "Qeqertarsuaq Street",
      "building_number": "150",
      "city": "Qeqertarsuaq",
      "state": "Qeqertalik",
      "postal_code": "3953",
      "coordinates": {
        "latitude": "69.2500",
        "longitude": "-53.5167"
      },
      "timezone": {
        "offset": "-03:00",
        "description": "America/Godthab"
      },
      "avatar_url": "https://api.dicebear.com/8.x/thumbs/svg?seed=KlausLundblad"
    },
    {
      "name": "Mali Olsen",
      "gender": "Female",
      "phone_number": "+299 61 44 88",
      "street_address": "88 Tasiilaq Road",
      "street_name": "Tasiilaq Road",
      "building_number": "88",
      "city": "Tasiilaq",
      "state": "Sermersooq",
      "postal_code": "3913",
      "coordinates": {
        "latitude": "65.6083",
        "longitude": "-37.6367"
      },
      "timezone": {
        "offset": "-03:00",
        "description": "America/Godthab"
      },
      "avatar_url": "https://api.dicebear.com/8.x/thumbs/svg?seed=MaliOlsen"
    }
  ]
}