{
  "meta": {
    "country": "Iraq",
    "country_code": "IQ",
    "currency": "IQD",
    "country_flag": "ðŸ‡®ðŸ‡¶"
  },
  "addresses": [
    {
      "name": "Ali Al-Sabah",
      "gender": "Male",
      "phone_number": "+964 770 123 4567",
      "street_address": "123 Karrada Street",
      "street_name": "Karrada Street",
      "building_number": "123",
      "city": "Baghdad",
      "state": "Baghdad Governorate",
      "postal_code": "10001",
      "coordinates": {
        "latitude": "33.3152",
        "longitude": "44.3661"
      },
      "timezone": {
        "offset": "+03:00",
        "description": "Asia/Baghdad"
      },
      "avatar_url": "https://api.dicebear.com/8.x/thumbs/svg?seed=AliAlSabah"
    },
    {
      "name": "Sara Hussein",
      "gender": "Female",
      "phone_number": "+964 771 234 5678",
      "street_address": "45 Salim Street",
      "street_name": "Salim Street",
      "building_number": "45",
      "city": "Erbil",
      "state": "Erbil Governorate",
      "postal_code": "44001",
      "coordinates": {
        "latitude": "36.1911",
        "longitude": "44.0092"
      },
      "timezone": {
        "offset": "+03:00",
        "description": "Asia/Baghdad"
      },
      "avatar_url": "https://api.dicebear.com/8.x/thumbs/svg?seed=SaraHussein"
    },
    {
      "name": "Omar Kareem",
      "gender": "Male",
      "phone_number": "+964 772 345 6789",
      "street_address": "78 Al-Saadoun Street",
      "street_name": "Al-Saadoun Street",
      "building_number": "78",
      "city": "Baghdad",
      "state": "Baghdad Governorate",
      "postal_code": "10011",
      "coordinates": {
        "latitude": "33.3128",
        "longitude": "44.3615"
      },
      "timezone": {
        "offset": "+03:00",
        "description": "Asia/Baghdad"
      },
      "avatar_url": "https://api.dicebear.com/8.x/thumbs/svg?seed=OmarKareem"
    },
    {
      "name": "Layla Abbas",
      "gender": "Female",
      "phone_number": "+964 773 456 7890",
      "street_address": "101 Al-Muthanna Street",
      "street_name": "Al-Muthanna Street",
      "building_number": "101",
      "city": "Basra",
      "state": "Basra Governorate",
      "postal_code": "61001",
      "coordinates": {
        "latitude": "30.5086",
        "longitude": "47.7835"
      },
      "timezone": {
        "offset": "+03:00",
        "description": "Asia/Baghdad"
      },
      "avatar_url": "https://api.dicebear.com/8.x/thumbs/svg?seed=LaylaAbbas"
    },
    {
      "name": "Hussein Al-Janabi",
      "gender": "Male",
      "phone_number": "+964 774 567 8901",
      "street_address": "34 Al-Nasiriyah Road",
      "street_name": "Al-Nasiriyah Road",
      "building_number": "34",
      "city": "Nasiriyah",
      "state": "Dhi Qar Governorate",
      "postal_code": "64001",
      "coordinates": {
        "latitude": "31.0485",
        "longitude": "46.2570"
      },
      "timezone": {
        "offset": "+03:00",
        "description": "Asia/Baghdad"
      },
      "avatar_url": "https://api.dicebear.com/8.x/thumbs/svg?seed=HusseinAlJanabi"
    },
    {
      "name": "Mariam Farouq",
      "gender": "Female",
      "phone_number": "+964 775 678 9012",
      "street_address": "22 Al-Karada Kharej",
      "street_name": "Al-Karada Kharej",
      "building_number": "22",
      "city": "Baghdad",
      "state": "Baghdad Governorate",
      "postal_code": "10013",
      "coordinates": {
        "latitude": "33.3062",
        "longitude": "44.3765"
      },
      "timezone": {
        "offset": "+03:00",
        "description": "Asia/Baghdad"
      },
      "avatar_url": "https://api.dicebear.com/8.x/thumbs/svg?seed=MariamFarouq"
    },
    {
      "name": "Zaid Mahdi",
      "gender": "Male",
      "phone_number": "+964 776 789 0123",
      "street_address": "58 Al-Zahraa Street",
      "street_name": "Al-Zahraa Street",
      "building_number": "58",
      "city": "Najaf",
      "state": "Najaf Governorate",
      "postal_code": "54001",
      "coordinates": {
        "latitude": "32.0000",
        "longitude": "44.3200"
      },
      "timezone": {
        "offset": "+03:00",
        "description": "Asia/Baghdad"
      },
      "avatar_url": "https://api.dicebear.com/8.x/thumbs/svg?seed=ZaidMahdi"
    },
    {
      "name": "Noor Ahmed",
      "gender": "Female",
      "phone_number": "+964 777 890 1234",
      "street_address": "88 Al-Qibla District",
      "street_name": "Al-Qibla District",
      "building_number": "88",
      "city": "Basra",
      "state": "Basra Governorate",
      "postal_code": "61010",
      "coordinates": {
        "latitude": "30.5090",
        "longitude": "47.7800"
      },
      "timezone": {
        "offset": "+03:00",
        "description": "Asia/Baghdad"
      },
      "avatar_url": "https://api.dicebear.com/8.x/thumbs/svg?seed=NoorAhmed"
    },
    {
      "name": "Faisal Jassim",
      "gender": "Male",
      "phone_number": "+964 778 901 2345",
      "street_address": "77 Al-Jami'a Street",
      "street_name": "Al-Jami'a Street",
      "building_number": "77",
      "city": "Baghdad",
      "state": "Baghdad Governorate",
      "postal_code": "10019",
      "coordinates": {
        "latitude": "33.3152",
        "longitude": "44.3750"
      },
      "timezone": {
        "offset": "+03:00",
        "description": "Asia/Baghdad"
      },
      "avatar_url": "https://api.dicebear.com/8.x/thumbs/svg?seed=FaisalJassim"
    },
    {
      "name": "Hiba Nouri",
      "gender": "Female",
      "phone_number": "+964 779 012 3456",
      "street_address": "11 Al-Mansour Street",
      "street_name": "Al-Mansour Street",
      "building_number": "11",
      "city": "Baghdad",
      "state": "Baghdad Governorate",
      "postal_code": "10015",
      "coordinates": {
        "latitude": "33.3182",
        "longitude": "44.3939"
      },
      "timezone": {
        "offset": "+03:00",
        "description": "Asia/Baghdad"
      },
      "avatar_url": "https://api.dicebear.com/8.x/thumbs/svg?seed=HibaNouri"
    }
  ]
}