{
  "meta": {
    "country": "Kenya",
    "country_code": "KE",
    "currency": "KES",
    "country_flag": "ðŸ‡°ðŸ‡ª"
  },
  "addresses": [
    {
      "name": "Brian Otieno",
      "gender": "Male",
      "phone_number": "+254 712 345678",
      "street_address": "123 Moi Avenue",
      "street_name": "Moi Avenue",
      "building_number": "123",
      "city": "Nairobi",
      "state": "Nairobi County",
      "postal_code": "00100",
      "coordinates": {
        "latitude": "-1.286389",
        "longitude": "36.817223"
      },
      "timezone": {
        "offset": "+03:00",
        "description": "Africa/Nairobi"
      },
      "avatar_url": "https://api.dicebear.com/8.x/thumbs/svg?seed=BrianOtieno"
    },
    {
      "name": "Grace Mwende",
      "gender": "Female",
      "phone_number": "+254 733 456789",
      "street_address": "45 Kenyatta Avenue",
      "street_name": "Kenyatta Avenue",
      "building_number": "45",
      "city": "Nairobi",
      "state": "Nairobi County",
      "postal_code": "00200",
      "coordinates": {
        "latitude": "-1.286389",
        "longitude": "36.817223"
      },
      "timezone": {
        "offset": "+03:00",
        "description": "Africa/Nairobi"
      },
      "avatar_url": "https://api.dicebear.com/8.x/thumbs/svg?seed=GraceMwende"
    },
    {
      "name": "Joseph Kiprotich",
      "gender": "Male",
      "phone_number": "+254 722 567890",
      "street_address": "78 Nkrumah Road",
      "street_name": "Nkrumah Road",
      "building_number": "78",
      "city": "Mombasa",
      "state": "Mombasa County",
      "postal_code": "80100",
      "coordinates": {
        "latitude": "-4.043477",
        "longitude": "39.668206"
      },
      "timezone": {
        "offset": "+03:00",
        "description": "Africa/Nairobi"
      },
      "avatar_url": "https://api.dicebear.com/8.x/thumbs/svg?seed=JosephKiprotich"
    },
    {
      "name": "Mercy Achieng",
      "gender": "Female",
      "phone_number": "+254 748 678901",
      "street_address": "101 Kisumu Road",
      "street_name": "Kisumu Road",
      "building_number": "101",
      "city": "Kisumu",
      "state": "Kisumu County",
      "postal_code": "40100",
      "coordinates": {
        "latitude": "-0.091702",
        "longitude": "34.7680"
      },
      "timezone": {
        "offset": "+03:00",
        "description": "Africa/Nairobi"
      },
      "avatar_url": "https://api.dicebear.com/8.x/thumbs/svg?seed=MercyAchieng"
    },
    {
      "name": "Elijah Kiplangat",
      "gender": "Male",
      "phone_number": "+254 700 789012",
      "street_address": "34 Eldoret-Kaptagat Road",
      "street_name": "Eldoret-Kaptagat Road",
      "building_number": "34",
      "city": "Eldoret",
      "state": "Uasin Gishu County",
      "postal_code": "30100",
      "coordinates": {
        "latitude": "0.5143",
        "longitude": "35.2697"
      },
      "timezone": {
        "offset": "+03:00",
        "description": "Africa/Nairobi"
      },
      "avatar_url": "https://api.dicebear.com/8.x/thumbs/svg?seed=ElijahKiplangat"
    },
    {
      "name": "Janet Wanjiku",
      "gender": "Female",
      "phone_number": "+254 701 234567",
      "street_address": "56 Kimathi Street",
      "street_name": "Kimathi Street",
      "building_number": "56",
      "city": "Nairobi",
      "state": "Nairobi County",
      "postal_code": "00100",
      "coordinates": {
        "latitude": "-1.286389",
        "longitude": "36.817223"
      },
      "timezone": {
        "offset": "+03:00",
        "description": "Africa/Nairobi"
      },
      "avatar_url": "https://api.dicebear.com/8.x/thumbs/svg?seed=JanetWanjiku"
    },
    {
      "name": "Samuel Mwangi",
      "gender": "Male",
      "phone_number": "+254 722 888999",
      "street_address": "89 Tom Mboya Street",
      "street_name": "Tom Mboya Street",
      "building_number": "89",
      "city": "Nairobi",
      "state": "Nairobi County",
      "postal_code": "00100",
      "coordinates": {
        "latitude": "-1.286389",
        "longitude": "36.817223"
      },
      "timezone": {
        "offset": "+03:00",
        "description": "Africa/Nairobi"
      },
      "avatar_url": "https://api.dicebear.com/8.x/thumbs/svg?seed=SamuelMwangi"
    },
    {
      "name": "Linet Chebet",
      "gender": "Female",
      "phone_number": "+254 738 654321",
      "street_address": "77 Moi Avenue",
      "street_name": "Moi Avenue",
      "building_number": "77",
      "city": "Nakuru",
      "state": "Nakuru County",
      "postal_code": "20100",
      "coordinates": {
        "latitude": "-0.3031",
        "longitude": "36.0800"
      },
      "timezone": {
        "offset": "+03:00",
        "description": "Africa/Nairobi"
      },
      "avatar_url": "https://api.dicebear.com/8.x/thumbs/svg?seed=LinetChebet"
    },
    {
      "name": "Collins Omondi",
      "gender": "Male",
      "phone_number": "+254 721 111222",
      "street_address": "102 Biashara Street",
      "street_name": "Biashara Street",
      "building_number": "102",
      "city": "Kisumu",
      "state": "Kisumu County",
      "postal_code": "40100",
      "coordinates": {
        "latitude": "-0.091702",
        "longitude": "34.7680"
      },
      "timezone": {
        "offset": "+03:00",
        "description": "Africa/Nairobi"
      },
      "avatar_url": "https://api.dicebear.com/8.x/thumbs/svg?seed=CollinsOmondi"
    },
    {
      "name": "Esther Njeri",
      "gender": "Female",
      "phone_number": "+254 740 987654",
      "street_address": "88 Uhuru Highway",
      "street_name": "Uhuru Highway",
      "building_number": "88",
      "city": "Thika",
      "state": "Kiambu County",
      "postal_code": "01000",
      "coordinates": {
        "latitude": "-1.0383",
        "longitude": "37.0763"
      },
      "timezone": {
        "offset": "+03:00",
        "description": "Africa/Nairobi"
      },
      "avatar_url": "https://api.dicebear.com/8.x/thumbs/svg?seed=EstherNjeri"
    }
  ]
}