{
  "meta": {
    "country": "Mauritania",
    "country_code": "MR",
    "currency": "MRU",
    "country_flag": "ðŸ‡²ðŸ‡·"
  },
  "addresses": [
    {
      "name": "Mohamed Ould Saleh",
      "gender": "Male",
      "phone_number": "+222 22 123 456",
      "street_address": "123 Avenue Gamal Abdel Nasser",
      "street_name": "Avenue Gamal Abdel Nasser",
      "building_number": "123",
      "city": "Nouakchott",
      "state": "Nouakchott Region",
      "postal_code": "M001",
      "coordinates": {
        "latitude": "18.0735",
        "longitude": "-15.9582"
      },
      "timezone": {
        "offset": "+00:00",
        "description": "Africa/Nouakchott"
      },
      "avatar_url": "https://api.dicebear.com/8.x/thumbs/svg?seed=MohamedOuldSaleh"
    },
    {
      "name": "AÃ¯cha Mint Ahmed",
      "gender": "Female",
      "phone_number": "+222 22 234 567",
      "street_address": "45 Rue du Commerce",
      "street_name": "Rue du Commerce",
      "building_number": "45",
      "city": "Nouadhibou",
      "state": "Dakhlet Nouadhibou Region",
      "postal_code": "M500",
      "coordinates": {
        "latitude": "20.9280",
        "longitude": "-17.0304"
      },
      "timezone": {
        "offset": "+00:00",
        "description": "Africa/Nouakchott"
      },
      "avatar_url": "https://api.dicebear.com/8.x/thumbs/svg?seed=AichaMintAhmed"
    },
    {
      "name": "Baba Ould Mbarek",
      "gender": "Male",
      "phone_number": "+222 22 345 678",
      "street_address": "78 Route de lâ€™Oasis",
      "street_name": "Route de lâ€™Oasis",
      "building_number": "78",
      "city": "Kiffa",
      "state": "Assaba Region",
      "postal_code": "M900",
      "coordinates": {
        "latitude": "16.6093",
        "longitude": "-11.4093"
      },
      "timezone": {
        "offset": "+00:00",
        "description": "Africa/Nouakchott"
      },
      "avatar_url": "https://api.dicebear.com/8.x/thumbs/svg?seed=BabaOuldMbarek"
    },
    {
      "name": "Fatimatou Mint Sidi",
      "gender": "Female",
      "phone_number": "+222 22 456 789",
      "street_address": "101 Boulevard de la RÃ©publique",
      "street_name": "Boulevard de la RÃ©publique",
      "building_number": "101",
      "city": "Rosso",
      "state": "Trarza Region",
      "postal_code": "M900",
      "coordinates": {
        "latitude": "16.4867",
        "longitude": "-15.7992"
      },
      "timezone": {
        "offset": "+00:00",
        "description": "Africa/Nouakchott"
      },
      "avatar_url": "https://api.dicebear.com/8.x/thumbs/svg?seed=FatimatouMintSidi"
    },
    {
      "name": "Yacoub Ould Cheikh",
      "gender": "Male",
      "phone_number": "+222 22 567 890",
      "street_address": "34 Avenue du Peuple",
      "street_name": "Avenue du Peuple",
      "building_number": "34",
      "city": "ZouÃ©rat",
      "state": "Tiris Zemmour Region",
      "postal_code": "M300",
      "coordinates": {
        "latitude": "20.7371",
        "longitude": "-12.4958"
      },
      "timezone": {
        "offset": "+00:00",
        "description": "Africa/Nouakchott"
      },
      "avatar_url": "https://api.dicebear.com/8.x/thumbs/svg?seed=YacoubOuldCheikh"
    },
    {
      "name": "Mariam Mint Abdallahi",
      "gender": "Female",
      "phone_number": "+222 22 678 901",
      "street_address": "12 Rue de lâ€™UnitÃ©",
      "street_name": "Rue de lâ€™UnitÃ©",
      "building_number": "12",
      "city": "Nouakchott",
      "state": "Nouakchott Region",
      "postal_code": "M002",
      "coordinates": {
        "latitude": "18.0738",
        "longitude": "-15.9580"
      },
      "timezone": {
        "offset": "+00:00",
        "description": "Africa/Nouakchott"
      },
      "avatar_url": "https://api.dicebear.com/8.x/thumbs/svg?seed=MariamMintAbdallahi"
    },
    {
      "name": "Ahmed Ould Mohamed",
      "gender": "Male",
      "phone_number": "+222 22 789 012",
      "street_address": "89 Rue de lâ€™Espoir",
      "street_name": "Rue de lâ€™Espoir",
      "building_number": "89",
      "city": "Atar",
      "state": "Adrar Region",
      "postal_code": "M700",
      "coordinates": {
        "latitude": "20.5131",
        "longitude": "-13.0493"
      },
      "timezone": {
        "offset": "+00:00",
        "description": "Africa/Nouakchott"
      },
      "avatar_url": "https://api.dicebear.com/8.x/thumbs/svg?seed=AhmedOuldMohamed"
    },
    {
      "name": "Zeinab Mint Mokhtar",
      "gender": "Female",
      "phone_number": "+222 22 890 123",
      "street_address": "56 Boulevard de la LibertÃ©",
      "street_name": "Boulevard de la LibertÃ©",
      "building_number": "56",
      "city": "Tidjikja",
      "state": "Tagant Region",
      "postal_code": "M800",
      "coordinates": {
        "latitude": "18.0738",
        "longitude": "-10.1701"
      },
      "timezone": {
        "offset": "+00:00",
        "description": "Africa/Nouakchott"
      },
      "avatar_url": "https://api.dicebear.com/8.x/thumbs/svg?seed=ZeinabMintMokhtar"
    },
    {
      "name": "Sidi Ould Yahya",
      "gender": "Male",
      "phone_number": "+222 22 901 234",
      "street_address": "77 Avenue de la Paix",
      "street_name": "Avenue de la Paix",
      "building_number": "77",
      "city": "NÃ©ma",
      "state": "Hodh Ech Chargui Region",
      "postal_code": "M400",
      "coordinates": {
        "latitude": "16.6169",
        "longitude": "-7.2535"
      },
      "timezone": {
        "offset": "+00:00",
        "description": "Africa/Nouakchott"
      },
      "avatar_url": "https://api.dicebear.com/8.x/thumbs/svg?seed=SidiOuldYahya"
    },
    {
      "name": "Khadijetou Mint Bakar",
      "gender": "Female",
      "phone_number": "+222 22 012 345",
      "street_address": "99 Rue des Martyrs",
      "street_name": "Rue des Martyrs",
      "building_number": "99",
      "city": "KaÃ©di",
      "state": "Gorgol Region",
      "postal_code": "M200",
      "coordinates": {
        "latitude": "16.1676",
        "longitude": "-13.4936"
      },
      "timezone": {
        "offset": "+00:00",
        "description": "Africa/Nouakchott"
      },
      "avatar_url": "https://api.dicebear.com/8.x/thumbs/svg?seed=KhadijetouMintBakar"
    }
  ]
}