{
  "meta": {
    "country": "Netherlands",
    "country_code": "NL",
    "currency": "EUR",
    "country_flag": "ðŸ‡³ðŸ‡±"
  },
  "addresses": [
    {
      "name": "Daan de Vries",
      "gender": "Male",
      "phone_number": "+31 6 12345678",
      "street_address": "123 Damrak",
      "street_name": "Damrak",
      "building_number": "123",
      "city": "Amsterdam",
      "state": "North Holland",
      "postal_code": "1012 LP",
      "coordinates": {
        "latitude": "52.3740",
        "longitude": "4.8980"
      },
      "timezone": {
        "offset": "+02:00",
        "description": "Central European Summer Time"
      },
      "avatar_url": "https://api.dicebear.com/8.x/thumbs/svg?seed=DaanDeVries"
    },
    {
      "name": "Emma Jansen",
      "gender": "Female",
      "phone_number": "+31 6 87654321",
      "street_address": "45 Coolsingel",
      "street_name": "Coolsingel",
      "building_number": "45",
      "city": "Rotterdam",
      "state": "South Holland",
      "postal_code": "3012 AD",
      "coordinates": {
        "latitude": "51.9225",
        "longitude": "4.4792"
      },
      "timezone": {
        "offset": "+02:00",
        "description": "Central European Summer Time"
      },
      "avatar_url": "https://api.dicebear.com/8.x/thumbs/svg?seed=EmmaJansen"
    },
    {
      "name": "Lars Bakker",
      "gender": "Male",
      "phone_number": "+31 6 23456789",
      "street_address": "78 Grote Marktstraat",
      "street_name": "Grote Marktstraat",
      "building_number": "78",
      "city": "The Hague",
      "state": "South Holland",
      "postal_code": "2511 BJ",
      "coordinates": {
        "latitude": "52.0705",
        "longitude": "4.3007"
      },
      "timezone": {
        "offset": "+02:00",
        "description": "Central European Summer Time"
      },
      "avatar_url": "https://api.dicebear.com/8.x/thumbs/svg?seed=LarsBakker"
    },
    {
      "name": "Sophie Willems",
      "gender": "Female",
      "phone_number": "+31 6 34567890",
      "street_address": "101 Oudegracht",
      "street_name": "Oudegracht",
      "building_number": "101",
      "city": "Utrecht",
      "state": "Utrecht",
      "postal_code": "3511 AL",
      "coordinates": {
        "latitude": "52.0907",
        "longitude": "5.1214"
      },
      "timezone": {
        "offset": "+02:00",
        "description": "Central European Summer Time"
      },
      "avatar_url": "https://api.dicebear.com/8.x/thumbs/svg?seed=SophieWillems"
    },
    {
      "name": "Finn Meijer",
      "gender": "Male",
      "phone_number": "+31 6 45678901",
      "street_address": "34 Vrijthof",
      "street_name": "Vrijthof",
      "building_number": "34",
      "city": "Maastricht",
      "state": "Limburg",
      "postal_code": "6211 LE",
      "coordinates": {
        "latitude": "50.8514",
        "longitude": "5.6900"
      },
      "timezone": {
        "offset": "+02:00",
        "description": "Central European Summer Time"
      },
      "avatar_url": "https://api.dicebear.com/8.x/thumbs/svg?seed=FinnMeijer"
    },
    {
      "name": "Isa van Dijk",
      "gender": "Female",
      "phone_number": "+31 6 56789012",
      "street_address": "88 Nieuwezijds Voorburgwal",
      "street_name": "Nieuwezijds Voorburgwal",
      "building_number": "88",
      "city": "Amsterdam",
      "state": "North Holland",
      "postal_code": "1012 SG",
      "coordinates": {
        "latitude": "52.3731",
        "longitude": "4.8922"
      },
      "timezone": {
        "offset": "+02:00",
        "description": "Central European Summer Time"
      },
      "avatar_url": "https://api.dicebear.com/8.x/thumbs/svg?seed=IsaVanDijk"
    },
    {
      "name": "Bram Visser",
      "gender": "Male",
      "phone_number": "+31 6 67890123",
      "street_address": "55 Westblaak",
      "street_name": "Westblaak",
      "building_number": "55",
      "city": "Rotterdam",
      "state": "South Holland",
      "postal_code": "3012 KD",
      "coordinates": {
        "latitude": "51.9225",
        "longitude": "4.4792"
      },
      "timezone": {
        "offset": "+02:00",
        "description": "Central European Summer Time"
      },
      "avatar_url": "https://api.dicebear.com/8.x/thumbs/svg?seed=BramVisser"
    },
    {
      "name": "Lotte Smit",
      "gender": "Female",
      "phone_number": "+31 6 78901234",
      "street_address": "12 Spuistraat",
      "street_name": "Spuistraat",
      "building_number": "12",
      "city": "The Hague",
      "state": "South Holland",
      "postal_code": "2511 BX",
      "coordinates": {
        "latitude": "52.0705",
        "longitude": "4.3007"
      },
      "timezone": {
        "offset": "+02:00",
        "description": "Central European Summer Time"
      },
      "avatar_url": "https://api.dicebear.com/8.x/thumbs/svg?seed=LotteSmit"
    },
    {
      "name": "Noah de Boer",
      "gender": "Male",
      "phone_number": "+31 6 89012345",
      "street_address": "66 Biltstraat",
      "street_name": "Biltstraat",
      "building_number": "66",
      "city": "Utrecht",
      "state": "Utrecht",
      "postal_code": "3572 BA",
      "coordinates": {
        "latitude": "52.0951",
        "longitude": "5.1220"
      },
      "timezone": {
        "offset": "+02:00",
        "description": "Central European Summer Time"
      },
      "avatar_url": "https://api.dicebear.com/8.x/thumbs/svg?seed=NoahDeBoer"
    },
    {
      "name": "Eva Hendriks",
      "gender": "Female",
      "phone_number": "+31 6 90123456",
      "street_address": "22 Boschstraat",
      "street_name": "Boschstraat",
      "building_number": "22",
      "city": "Maastricht",
      "state": "Limburg",
      "postal_code": "6211 AS",
      "coordinates": {
        "latitude": "50.8514",
        "longitude": "5.6900"
      },
      "timezone": {
        "offset": "+02:00",
        "description": "Central European Summer Time"
      },
      "avatar_url": "https://api.dicebear.com/8.x/thumbs/svg?seed=EvaHendriks"
    }
  ]
}