{
  "meta": {
    "country": "Peru",
    "country_code": "PE",
    "currency": "PEN",
    "country_flag": "叼"
  },
  "addresses": [
    {
      "name": "Luis Garc铆a",
      "gender": "Male",
      "phone_number": "+51 912 345 678",
      "street_address": "123 Avenida Arequipa",
      "street_name": "Avenida Arequipa",
      "building_number": "123",
      "city": "Lima",
      "state": "Lima",
      "postal_code": "15001",
      "coordinates": {
        "latitude": "-12.0464",
        "longitude": "-77.0428"
      },
      "timezone": {
        "offset": "-05:00",
        "description": "Peru Time"
      },
      "avatar_url": "https://api.dicebear.com/8.x/thumbs/svg?seed=LuisGarcia"
    },
    {
      "name": "Mar铆a L贸pez",
      "gender": "Female",
      "phone_number": "+51 987 654 321",
      "street_address": "456 Jir贸n de la Uni贸n",
      "street_name": "Jir贸n de la Uni贸n",
      "building_number": "456",
      "city": "Lima",
      "state": "Lima",
      "postal_code": "15001",
      "coordinates": {
        "latitude": "-12.0464",
        "longitude": "-77.0428"
      },
      "timezone": {
        "offset": "-05:00",
        "description": "Peru Time"
      },
      "avatar_url": "https://api.dicebear.com/8.x/thumbs/svg?seed=MariaLopez"
    },
    {
      "name": "Carlos Fern谩ndez",
      "gender": "Male",
      "phone_number": "+51 911 223 344",
      "street_address": "789 Avenida Javier Prado",
      "street_name": "Avenida Javier Prado",
      "building_number": "789",
      "city": "Lima",
      "state": "Lima",
      "postal_code": "15001",
      "coordinates": {
        "latitude": "-12.0464",
        "longitude": "-77.0428"
      },
      "timezone": {
        "offset": "-05:00",
        "description": "Peru Time"
      },
      "avatar_url": "https://api.dicebear.com/8.x/thumbs/svg?seed=CarlosFernandez"
    },
    {
      "name": "Ana Morales",
      "gender": "Female",
      "phone_number": "+51 944 556 677",
      "street_address": "101 Avenida Larco",
      "street_name": "Avenida Larco",
      "building_number": "101",
      "city": "Lima",
      "state": "Lima",
      "postal_code": "15001",
      "coordinates": {
        "latitude": "-12.0464",
        "longitude": "-77.0428"
      },
      "timezone": {
        "offset": "-05:00",
        "description": "Peru Time"
      },
      "avatar_url": "https://api.dicebear.com/8.x/thumbs/svg?seed=AnaMorales"
    },
    {
      "name": "Jorge Ram铆rez",
      "gender": "Male",
      "phone_number": "+51 955 667 788",
      "street_address": "34 Calle Los Pinos",
      "street_name": "Calle Los Pinos",
      "building_number": "34",
      "city": "Lima",
      "state": "Lima",
      "postal_code": "15001",
      "coordinates": {
        "latitude": "-12.0464",
        "longitude": "-77.0428"
      },
      "timezone": {
        "offset": "-05:00",
        "description": "Peru Time"
      },
      "avatar_url": "https://api.dicebear.com/8.x/thumbs/svg?seed=JorgeRamirez"
    },
    {
      "name": "Luc铆a Herrera",
      "gender": "Female",
      "phone_number": "+51 922 889 001",
      "street_address": "222 Avenida Venezuela",
      "street_name": "Avenida Venezuela",
      "building_number": "222",
      "city": "Lima",
      "state": "Lima",
      "postal_code": "15001",
      "coordinates": {
        "latitude": "-12.0464",
        "longitude": "-77.0428"
      },
      "timezone": {
        "offset": "-05:00",
        "description": "Peru Time"
      },
      "avatar_url": "https://api.dicebear.com/8.x/thumbs/svg?seed=LuciaHerrera"
    },
    {
      "name": "Jos茅 Rojas",
      "gender": "Male",
      "phone_number": "+51 977 001 234",
      "street_address": "303 Jir贸n Cusco",
      "street_name": "Jir贸n Cusco",
      "building_number": "303",
      "city": "Lima",
      "state": "Lima",
      "postal_code": "15001",
      "coordinates": {
        "latitude": "-12.0464",
        "longitude": "-77.0428"
      },
      "timezone": {
        "offset": "-05:00",
        "description": "Peru Time"
      },
      "avatar_url": "https://api.dicebear.com/8.x/thumbs/svg?seed=JoseRojas"
    },
    {
      "name": "Sof铆a Castro",
      "gender": "Female",
      "phone_number": "+51 933 220 110",
      "street_address": "55 Calle Lima",
      "street_name": "Calle Lima",
      "building_number": "55",
      "city": "Lima",
      "state": "Lima",
      "postal_code": "15001",
      "coordinates": {
        "latitude": "-12.0464",
        "longitude": "-77.0428"
      },
      "timezone": {
        "offset": "-05:00",
        "description": "Peru Time"
      },
      "avatar_url": "https://api.dicebear.com/8.x/thumbs/svg?seed=SofiaCastro"
    },
    {
      "name": "Andr茅s Torres",
      "gender": "Male",
      "phone_number": "+51 988 331 122",
      "street_address": "66 Avenida Benavides",
      "street_name": "Avenida Benavides",
      "building_number": "66",
      "city": "Lima",
      "state": "Lima",
      "postal_code": "15001",
      "coordinates": {
        "latitude": "-12.0464",
        "longitude": "-77.0428"
      },
      "timezone": {
        "offset": "-05:00",
        "description": "Peru Time"
      },
      "avatar_url": "https://api.dicebear.com/8.x/thumbs/svg?seed=AndresTorres"
    },
    {
      "name": "Elena Vargas",
      "gender": "Female",
      "phone_number": "+51 900 556 799",
      "street_address": "77 Calle Los Sauces",
      "street_name": "Calle Los Sauces",
      "building_number": "77",
      "city": "Lima",
      "state": "Lima",
      "postal_code": "15001",
      "coordinates": {
        "latitude": "-12.0464",
        "longitude": "-77.0428"
      },
      "timezone": {
        "offset": "-05:00",
        "description": "Peru Time"
      },
      "avatar_url": "https://api.dicebear.com/8.x/thumbs/svg?seed=ElenaVargas"
    }
  ]
}