{
  "meta": {
    "country": "Ukraine",
    "country_code": "UA",
    "currency": "UAH",
    "country_flag": "ðŸ‡ºðŸ‡¦"
  },
  "addresses": [
    {
      "name": "Olena Shevchenko",
      "gender": "Female",
      "phone_number": "+380 50 123 4567",
      "street_address": "123 Khreshchatyk Street",
      "street_name": "Khreshchatyk Street",
      "building_number": "123",
      "city": "Kyiv",
      "state": "Kyiv City",
      "postal_code": "01001",
      "coordinates": {
        "latitude": "50.4501",
        "longitude": "30.5234"
      },
      "timezone": {
        "offset": "+02:00",
        "description": "Eastern European Time"
      },
      "avatar_url": "https://api.dicebear.com/8.x/thumbs/svg?seed=OlenaShevchenko"
    },
    {
      "name": "Andriy Kovalenko",
      "gender": "Male",
      "phone_number": "+380 63 234 5678",
      "street_address": "45 Deribasivska Street",
      "street_name": "Deribasivska Street",
      "building_number": "45",
      "city": "Odesa",
      "state": "Odesa Oblast",
      "postal_code": "65000",
      "coordinates": {
        "latitude": "46.4825",
        "longitude": "30.7233"
      },
      "timezone": {
        "offset": "+02:00",
        "description": "Eastern European Time"
      },
      "avatar_url": "https://api.dicebear.com/8.x/thumbs/svg?seed=AndriyKovalenko"
    },
    {
      "name": "Yulia Lysenko",
      "gender": "Female",
      "phone_number": "+380 67 345 6789",
      "street_address": "78 Svobody Avenue",
      "street_name": "Svobody Avenue",
      "building_number": "78",
      "city": "Lviv",
      "state": "Lviv Oblast",
      "postal_code": "79000",
      "coordinates": {
        "latitude": "49.8397",
        "longitude": "24.0297"
      },
      "timezone": {
        "offset": "+02:00",
        "description": "Eastern European Time"
      },
      "avatar_url": "https://api.dicebear.com/8.x/thumbs/svg?seed=YuliaLysenko"
    },
    {
      "name": "Dmytro Hrytsenko",
      "gender": "Male",
      "phone_number": "+380 66 456 7890",
      "street_address": "101 Sumska Street",
      "street_name": "Sumska Street",
      "building_number": "101",
      "city": "Kharkiv",
      "state": "Kharkiv Oblast",
      "postal_code": "61000",
      "coordinates": {
        "latitude": "49.9935",
        "longitude": "36.2304"
      },
      "timezone": {
        "offset": "+02:00",
        "description": "Eastern European Time"
      },
      "avatar_url": "https://api.dicebear.com/8.x/thumbs/svg?seed=DmytroHrytsenko"
    },
    {
      "name": "Natalia Melnyk",
      "gender": "Female",
      "phone_number": "+380 68 567 8901",
      "street_address": "34 Haharina Avenue",
      "street_name": "Haharina Avenue",
      "building_number": "34",
      "city": "Dnipro",
      "state": "Dnipropetrovsk Oblast",
      "postal_code": "49000",
      "coordinates": {
        "latitude": "48.4647",
        "longitude": "35.0462"
      },
      "timezone": {
        "offset": "+02:00",
        "description": "Eastern European Time"
      },
      "avatar_url": "https://api.dicebear.com/8.x/thumbs/svg?seed=NataliaMelnyk"
    },
    {
      "name": "Taras Kravchenko",
      "gender": "Male",
      "phone_number": "+380 95 678 9012",
      "street_address": "56 Soborna Street",
      "street_name": "Soborna Street",
      "building_number": "56",
      "city": "Vinnytsia",
      "state": "Vinnytsia Oblast",
      "postal_code": "21000",
      "coordinates": {
        "latitude": "49.2331",
        "longitude": "28.4682"
      },
      "timezone": {
        "offset": "+02:00",
        "description": "Eastern European Time"
      },
      "avatar_url": "https://api.dicebear.com/8.x/thumbs/svg?seed=TarasKravchenko"
    },
    {
      "name": "Iryna Borysenko",
      "gender": "Female",
      "phone_number": "+380 73 789 0123",
      "street_address": "89 Myru Avenue",
      "street_name": "Myru Avenue",
      "building_number": "89",
      "city": "Zaporizhzhia",
      "state": "Zaporizhzhia Oblast",
      "postal_code": "69000",
      "coordinates": {
        "latitude": "47.8388",
        "longitude": "35.1396"
      },
      "timezone": {
        "offset": "+02:00",
        "description": "Eastern European Time"
      },
      "avatar_url": "https://api.dicebear.com/8.x/thumbs/svg?seed=IrynaBorysenko"
    },
    {
      "name": "Oleh Marchenko",
      "gender": "Male",
      "phone_number": "+380 97 890 1234",
      "street_address": "12 Bohdan Khmelnytskyi Street",
      "street_name": "Bohdan Khmelnytskyi Street",
      "building_number": "12",
      "city": "Chernihiv",
      "state": "Chernihiv Oblast",
      "postal_code": "14000",
      "coordinates": {
        "latitude": "51.4982",
        "longitude": "31.2893"
      },
      "timezone": {
        "offset": "+02:00",
        "description": "Eastern European Time"
      },
      "avatar_url": "https://api.dicebear.com/8.x/thumbs/svg?seed=OlehMarchenko"
    },
    {
      "name": "Alina Horbach",
      "gender": "Female",
      "phone_number": "+380 96 901 2345",
      "street_address": "27 Peremohy Avenue",
      "street_name": "Peremohy Avenue",
      "building_number": "27",
      "city": "Zhytomyr",
      "state": "Zhytomyr Oblast",
      "postal_code": "10000",
      "coordinates": {
        "latitude": "50.2547",
        "longitude": "28.6587"
      },
      "timezone": {
        "offset": "+02:00",
        "description": "Eastern European Time"
      },
      "avatar_url": "https://api.dicebear.com/8.x/thumbs/svg?seed=AlinaHorbach"
    },
    {
      "name": "Bohdan Petrenko",
      "gender": "Male",
      "phone_number": "+380 99 012 3456",
      "street_address": "90 Tsentralna Street",
      "street_name": "Tsentralna Street",
      "building_number": "90",
      "city": "Poltava",
      "state": "Poltava Oblast",
      "postal_code": "36000",
      "coordinates": {
        "latitude": "49.5883",
        "longitude": "34.5514"
      },
      "timezone": {
        "offset": "+02:00",
        "description": "Eastern European Time"
      },
      "avatar_url": "https://api.dicebear.com/8.x/thumbs/svg?seed=BohdanPetrenko"
    }
  ]
}